# 
# Header Description:
# 
# Version: v2.0.0.1 Platform: 10 Manufacturer: HUAWEI Model: BLA-AL00
# 
# Raw,ElapsedRealtimeMillis,TimeNanos,LeapSecond,TimeUncertaintyNanos,FullBiasNanos,BiasNanos,BiasUncertaintyNanos,DriftNanosPerSecond,DriftUncertaintyNanosPerSecond,HardwareClockDiscontinuityCount,Svid,TimeOffsetNanos,State,ReceivedSvTimeNanos,ReceivedSvTimeUncertaintyNanos,Cn0DbHz,PseudorangeRateMetersPerSecond,PseudorangeRateUncertaintyMetersPerSecond,AccumulatedDeltaRangeState,AccumulatedDeltaRangeMeters,AccumulatedDeltaRangeUncertaintyMeters,CarrierFrequencyHz,CarrierCycles,CarrierPhase,CarrierPhaseUncertainty,MultipathIndicator,SnrInDb,ConstellationType,AgcDb,CarrierFrequencyHz
# 
# Fix,Provider,Latitude,Longitude,Altitude,Speed,Accuracy,(UTC)TimeInMs
# 
# Nav,Svid,Type,Status,MessageId,Sub-messageId,Data(Bytes)
# 
Fix,gps,34.486763,109.464176,357.908905,0.693355,3.000000,1627951342000
Raw,2064689186,943292000000,,,-1311985616708479995,0.0,9.37652366149088,,,0,1,0.0,16431,175359927285148,44,26.57628631591797,472.52098360243895,0.2200433122357185,4,558588.5970038346,3.4028234663852886E38,1.57542003E9,,,,0,,1,,1.57542003E9
Raw,2064689186,943292000000,,,-1311985616708479995,0.0,9.37652366149088,,,0,3,0.0,16431,175359926510871,26,30.866069793701172,-256.5049086152362,0.13465380298572543,4,-86640.31771131187,3.4028234663852886E38,1.57542003E9,,,,0,,1,,1.57542003E9
Raw,2064689187,943292000000,,,-1311985616708479995,0.0,9.37652366149088,,,0,6,0.0,16,943004106496,1000000000,22.5064697265625,-683.2000185578217,2.99792458E8,2,-524290.7168136352,3.4028234663852886E38,1.57542003E9,,,,0,,1,,1.57542003E9
Raw,2064689187,943292000000,,,-1311985616708479995,0.0,9.37652366149088,,,0,7,0.0,16,943017154058,1000000000,7.0,545.8174194670471,2.99792458E8,2,9.27305985033444,3.4028234663852886E38,1.57542003E9,,,,0,,1,,1.57542003E9
Raw,2064689188,943292000000,,,-1311985616708479995,0.0,9.37652366149088,,,0,14,0.0,16431,175359933230471,12,37.857906341552734,-137.66359190357696,0.06206040891753106,1,-174474.8807662134,0.0011627072235569358,1.57542003E9,,,,0,,1,,1.57542003E9
Raw,2064689188,943292000000,,,-1311985616708479995,0.0,9.37652366149088,,,0,17,0.0,16431,175359930060917,11,38.602638244628906,-203.6495964624662,0.05658648432104288,1,-203382.6141727326,0.0010671705240383744,1.57542003E9,,,,0,,1,,1.57542003E9
Raw,2064689189,943292000000,,,-1311985616708479995,0.0,9.37652366149088,,,0,19,0.0,16431,175359927665531,6,44.04773712158203,-458.70790929304826,0.03137884028035613,1,-541294.5403502996,6.009766366332769E-4,1.57542003E9,,,,0,,1,,1.57542003E9
Raw,2064689189,943292000000,,,-1311985616708479995,0.0,9.37652366149088,,,0,21,0.0,16431,175359917714348,57,24.341693878173828,483.5133256450888,0.28609343215265315,4,559961.7541554137,3.4028234663852886E38,1.57542003E9,,,,0,,1,,1.57542003E9
Raw,2064689189,943292000000,,,-1311985616708479995,0.0,9.37652366149088,,,0,22,0.0,16431,175359923948610,35,28.4104061126709,82.92697075381847,0.17780597895867123,4,26760.082792087705,3.4028234663852886E38,1.57542003E9,,,,0,,1,,1.57542003E9
Raw,2064689189,943292000000,,,-1311985616708479995,0.0,9.37652366149088,,,0,24,0.0,16431,175359916650517,20,33.04972839355469,-452.52593108157134,0.10680565682190218,4,-543844.8303394871,3.4028234663852886E38,1.57542003E9,,,,0,,1,,1.57542003E9
Raw,2064689190,943292000000,,,-1311985616708479995,0.0,9.37652366149088,,,0,30,0.0,16431,175359923235206,93,16.497173309326172,470.8510795626473,4.20058208687133,4,61403.71230977361,3.4028234663852886E38,1.57542003E9,,,,0,,1,,1.57542003E9
Raw,2064689190,943292000000,,,-1311985616708479995,0.0,9.37652366149088,,,0,10,0.0,32995,13341920867666,33,40.03129196166992,-881.2963899667438,0.0502226340003499,4,-573754.1235217998,3.4028234663852886E38,1.59806246E9,,,,0,,3,,1.59806246E9
Raw,2064689190,943292000000,,,-1311985616708479995,0.0,9.37652366149088,,,0,2,0.0,32995,13341920892203,69,28.619365692138672,-95.77356884359182,0.17664412998301693,4,-150454.35565870092,3.4028234663852886E38,1.59975002E9,,,,0,,3,,1.59975002E9
Raw,2064689191,943292000000,,,-1311985616708479995,0.0,9.37652366149088,,,0,18,0.0,32995,13341929806383,33,35.204750061035156,370.03868366119605,0.08276501032131639,4,25461.032688672916,3.4028234663852886E38,1.60031245E9,,,,0,,3,,1.60031245E9
Raw,2064689191,943292000000,,,-1311985616708479995,0.0,9.37652366149088,,,0,9,0.0,32995,13341933176146,33,37.51505661010742,-470.83390200455983,0.06445347831415965,1,-502799.3542103421,0.0011902875266969204,1.59862502E9,,,,0,,3,,1.59862502E9
Raw,2064689191,943292000000,,,-1311985616708479995,0.0,9.37652366149088,,,0,16,0.0,32995,13341934363672,59,22.994754791259766,303.87952318194266,4.202583632384471,4,55580.76528158169,3.4028234663852886E38,1.60143744E9,,,,0,,3,,1.60143744E9
Raw,2064689191,943292000000,,,-1311985616708479995,0.0,9.37652366149088,,,0,19,0.0,32995,13341934095241,91,26.31288719177246,-60.59078151347782,0.22800294710522606,1,-5045.87387976546,0.004068381618708372,1.60368755E9,,,,0,,3,,1.60368755E9
Raw,2064689192,943292000000,,,-1311985616708479995,0.0,9.37652366149088,,,0,3,0.0,32995,13341922239561,111,24.592731475830078,-558.7227416294093,0.275250384849302,4,-553934.1321056411,3.4028234663852886E38,1.60481254E9,,,,0,,3,,1.60481254E9
Raw,2064689192,943292000000,,,-1311985616708479995,0.0,9.37652366149088,,,0,193,0.0,35,11934701,24,31.622631072998047,-179.9385337069166,0.12449475131008131,4,-20182.156907003344,3.4028234663852886E38,1.57542003E9,,,,0,,4,,1.57542003E9
Raw,2064689192,943292000000,,,-1311985616708479995,0.0,9.37652366149088,,,0,194,0.0,35,16435912,6,43.03456115722656,-160.6743113012676,0.0358416097020304,1,-19789.187086253816,6.753304623998702E-4,1.57542003E9,,,,0,,4,,1.57542003E9
Raw,2064689193,943292000000,,,-1311985616708479995,0.0,9.37652366149088,,,0,195,0.0,35,8630762,27,30.759403228759766,-110.92460962808434,0.13668447169169534,4,-97751.04923033122,3.4028234663852886E38,1.57542003E9,,,,0,,4,,1.57542003E9
Raw,2064689193,943292000000,,,-1311985616708479995,0.0,9.37652366149088,,,0,3,0.0,16,622557899,1000000000,35.24602127075195,-117.28449826261033,2.99792458E8,6,-72.8314445764053,3.4028234663852886E38,1.56109798E9,,,,0,,5,,1.56109798E9
Raw,2064689193,943292000000,,,-1311985616708479995,0.0,9.37652366149088,,,0,4,0.0,16,943001933226,1000000000,23.727352142333984,-117.28449826261033,2.99792458E8,2,-0.11379021913346798,3.4028234663852886E38,1.56109798E9,,,,0,,5,,1.56109798E9
Raw,2064689194,943292000000,,,-1311985616708479995,0.0,9.37652366149088,,,0,5,0.0,16,943001465380,1000000000,16.820812225341797,-117.28449826261033,2.99792458E8,2,-0.11379021913171883,3.4028234663852886E38,1.56109798E9,,,,0,,5,,1.56109798E9
Raw,2064689194,943292000000,,,-1311985616708479995,0.0,9.37652366149088,,,0,7,0.0,16431,175345880502935,8,35.177860260009766,-108.89176150878131,0.08494021327284323,1,-97454.4454696796,0.0015974927227944136,1.56109798E9,,,,0,,5,,1.56109798E9
Raw,2064689194,943292000000,,,-1311985616708479995,0.0,9.37652366149088,,,0,8,0.0,16431,175345878583871,6,38.90541458129883,-223.3154806182365,0.05624301786617952,1,-199446.688794378,0.0010400665923953056,1.56109798E9,,,,0,,5,,1.56109798E9
Raw,2064689195,943292000000,,,-1311985616708479995,0.0,9.37652366149088,,,0,10,0.0,16431,175345880956107,10,33.35091018676758,-170.36034095031118,0.10404224026342856,1,-125626.95939135306,0.001971452496945858,1.56109798E9,,,,0,,5,,1.56109798E9
Raw,2064689195,943292000000,,,-1311985616708479995,0.0,9.37652366149088,,,0,30,0.0,16,943011729300,1000000000,27.294898986816406,-364.21893379764356,2.99792458E8,2,-3.9991173406749034,3.4028234663852886E38,1.56109798E9,,,,0,,5,,1.56109798E9
Raw,2064689195,943292000000,,,-1311985616708479995,0.0,9.37652366149088,,,0,32,0.0,16431,175345912801280,6,37.47698211669922,-642.6508930641994,0.06465879266315186,1,-139729.14073375452,0.001225978252477944,1.56109798E9,,,,0,,5,,1.56109798E9
Raw,2064689195,943292000000,,,-1311985616708479995,0.0,9.37652366149088,,,0,36,0.0,16431,175345920946393,9,33.52743911743164,-383.5029921929888,0.10202316258820482,1,-137013.4045369226,0.0019317902624607086,1.56109798E9,,,,0,,5,,1.56109798E9
Fix,gps,34.486763,109.464175,357.828522,0.712862,3.000000,1627951343000
Raw,2064690138,944292000000,,,-1311985616708480382,0.0,9.673998482993957,,,0,1,0.0,16431,175360927283517,47,25.94925308227539,472.2026193760594,0.23641720333571514,4,559060.607584107,3.4028234663852886E38,1.57542003E9,,,,0,,1,,1.57542003E9
Raw,2064690139,944292000000,,,-1311985616708480382,0.0,9.673998482993957,,,0,3,0.0,16431,175360926511693,33,28.966781616210938,-255.62950071944783,0.16727879348383712,4,-86896.63437768567,3.4028234663852886E38,1.57542003E9,,,,0,,1,,1.57542003E9
Raw,2064690139,944292000000,,,-1311985616708480382,0.0,9.673998482993957,,,0,6,0.0,16,944004108774,1000000000,20.395530700683594,-682.8287242764623,2.99792458E8,2,-524290.7099971591,3.4028234663852886E38,1.57542003E9,,,,0,,1,,1.57542003E9
Raw,2064690139,944292000000,,,-1311985616708480382,0.0,9.673998482993957,,,0,7,0.0,16,944017152237,1000000000,7.0,546.0030666077269,2.99792458E8,2,9.271944418683576,3.4028234663852886E38,1.57542003E9,,,,0,,1,,1.57542003E9
Raw,2064690140,944292000000,,,-1311985616708480382,0.0,9.673998482993957,,,0,14,0.0,16431,175360933230872,10,39.08775329589844,-137.58443539830273,0.05418120814616259,1,-174612.4326854203,0.0010092018637806177,1.57542003E9,,,,0,,1,,1.57542003E9
Raw,2064690140,944292000000,,,-1311985616708480382,0.0,9.673998482993957,,,0,17,0.0,16431,175360930061560,12,37.68114471435547,-203.9144341908767,0.0627173823827484,1,-203586.3092231204,0.0011866111308336258,1.57542003E9,,,,0,,1,,1.57542003E9
Raw,2064690140,944292000000,,,-1311985616708480382,0.0,9.673998482993957,,,0,19,0.0,16431,175360927667067,6,42.989654541015625,-458.795705701051,0.034434761866697514,1,-541753.2287675428,6.78831129334867E-4,1.57542003E9,,,,0,,1,,1.57542003E9
Raw,2064690141,944292000000,,,-1311985616708480382,0.0,9.673998482993957,,,0,21,0.0,16431,175360917712817,49,25.568227767944336,481.7379364023591,0.24883623141675681,4,560444.3249958513,3.4028234663852886E38,1.57542003E9,,,,0,,1,,1.57542003E9
Raw,2064690141,944292000000,,,-1311985616708480382,0.0,9.673998482993957,,,0,22,0.0,16431,175360923948367,38,27.844287872314453,82.19058519818662,0.1897328916481914,4,26842.08716960823,3.4028234663852886E38,1.57542003E9,,,,0,,1,,1.57542003E9
Raw,2064690141,944292000000,,,-1311985616708480382,0.0,9.673998482993957,,,0,24,0.0,16431,175360916652062,25,31.26776885986328,-452.02825905142527,0.1304453268826985,4,-544296.9177799871,3.4028234663852886E38,1.57542003E9,,,,0,,1,,1.57542003E9
Raw,2064690142,944292000000,,,-1311985616708480382,0.0,9.673998482993957,,,0,30,0.0,16431,175360923233549,86,17.699604034423828,470.88335564897443,4.200581554332947,4,61874.763585292385,3.4028234663852886E38,1.57542003E9,,,,0,,1,,1.57542003E9
Raw,2064690142,944292000000,,,-1311985616708480382,0.0,9.673998482993957,,,0,10,0.0,32995,13342920870569,33,36.59904861450195,-881.6424632302765,0.07274249649456943,4,-574635.4523822907,3.4028234663852886E38,1.59806246E9,,,,0,,3,,1.59806246E9
Raw,2064690143,944292000000,,,-1311985616708480382,0.0,9.673998482993957,,,0,2,0.0,32995,13342920892646,74,28.03411865234375,-95.89480014144345,0.18869449172648545,4,-150550.0989174055,3.4028234663852886E38,1.59975002E9,,,,0,,3,,1.59975002E9
Raw,2064690143,944292000000,,,-1311985616708480382,0.0,9.673998482993957,,,0,18,0.0,32995,13342929805114,44,32.61781311035156,369.90688680182234,0.11086696095019305,4,25831.112567046075,3.4028234663852886E38,1.60031245E9,,,,0,,3,,1.60031245E9
Raw,2064690143,944292000000,,,-1311985616708480382,0.0,9.673998482993957,,,0,9,0.0,32995,13342933177682,33,37.598751068115234,-470.8328113659511,0.06385839995461734,1,-503270.04542502546,0.001178873353637755,1.59862502E9,,,,0,,3,,1.59862502E9
Raw,2064690144,944292000000,,,-1311985616708480382,0.0,9.673998482993957,,,0,16,0.0,32995,13342934362849,126,23.502206802368164,303.74922595065595,0.3141983450262862,4,55885.183938038856,3.4028234663852886E38,1.60143744E9,,,,0,,3,,1.60143744E9
Raw,2064690144,944292000000,,,-1311985616708480382,0.0,9.673998482993957,,,0,19,0.0,32995,13342934095418,79,27.513961791992188,-60.63326103522644,0.19888514622680575,1,-5106.493267978752,0.0035429736599326134,1.60368755E9,,,,0,,3,,1.60368755E9
Raw,2064690144,944292000000,,,-1311985616708480382,0.0,9.673998482993957,,,0,3,0.0,32995,13342922241517,118,24.02224349975586,-558.2836914244824,0.2939086991948485,4,-554493.3492950238,3.4028234663852886E38,1.60481254E9,,,,0,,3,,1.60481254E9
Raw,2064690144,944292000000,,,-1311985616708480382,0.0,9.673998482993957,,,0,193,0.0,35,11935301,24,31.852420806884766,-179.73702118272547,0.12130053616236075,4,-20362.028221793444,3.4028234663852886E38,1.57542003E9,,,,0,,4,,1.57542003E9
Raw,2064690145,944292000000,,,-1311985616708480382,0.0,9.673998482993957,,,0,194,0.0,35,16436453,8,40.96379089355469,-160.4438798127169,0.04469519345680936,1,-19949.75402945507,8.13160149846226E-4,1.57542003E9,,,,0,,4,,1.57542003E9
Raw,2064690145,944292000000,,,-1311985616708480382,0.0,9.673998482993957,,,0,195,0.0,35,8631107,27,30.725849151611328,-111.41013978309417,0.13720756583947524,4,-97862.2707077329,3.4028234663852886E38,1.57542003E9,,,,0,,4,,1.57542003E9
Raw,2064690145,944292000000,,,-1311985616708480382,0.0,9.673998482993957,,,0,3,0.0,16,944002558284,1000000000,33.268924713134766,-117.28449826261033,2.99792458E8,2,-0.2321065399890756,3.4028234663852886E38,1.56109798E9,,,,0,,5,,1.56109798E9
Raw,2064690146,944292000000,,,-1311985616708480382,0.0,9.673998482993957,,,0,4,0.0,16,944001933617,1000000000,17.348947525024414,-117.28449826261033,2.99792458E8,2,-0.11470739990513112,3.4028234663852886E38,1.56109798E9,,,,0,,5,,1.56109798E9
Raw,2064690146,944292000000,,,-1311985616708480382,0.0,9.673998482993957,,,0,5,0.0,16,944001465771,1000000000,28.53403663635254,-117.28449826261033,2.99792458E8,2,-0.11470739990338197,3.4028234663852886E38,1.56109798E9,,,,0,,5,,1.56109798E9
Raw,2064690146,944292000000,,,-1311985616708480382,0.0,9.673998482993957,,,0,7,0.0,16431,175346880503304,9,33.95256042480469,-108.87878461346025,0.09725022076175555,1,-97563.20995560131,0.0017343135550618172,1.56109798E9,,,,0,,5,,1.56109798E9
Raw,2064690146,944292000000,,,-1311985616708480382,0.0,9.673998482993957,,,0,8,0.0,16431,175346878584631,7,36.34596252441406,-223.37768110139064,0.07437103215394891,1,-199669.9321902811,0.0013964768731966615,1.56109798E9,,,,0,,5,,1.56109798E9
Raw,2064690147,944292000000,,,-1311985616708480382,0.0,9.673998482993957,,,0,10,0.0,16431,175346880956663,9,33.86314392089844,-170.46337221637964,0.09829992048227937,1,-125797.30714151345,0.001858551986515522,1.56109798E9,,,,0,,5,,1.56109798E9
Raw,2064690147,944292000000,,,-1311985616708480382,0.0,9.673998482993957,,,0,32,0.0,16431,175346912803418,6,39.305938720703125,-642.3026385234493,0.052819303638049875,1,-140371.6869252789,9.931959211826324E-4,1.56109798E9,,,,0,,5,,1.56109798E9
Raw,2064690147,944292000000,,,-1311985616708480382,0.0,9.673998482993957,,,0,36,0.0,16431,175346920947666,6,36.695682525634766,-383.53012182838097,0.07199309017576722,1,-137396.8480925805,0.0013413673732429743,1.56109798E9,,,,0,,5,,1.56109798E9
Fix,gps,34.486764,109.464174,357.879578,0.596189,3.000000,1627951344000
Raw,2064691150,945292000000,,,-1311985616708480767,0.0,9.749900684669864,,,0,1,0.0,16431,175361927281901,65,23.103954315185547,472.4671333211329,0.3275449218362123,4,559532.6454388383,3.4028234663852886E38,1.57542003E9,,,,0,,1,,1.57542003E9
Raw,2064691151,945292000000,,,-1311985616708480767,0.0,9.749900684669864,,,0,3,0.0,16431,175361926512547,31,29.4348201751709,-255.85810879657458,0.1585651841147092,4,-87152.82495279588,3.4028234663852886E38,1.57542003E9,,,,0,,1,,1.57542003E9
Raw,2064691152,945292000000,,,-1311985616708480767,0.0,9.749900684669864,,,0,6,0.0,16,945004111052,1000000000,18.751750946044922,-683.0144054995985,2.99792458E8,2,-524290.7267580789,3.4028234663852886E38,1.57542003E9,,,,0,,1,,1.57542003E9
Raw,2064691152,945292000000,,,-1311985616708480767,0.0,9.749900684669864,,,0,7,0.0,16,945017150477,1000000000,7.0,545.8174194670471,2.99792458E8,2,9.264523117023511,3.4028234663852886E38,1.57542003E9,,,,0,,1,,1.57542003E9
Raw,2064691153,945292000000,,,-1311985616708480767,0.0,9.749900684669864,,,0,14,0.0,16431,175361933231328,12,37.754337310791016,-137.62551327902685,0.0627764608596312,1,-174749.95425339797,0.0011766542447730899,1.57542003E9,,,,0,,1,,1.57542003E9
Raw,2064691154,945292000000,,,-1311985616708480767,0.0,9.749900684669864,,,0,17,0.0,16431,175361930062273,13,37.12135696411133,-203.69533511911982,0.06677212547174038,1,-203790.02206962227,0.0012656040489673615,1.57542003E9,,,,0,,1,,1.57542003E9
Raw,2064691154,945292000000,,,-1311985616708480767,0.0,9.749900684669864,,,0,19,0.0,16431,175361927668591,8,41.35426330566406,-458.6319054150024,0.04128328244268792,1,-542211.8924940403,8.19466426037252E-4,1.57542003E9,,,,0,,1,,1.57542003E9
Raw,2064691155,945292000000,,,-1311985616708480767,0.0,9.749900684669864,,,0,21,0.0,16431,175361917711196,35,28.457963943481445,482.18765441617757,0.1793145104217685,4,560926.3834077448,3.4028234663852886E38,1.57542003E9,,,,0,,1,,1.57542003E9
Raw,2064691155,945292000000,,,-1311985616708480767,0.0,9.749900684669864,,,0,22,0.0,16431,175361923948099,63,23.47799301147461,82.60261653570501,0.31319484301050227,4,26924.736070164912,3.4028234663852886E38,1.57542003E9,,,,0,,1,,1.57542003E9
Raw,2064691155,945292000000,,,-1311985616708480767,0.0,9.749900684669864,,,0,24,0.0,16431,175361916653552,19,33.54630661010742,-451.9642521980754,0.10103777519836088,4,-544749.0273784177,3.4028234663852886E38,1.57542003E9,,,,0,,1,,1.57542003E9
Raw,2064691156,945292000000,,,-1311985616708480767,0.0,9.749900684669864,,,0,30,0.0,16431,175361923231994,166,14.178825378417969,471.37121193164194,4.200581288063756,4,62346.35519566042,3.4028234663852886E38,1.57542003E9,,,,1,,1,,1.57542003E9
Raw,2064691156,945292000000,,,-1311985616708480767,0.0,9.749900684669864,,,0,10,0.0,32995,13343920873532,33,36.2070198059082,-881.2036856850018,0.07592807453538797,1,-575516.6350255939,0.001386172603815794,1.59806246E9,,,,0,,3,,1.59806246E9
Raw,2064691157,945292000000,,,-1311985616708480767,0.0,9.749900684669864,,,0,2,0.0,32995,13343920892981,68,28.75977325439453,-95.58979623802082,0.17387200142943116,4,-150645.75504146362,3.4028234663852886E38,1.59975002E9,,,,0,,3,,1.59975002E9
Raw,2064691157,945292000000,,,-1311985616708480767,0.0,9.749900684669864,,,0,18,0.0,32995,13343929803923,57,30.25247573852539,369.7291808735124,0.14501677525756207,4,26201.279030129597,3.4028234663852886E38,1.60031245E9,,,,0,,3,,1.60031245E9
Raw,2064691157,945292000000,,,-1311985616708480767,0.0,9.749900684669864,,,0,9,0.0,32995,13343933179294,33,37.369041442871094,-470.66181968157616,0.06550653968322723,1,-503740.6952555839,0.0012104660272598267,1.59862502E9,,,,0,,3,,1.59862502E9
Raw,2064691158,945292000000,,,-1311985616708480767,0.0,9.749900684669864,,,0,16,0.0,32995,13343934361771,92,26.17546844482422,303.55287691862804,0.23164639166279855,4,56188.766978747204,3.4028234663852886E38,1.60143744E9,,,,0,,3,,1.60143744E9
Raw,2064691158,945292000000,,,-1311985616708480767,0.0,9.749900684669864,,,0,19,0.0,32995,13343934095617,62,29.55735969543457,-60.4688472649604,0.15772427272403655,1,-5167.0356750635665,0.002800258342176676,1.60368755E9,,,,0,,3,,1.60368755E9
Raw,2064691159,945292000000,,,-1311985616708480767,0.0,9.749900684669864,,,0,3,0.0,32995,13343922243366,67,28.92496681213379,-560.6072969803815,0.16731262631299282,4,-555053.324369946,3.4028234663852886E38,1.60481254E9,,,,0,,3,,1.60481254E9
Raw,2064691159,945292000000,,,-1311985616708480767,0.0,9.749900684669864,,,0,193,0.0,35,11935933,28,30.332069396972656,-179.90405930214376,0.14409355340304086,4,-20541.80675794298,3.4028234663852886E38,1.57542003E9,,,,0,,4,,1.57542003E9
Raw,2064691159,945292000000,,,-1311985616708480767,0.0,9.749900684669864,,,0,194,0.0,35,16436991,8,40.92003631591797,-160.71023421044265,0.04490609113791261,1,-20110.27205179488,8.172667003236711E-4,1.57542003E9,,,,0,,4,,1.57542003E9
Raw,2064691160,945292000000,,,-1311985616708480767,0.0,9.749900684669864,,,0,195,0.0,35,8631520,28,30.451282501220703,-111.40339145670265,0.14156426235218011,4,-97973.59326676265,3.4028234663852886E38,1.57542003E9,,,,0,,4,,1.57542003E9
Raw,2064691160,945292000000,,,-1311985616708480767,0.0,9.749900684669864,,,0,3,0.0,16,945002558675,1000000000,34.865020751953125,-117.28449826261033,2.99792458E8,2,-0.23118935920871075,3.4028234663852886E38,1.56109798E9,,,,0,,5,,1.56109798E9
Raw,2064691161,945292000000,,,-1311985616708480767,0.0,9.749900684669864,,,0,4,0.0,16,945001934008,1000000000,25.58139419555664,-117.28449826261033,2.99792458E8,2,-0.11379021912476625,3.4028234663852886E38,1.56109798E9,,,,0,,5,,1.56109798E9
Raw,2064691161,945292000000,,,-1311985616708480767,0.0,9.749900684669864,,,0,5,0.0,16,945001466162,1000000000,28.819683074951172,-117.28449826261033,2.99792458E8,2,-0.1137902191230171,3.4028234663852886E38,1.56109798E9,,,,0,,5,,1.56109798E9
Raw,2064691161,945292000000,,,-1311985616708480767,0.0,9.749900684669864,,,0,7,0.0,16431,175347880503672,10,33.197853088378906,-108.90034176721093,0.10574342580754942,1,-97671.97806174151,0.0020065002609044313,1.56109798E9,,,,0,,5,,1.56109798E9
Raw,2064691162,945292000000,,,-1311985616708480767,0.0,9.749900684669864,,,0,8,0.0,16431,175347878585363,7,35.784332275390625,-223.3650194687924,0.07911556638602102,1,-199893.1401701536,0.0014897563960403204,1.56109798E9,,,,0,,5,,1.56109798E9
Raw,2064691162,945292000000,,,-1311985616708480767,0.0,9.749900684669864,,,0,10,0.0,16431,175347880957243,9,34.35654830932617,-170.4130494693237,0.09307987107859861,1,-125967.68447439243,0.0017559188418090343,1.56109798E9,,,,0,,5,,1.56109798E9
Raw,2064691163,945292000000,,,-1311985616708480767,0.0,9.749900684669864,,,0,32,0.0,16431,175347912805566,6,38.49345016479492,-642.6230817796768,0.05777311297333901,1,-141014.1724733968,0.0010905847884714603,1.56109798E9,,,,0,,5,,1.56109798E9
Raw,2064691163,945292000000,,,-1311985616708480767,0.0,9.749900684669864,,,0,36,0.0,16431,175347920948927,7,36.256813049316406,-383.41594559902956,0.07552906183088642,1,-137780.2662877496,0.0014108836185187101,1.56109798E9,,,,0,,5,,1.56109798E9
Fix,gps,34.486764,109.464173,357.900146,0.513501,3.000000,1627951345000
Raw,2064692165,946292000000,,,-1311985616708481153,0.0,9.844365488260227,,,0,1,0.0,16431,175362927280345,66,23.053932189941406,472.4745973791114,0.3294288762176192,4,560004.9007959287,3.4028234663852886E38,1.57542003E9,,,,0,,1,,1.57542003E9
Raw,2064692166,946292000000,,,-1311985616708481153,0.0,9.844365488260227,,,0,3,0.0,16431,175362926513400,26,30.919723510742188,-255.92001957884827,0.13383227099965278,4,-87408.8425457416,3.4028234663852886E38,1.57542003E9,,,,0,,1,,1.57542003E9
Raw,2064692166,946292000000,,,-1311985616708481153,0.0,9.844365488260227,,,0,6,0.0,16,946004113331,1000000000,27.329891204833984,-683.0144054995985,2.99792458E8,2,-524290.7214168129,3.4028234663852886E38,1.57542003E9,,,,0,,1,,1.57542003E9
Raw,2064692166,946292000000,,,-1311985616708481153,0.0,9.844365488260227,,,0,7,0.0,16,946017148595,1000000000,7.0,545.8174194670471,2.99792458E8,2,9.277328216928217,3.4028234663852886E38,1.57542003E9,,,,0,,1,,1.57542003E9
Raw,2064692167,946292000000,,,-1311985616708481153,0.0,9.844365488260227,,,0,14,0.0,16431,175362933231814,13,37.1772346496582,-137.35681571241514,0.06692567958616225,1,-174887.34968333232,0.001257488620467484,1.57542003E9,,,,0,,1,,1.57542003E9
Raw,2064692167,946292000000,,,-1311985616708481153,0.0,9.844365488260227,,,0,17,0.0,16431,175362930062963,14,36.264129638671875,-203.69668137615247,0.07351052501495808,1,-203993.63718829126,0.0013968806015327573,1.57542003E9,,,,0,,1,,1.57542003E9
Raw,2064692167,946292000000,,,-1311985616708481153,0.0,9.844365488260227,,,0,19,0.0,16431,175362927670115,6,44.03784942626953,-458.60763870595815,0.0313796640506676,1,-542670.5020089657,6.016613333486021E-4,1.57542003E9,,,,0,,1,,1.57542003E9
Raw,2064692167,946292000000,,,-1311985616708481153,0.0,9.844365488260227,,,0,21,0.0,16431,175362917709566,32,29.155183792114258,482.3051707262682,0.16572887380327295,4,561408.5855901716,3.4028234663852886E38,1.57542003E9,,,,0,,1,,1.57542003E9
Raw,2064692168,946292000000,,,-1311985616708481153,0.0,9.844365488260227,,,0,22,0.0,16431,175362923947919,74,20.1558895111084,82.72620804367085,4.2007101623524825,4,27007.92191033802,3.4028234663852886E38,1.57542003E9,,,,0,,1,,1.57542003E9
Raw,2064692168,946292000000,,,-1311985616708481153,0.0,9.844365488260227,,,0,24,0.0,16431,175362916655055,17,34.83082962036133,-451.8946899043124,0.08756008577431612,4,-545200.9523311179,3.4028234663852886E38,1.57542003E9,,,,0,,1,,1.57542003E9
Raw,2064692169,946292000000,,,-1311985616708481153,0.0,9.844365488260227,,,0,30,0.0,16431,175362923230505,166,13.34617805480957,471.4620416782752,4.200581021794564,4,62816.57844185984,3.4028234663852886E38,1.57542003E9,,,,1,,1,,1.57542003E9
Raw,2064692169,946292000000,,,-1311985616708481153,0.0,9.844365488260227,,,0,10,0.0,32995,13344920876416,39,33.65388107299805,-881.1148668033034,0.10059059273291926,1,-576397.7938057632,0.0018598343012854457,1.59806246E9,,,,0,,3,,1.59806246E9
Raw,2064692170,946292000000,,,-1311985616708481153,0.0,9.844365488260227,,,0,2,0.0,32995,13344920893309,79,27.561670303344727,-95.27559859195117,0.19903237644792748,4,-150741.1217562073,3.4028234663852886E38,1.59975002E9,,,,0,,3,,1.59975002E9
Raw,2064692170,946292000000,,,-1311985616708481153,0.0,9.844365488260227,,,0,18,0.0,32995,13344929802766,94,26.050870895385742,370.41808956720797,0.23413585882769294,4,26571.480613540927,3.4028234663852886E38,1.60031245E9,,,,0,,3,,1.60031245E9
Raw,2064692170,946292000000,,,-1311985616708481153,0.0,9.844365488260227,,,0,9,0.0,32995,13344933180842,33,37.408538818359375,-470.4474410300477,0.06522035438820348,1,-504211.1637208505,0.0012049742508679628,1.59862502E9,,,,0,,3,,1.59862502E9
Raw,2064692170,946292000000,,,-1311985616708481153,0.0,9.844365488260227,,,0,16,0.0,32995,13344934360732,84,26.934276580810547,303.7576783998736,0.2124841795140029,4,56492.46792689368,3.4028234663852886E38,1.60143744E9,,,,0,,3,,1.60143744E9
Raw,2064692171,946292000000,,,-1311985616708481153,0.0,9.844365488260227,,,0,19,0.0,32995,13344934095845,90,26.37131690979004,-60.054924351105,0.22649142011372347,1,-5227.423490304629,0.004041105508804321,1.60368755E9,,,,0,,3,,1.60368755E9
Raw,2064692171,946292000000,,,-1311985616708481153,0.0,9.844365488260227,,,0,3,0.0,32995,13344922245141,54,30.749135971069336,-560.1559089261934,0.1356956893696587,4,-555613.5866359937,3.4028234663852886E38,1.60481254E9,,,,0,,3,,1.60481254E9
Raw,2064692171,946292000000,,,-1311985616708481153,0.0,9.844365488260227,,,0,193,0.0,35,11936491,27,30.640962600708008,-179.80922486686904,0.13913435627707826,1,-20721.635581495942,0.002516177948564291,1.57542003E9,,,,0,,4,,1.57542003E9
Raw,2064692172,946292000000,,,-1311985616708481153,0.0,9.844365488260227,,,0,194,0.0,35,16437521,6,42.704505920410156,-160.49965575281647,0.03711554968642952,1,-20270.7828236714,7.014863076619804E-4,1.57542003E9,,,,0,,4,,1.57542003E9
Raw,2064692172,946292000000,,,-1311985616708481153,0.0,9.844365488260227,,,0,195,0.0,35,8631849,24,31.63983726501465,-111.20573025009861,0.12365851627208585,4,-98084.85773498451,3.4028234663852886E38,1.57542003E9,,,,0,,4,,1.57542003E9
Raw,2064692172,946292000000,,,-1311985616708481153,0.0,9.844365488260227,,,0,3,0.0,16,946002559066,1000000000,33.69517517089844,-117.28449826261033,2.99792458E8,2,-0.2321065399803739,3.4028234663852886E38,1.56109798E9,,,,0,,5,,1.56109798E9
Raw,2064692173,946292000000,,,-1311985616708481153,0.0,9.844365488260227,,,0,5,0.0,16,946001466553,1000000000,28.236387252807617,-117.28449826261033,2.99792458E8,2,-0.11470739991288678,3.4028234663852886E38,1.56109798E9,,,,0,,5,,1.56109798E9
Raw,2064692173,946292000000,,,-1311985616708481153,0.0,9.844365488260227,,,0,7,0.0,16431,175348880504034,6,36.57453918457031,-108.70625921854179,0.07287152055971657,1,-97780.70205206214,0.0013602066319435835,1.56109798E9,,,,0,,5,,1.56109798E9
Raw,2064692173,946292000000,,,-1311985616708481153,0.0,9.844365488260227,,,0,8,0.0,16431,175348878586116,6,37.50958251953125,-223.1791848746018,0.06546574225052915,1,-200116.30354085486,0.0012213855516165495,1.56109798E9,,,,0,,5,,1.56109798E9
Raw,2064692173,946292000000,,,-1311985616708481153,0.0,9.844365488260227,,,0,10,0.0,16431,175348880957811,11,31.93321418762207,-170.4125723149324,0.12182025201977242,1,-126138.0589919597,0.002188239712268114,1.56109798E9,,,,0,,5,,1.56109798E9
Raw,2064692174,946292000000,,,-1311985616708481153,0.0,9.844365488260227,,,0,32,0.0,16431,175348912807708,6,38.124298095703125,-642.5214478943258,0.06018177991995588,1,-141656.7168615684,0.0011379336938261986,1.56109798E9,,,,0,,5,,1.56109798E9
Raw,2064692174,946292000000,,,-1311985616708481153,0.0,9.844365488260227,,,0,36,0.0,16431,175348920950226,8,34.41596984863281,-383.28939743796036,0.09246970690517059,1,-138163.56626046644,0.0017439472721889615,1.56109798E9,,,,0,,5,,1.56109798E9
Fix,gps,34.486765,109.464173,357.880524,0.436855,3.000000,1627951346000
Raw,2064693204,947292000000,,,-1311985616708481538,0.0,9.881617141414543,,,0,1,0.0,16431,175363927278850,59,23.953563690185547,472.3980822642177,0.29714470196382337,4,560477.2485413048,3.4028234663852886E38,1.57542003E9,,,,0,,1,,1.57542003E9
Raw,2064693205,947292000000,,,-1311985616708481538,0.0,9.881617141414543,,,0,3,0.0,16431,175363926514254,22,32.578208923339844,-255.9137824893046,0.11077362527763046,4,-87664.75565084022,3.4028234663852886E38,1.57542003E9,,,,0,,1,,1.57542003E9
Raw,2064693206,947292000000,,,-1311985616708481538,0.0,9.881617141414543,,,0,6,0.0,16,3115599,1000000000,23.687227249145508,-682.8497190696803,2.99792458E8,4,-524836.8949196287,3.4028234663852886E38,1.57542003E9,,,,0,,1,,1.57542003E9
Raw,2064693207,947292000000,,,-1311985616708481538,0.0,9.881617141414543,,,0,7,0.0,16,947017146774,1000000000,7.0,546.0030666077269,2.99792458E8,2,9.27621423727281,3.4028234663852886E38,1.57542003E9,,,,0,,1,,1.57542003E9
Raw,2064693207,947292000000,,,-1311985616708481538,0.0,9.881617141414543,,,0,14,0.0,16431,175363933232287,10,39.2910270690918,-137.16990752084405,0.05298325057185577,1,-175024.59590914927,9.85858147032559E-4,1.57542003E9,,,,0,,1,,1.57542003E9
Raw,2064693208,947292000000,,,-1311985616708481538,0.0,9.881617141414543,,,0,17,0.0,16431,175363930063628,15,35.815738677978516,-203.49182877122212,0.07730923779487325,1,-204197.1870053915,0.0014708851231262088,1.57542003E9,,,,0,,1,,1.57542003E9
Raw,2064693208,947292000000,,,-1311985616708481538,0.0,9.881617141414543,,,0,19,0.0,16431,175363927671639,6,44.418052673339844,-458.5084587574768,0.03137993864077142,1,-543129.0406426287,5.758929764851928E-4,1.57542003E9,,,,0,,1,,1.57542003E9
Raw,2064693209,947292000000,,,-1311985616708481538,0.0,9.881617141414543,,,0,21,0.0,16431,175363917707927,35,28.452165603637695,482.2252132832657,0.17943155237329433,4,561890.7728764205,3.4028234663852886E38,1.57542003E9,,,,0,,1,,1.57542003E9
Raw,2064693209,947292000000,,,-1311985616708481538,0.0,9.881617141414543,,,0,22,0.0,16431,175363923947603,166,23.2158203125,82.50366664380516,0.3227704822455604,4,27090.77196731578,3.4028234663852886E38,1.57542003E9,,,,1,,1,,1.57542003E9
Raw,2064693209,947292000000,,,-1311985616708481538,0.0,9.881617141414543,,,0,24,0.0,16431,175363916656541,15,35.52482604980469,-451.7130304110458,0.08106661228279494,4,-545652.7451004696,3.4028234663852886E38,1.57542003E9,,,,0,,1,,1.57542003E9
Raw,2064693210,947292000000,,,-1311985616708481538,0.0,9.881617141414543,,,0,30,0.0,16,947003229004,1000000000,22.913402557373047,471.1852580488535,2.99792458E8,2,1.4020697212035884,3.4028234663852886E38,1.57542003E9,,,,0,,1,,1.57542003E9
Raw,2064693210,947292000000,,,-1311985616708481538,0.0,9.881617141414543,,,0,10,0.0,32995,13345920879399,41,33.13080596923828,-881.0698097957802,0.10660186103939323,1,-577278.9169503539,0.0018623090581968427,1.59806246E9,,,,0,,3,,1.59806246E9
Raw,2064693210,947292000000,,,-1311985616708481538,0.0,9.881617141414543,,,0,2,0.0,32995,13345920893571,82,27.22216033935547,-95.09235426445628,0.20681637350193616,4,-150836.32561968244,3.4028234663852886E38,1.59975002E9,,,,0,,3,,1.59975002E9
Raw,2064693211,947292000000,,,-1311985616708481538,0.0,9.881617141414543,,,0,18,0.0,32995,13345929801384,86,26.757352828979492,370.21141355085365,0.21598340602068344,4,26941.637543294357,3.4028234663852886E38,1.60031245E9,,,,0,,3,,1.60031245E9
Raw,2064693211,947292000000,,,-1311985616708481538,0.0,9.881617141414543,,,0,9,0.0,32995,13345933182404,33,39.103271484375,-470.1156142333416,0.05408004249518497,1,-504681.40015904093,9.91382054053247E-4,1.59862502E9,,,,0,,3,,1.59862502E9
Raw,2064693211,947292000000,,,-1311985616708481538,0.0,9.881617141414543,,,0,16,0.0,32995,13345934359678,105,25.074277877807617,304.0509579382524,0.262607607438207,4,56796.30844558396,3.4028234663852886E38,1.60143744E9,,,,0,,3,,1.60143744E9
Raw,2064693212,947292000000,,,-1311985616708481538,0.0,9.881617141414543,,,0,19,0.0,32994,13345934096033,1000000000,21.921756744384766,-60.26778633331821,2.99792458E8,4,-5287.424558278922,3.4028234663852886E38,1.60368755E9,,,,0,,3,,1.60368755E9
Raw,2064693213,947292000000,,,-1311985616708481538,0.0,9.881617141414543,,,0,3,0.0,32995,13345922247113,54,30.719114303588867,-560.2035902828688,0.13616445628144314,4,-556173.7977318594,3.4028234663852886E38,1.60481254E9,,,,0,,3,,1.60481254E9
Raw,2064693213,947292000000,,,-1311985616708481538,0.0,9.881617141414543,,,0,193,0.0,35,11937104,23,32.11263656616211,-179.89342557570865,0.11778412697191076,1,-20901.479569643943,0.0021240152418613434,1.57542003E9,,,,0,,4,,1.57542003E9
Raw,2064693213,947292000000,,,-1311985616708481538,0.0,9.881617141414543,,,0,194,0.0,35,16438042,6,43.13096618652344,-160.5386290418503,0.03547901346993415,1,-20431.289166379025,6.678765639662743E-4,1.57542003E9,,,,0,,4,,1.57542003E9
Raw,2064693213,947292000000,,,-1311985616708481538,0.0,9.881617141414543,,,0,195,0.0,35,8632213,18,34.07961654663086,-111.24800953741516,0.09375626139252102,4,-98196.11106627152,3.4028234663852886E38,1.57542003E9,,,,0,,4,,1.57542003E9
Raw,2064693214,947292000000,,,-1311985616708481538,0.0,9.881617141414543,,,0,7,0.0,16431,175349880504394,6,37.283172607421875,-108.69187642188916,0.06745137401901621,1,-97889.3965488978,0.0012536412104964256,1.56109798E9,,,,0,,5,,1.56109798E9
Raw,2064693214,947292000000,,,-1311985616708481538,0.0,9.881617141414543,,,0,8,0.0,16431,175349878586869,6,36.71741485595703,-223.11463270194758,0.07139794524892701,1,-200339.4345840747,0.0013380155432969332,1.56109798E9,,,,0,,5,,1.56109798E9
Raw,2064693214,947292000000,,,-1311985616708481538,0.0,9.881617141414543,,,0,10,0.0,16431,175349880958382,12,31.649518966674805,-170.2349856752203,0.12573974284080786,1,-126308.34069076809,0.0022608914878219366,1.56109798E9,,,,0,,5,,1.56109798E9
Raw,2064693215,947292000000,,,-1311985616708481538,0.0,9.881617141414543,,,0,32,0.0,16431,175349912809860,6,37.72550582885742,-642.6313297341553,0.06290145760325563,1,-142299.30644759463,0.0011913973139598966,1.56109798E9,,,,0,,5,,1.56109798E9
Raw,2064693215,947292000000,,,-1311985616708481538,0.0,9.881617141414543,,,0,36,0.0,16431,175349920951513,7,35.725738525390625,-383.0968315586065,0.0800540903981461,1,-138546.71253881976,0.0014998400583863258,1.56109798E9,,,,0,,5,,1.56109798E9
Fix,gps,34.486765,109.464172,357.864532,0.382650,3.000000,1627951347000
Raw,2064694172,948292000000,,,-1311985616708481924,0.0,9.936352998462835,,,0,1,0.0,16431,175364927277395,61,23.66444969177246,472.32627052832413,0.3071571890913247,4,560949.6288076882,3.4028234663852886E38,1.57542003E9,,,,0,,1,,1.57542003E9
Raw,2064694172,948292000000,,,-1311985616708481924,0.0,9.936352998462835,,,0,3,0.0,16431,175364926515118,16,34.922340393066406,-255.60588157707753,0.08484993137507163,4,-87920.47915706367,3.4028234663852886E38,1.57542003E9,,,,0,,1,,1.57542003E9
Raw,2064694173,948292000000,,,-1311985616708481924,0.0,9.936352998462835,,,0,6,0.0,17,117800,66,23.003009796142578,-682.5846938877589,0.3307892788010731,4,-525519.51925363,3.4028234663852886E38,1.57542003E9,,,,0,,1,,1.57542003E9
Raw,2064694173,948292000000,,,-1311985616708481924,0.0,9.936352998462835,,,0,7,0.0,16,948017144953,1000000000,7.0,546.0030666077269,2.99792458E8,2,9.271944418649406,3.4028234663852886E38,1.57542003E9,,,,0,,1,,1.57542003E9
Raw,2064694173,948292000000,,,-1311985616708481924,0.0,9.936352998462835,,,0,14,0.0,16431,175364933232745,9,39.5775032043457,-137.08695082166753,0.05134157619205404,1,-175161.7367319998,9.538730373606086E-4,1.57542003E9,,,,0,,1,,1.57542003E9
Raw,2064694174,948292000000,,,-1311985616708481924,0.0,9.936352998462835,,,0,17,0.0,16431,175364930064269,15,35.716209411621094,-203.6300842561069,0.07817944711753244,1,-204400.74822868165,0.0014878367073833942,1.57542003E9,,,,0,,1,,1.57542003E9
Raw,2064694174,948292000000,,,-1311985616708481924,0.0,9.936352998462835,,,0,19,0.0,16431,175364927673172,6,44.07590866088867,-458.5141846101726,0.03138021323087524,1,-543587.5678673001,5.990306381136179E-4,1.57542003E9,,,,0,,1,,1.57542003E9
Raw,2064694174,948292000000,,,-1311985616708481924,0.0,9.936352998462835,,,0,21,0.0,16431,175364917706324,36,28.170522689819336,482.18942670391675,0.18523978210027292,4,562372.9667867753,3.4028234663852886E38,1.57542003E9,,,,0,,1,,1.57542003E9
Raw,2064694174,948292000000,,,-1311985616708481924,0.0,9.936352998462835,,,0,22,0.0,16431,175364923947285,32,29.257205963134766,82.59532289000913,0.16135533576420036,4,27173.320116914474,3.4028234663852886E38,1.57542003E9,,,,0,,1,,1.57542003E9
Raw,2064694175,948292000000,,,-1311985616708481924,0.0,9.936352998462835,,,0,24,0.0,16431,175364916658045,15,35.76173782348633,-451.6737674211315,0.07896626425775227,1,-546104.4671164282,0.0014800584176555276,1.57542003E9,,,,0,,1,,1.57542003E9
Raw,2064694175,948292000000,,,-1311985616708481924,0.0,9.936352998462835,,,0,30,0.0,16,948003227432,1000000000,23.798402786254883,471.1852580488535,2.99792458E8,2,1.4131239204031592,3.4028234663852886E38,1.57542003E9,,,,0,,1,,1.57542003E9
Raw,2064694175,948292000000,,,-1311985616708481924,0.0,9.936352998462835,,,0,10,0.0,32995,13346920882330,33,36.73115539550781,-881.0493603218665,0.07170327280255201,1,-578159.9821897179,0.0013050002744421363,1.59806246E9,,,,0,,3,,1.59806246E9
Raw,2064694176,948292000000,,,-1311985616708481924,0.0,9.936352998462835,,,0,2,0.0,32995,13346920893821,101,25.366342544555664,-95.00443856785569,0.25518492103535395,4,-150931.38382747822,3.4028234663852886E38,1.59975002E9,,,,0,,3,,1.59975002E9
Raw,2064694176,948292000000,,,-1311985616708481924,0.0,9.936352998462835,,,0,18,0.0,32995,13346929800326,94,26.0425968170166,370.3171373309874,0.234356895540357,4,27311.801803173978,3.4028234663852886E38,1.60031245E9,,,,0,,3,,1.60031245E9
Raw,2064694176,948292000000,,,-1311985616708481924,0.0,9.936352998462835,,,0,9,0.0,32995,13346933183942,33,39.65584182739258,-470.0623092713399,0.05089319967570641,1,-505151.5338476892,9.302775142714381E-4,1.59862502E9,,,,0,,3,,1.59862502E9
Raw,2064694177,948292000000,,,-1311985616708481924,0.0,9.936352998462835,,,0,16,0.0,32995,13346934358613,60,22.79376983642578,304.53530372789805,4.202582833576896,4,57100.31326500737,3.4028234663852886E38,1.60143744E9,,,,0,,3,,1.60143744E9
Raw,2064694177,948292000000,,,-1311985616708481924,0.0,9.936352998462835,,,0,19,0.0,32995,13346934096395,76,19.778535842895508,-60.14200502752078,4.2025357039299855,4,-5348.070396536292,3.4028234663852886E38,1.60368755E9,,,,0,,3,,1.60368755E9
Raw,2064694177,948292000000,,,-1311985616708481924,0.0,9.936352998462835,,,0,3,0.0,32995,13346922249095,50,31.4040584564209,-559.9506984554696,0.12587039780475345,4,-556733.8545367711,3.4028234663852886E38,1.60481254E9,,,,0,,3,,1.60481254E9
Raw,2064694177,948292000000,,,-1311985616708481924,0.0,9.936352998462835,,,0,193,0.0,35,11937691,20,33.140953063964844,-179.73910021257336,0.10487335794039826,1,-21081.25973136169,0.0018868694314733148,1.57542003E9,,,,0,,4,,1.57542003E9
Raw,2064694178,948292000000,,,-1311985616708481924,0.0,9.936352998462835,,,0,194,0.0,35,16438587,6,43.220703125,-160.40231625698732,0.03514483731358342,1,-20591.72852841445,6.610120763070881E-4,1.57542003E9,,,,0,,4,,1.57542003E9
Raw,2064694178,948292000000,,,-1311985616708481924,0.0,9.936352998462835,,,0,195,0.0,35,8632617,15,35.785221099853516,-111.23020145388199,0.07731758366984698,1,-98307.3540530639,0.0014760621124878526,1.57542003E9,,,,0,,4,,1.57542003E9
Raw,2064694178,948292000000,,,-1311985616708481924,0.0,9.936352998462835,,,0,7,0.0,16431,175350880504766,6,36.957679748535156,-108.6511734481868,0.06988625183917968,1,-97998.05421929143,0.001301511307246983,1.56109798E9,,,,0,,5,,1.56109798E9
Raw,2064694179,948292000000,,,-1311985616708481924,0.0,9.936352998462835,,,0,8,0.0,16431,175350878587615,7,35.62529373168945,-223.09331412539257,0.08051615897557973,1,-200562.5222753891,0.0015172851271927357,1.56109798E9,,,,0,,5,,1.56109798E9
Raw,2064694179,948292000000,,,-1311985616708481924,0.0,9.936352998462835,,,0,10,0.0,16431,175350880958960,11,31.968826293945312,-170.3324785421038,0.12133745604995638,1,-126478.6407627338,0.0021792862098664045,1.56109798E9,,,,0,,5,,1.56109798E9
Raw,2064694180,948292000000,,,-1311985616708481924,0.0,9.936352998462835,,,0,32,0.0,16431,175350912812007,6,36.868751525878906,-642.5245834803259,0.06918372970037692,1,-142941.8515812819,0.0013149050064384937,1.56109798E9,,,,0,,5,,1.56109798E9
Raw,2064694180,948292000000,,,-1311985616708481924,0.0,9.936352998462835,,,0,36,0.0,16431,175350920952779,7,36.15499496459961,-383.0645554722794,0.07637592267380855,1,-138929.78487983142,0.0014275198336690664,1.56109798E9,,,,0,,5,,1.56109798E9
Fix,gps,34.486766,109.464172,357.844879,0.269464,3.000000,1627951348000
Raw,2064695254,949292000000,,,-1311985616708482309,0.0,10.0205913122705,,,0,1,0.0,16431,175365927275668,51,25.302061080932617,472.59034140146287,0.25460297307532165,4,561422.1065734135,3.4028234663852886E38,1.57542003E9,,,,0,,1,,1.57542003E9
Raw,2064695254,949292000000,,,-1311985616708482309,0.0,10.0205913122705,,,0,3,0.0,16431,175365926515988,18,34.240234375,-255.4101630704953,0.09168624309258228,4,-88176.05369064263,3.4028234663852886E38,1.57542003E9,,,,0,,1,,1.57542003E9
Raw,2064695255,949292000000,,,-1311985616708482309,0.0,10.0205913122705,,,0,6,0.0,17,120086,61,22.67436408996582,-682.3448897236644,4.200921047552217,4,-526202.0968430446,3.4028234663852886E38,1.57542003E9,,,,0,,1,,1.57542003E9
Raw,2064695255,949292000000,,,-1311985616708482309,0.0,10.0205913122705,,,0,7,0.0,16,949017143132,1000000000,7.0,546.0030666077269,2.99792458E8,2,9.26767460011149,3.4028234663852886E38,1.57542003E9,,,,0,,1,,1.57542003E9
Raw,2064695256,949292000000,,,-1311985616708482309,0.0,10.0205913122705,,,0,14,0.0,16431,175365933233204,9,40.38404083251953,-136.8560166168831,0.04699998629551547,1,-175298.72218103384,8.69288167450577E-4,1.57542003E9,,,,0,,1,,1.57542003E9
Raw,2064695257,949292000000,,,-1311985616708482309,0.0,10.0205913122705,,,0,17,0.0,16431,175365930064956,16,34.987648010253906,-203.4253338985461,0.08486166386132582,1,-204604.20434614772,0.0016180180246010423,1.57542003E9,,,,0,,1,,1.57542003E9
Raw,2064695257,949292000000,,,-1311985616708482309,0.0,10.0205913122705,,,0,19,0.0,16431,175365927674707,6,43.131370544433594,-458.47468304306267,0.03390119793109539,1,-544046.0563836378,6.678454228676856E-4,1.57542003E9,,,,0,,1,,1.57542003E9
Raw,2064695258,949292000000,,,-1311985616708482309,0.0,10.0205913122705,,,0,21,0.0,16431,175365917704752,33,28.966148376464844,482.38802517807517,0.1693042865823956,1,562855.2020957237,0.003051280276849866,1.57542003E9,,,,0,,1,,1.57542003E9
Raw,2064695258,949292000000,,,-1311985616708482309,0.0,10.0205913122705,,,0,22,0.0,16431,175365923947017,31,29.422693252563477,82.90290853951336,0.15832357810699527,4,27256.019749062245,3.4028234663852886E38,1.57542003E9,,,,0,,1,,1.57542003E9
Raw,2064695259,949292000000,,,-1311985616708482309,0.0,10.0205913122705,,,0,24,0.0,16431,175365916659569,15,35.64167022705078,-451.57533728669364,0.08002396037493587,1,-546556.0818734366,0.0015006596222519875,1.57542003E9,,,,0,,1,,1.57542003E9
Raw,2064695260,949292000000,,,-1311985616708482309,0.0,10.0205913122705,,,0,30,0.0,16,949003225860,1000000000,7.0,471.1852580488535,2.99792458E8,2,1.4094391873018721,3.4028234663852886E38,1.57542003E9,,,,0,,1,,1.57542003E9
Raw,2064695260,949292000000,,,-1311985616708482309,0.0,10.0205913122705,,,0,10,0.0,32995,13347920885033,166,32.312042236328125,-881.0241393040396,0.11676912545541529,1,-579041.0021471622,0.002046397188678384,1.59806246E9,,,,1,,3,,1.59806246E9
Raw,2064695261,949292000000,,,-1311985616708482309,0.0,10.0205913122705,,,0,2,0.0,32995,13347920894208,86,26.816701889038086,-94.83782647914393,0.21651998836719955,4,-151026.27222726235,3.4028234663852886E38,1.59975002E9,,,,0,,3,,1.59975002E9
Raw,2064695261,949292000000,,,-1311985616708482309,0.0,10.0205913122705,,,0,18,0.0,32995,13347929799117,105,25.024433135986328,370.21966150533217,0.26328371484111335,4,27682.045495469032,3.4028234663852886E38,1.60031245E9,,,,0,,3,,1.60031245E9
Raw,2064695261,949292000000,,,-1311985616708482309,0.0,10.0205913122705,,,0,9,0.0,32995,13347933185559,33,39.773319244384766,-469.88545540444306,0.050241659766179836,1,-505621.4820751155,9.177802712656558E-4,1.59862502E9,,,,0,,3,,1.59862502E9
Raw,2064695262,949292000000,,,-1311985616708482309,0.0,10.0205913122705,,,0,16,0.0,32995,13347934357626,61,22.720664978027344,304.2382069543887,4.202582567307704,4,57404.46151284753,3.4028234663852886E38,1.60143744E9,,,,0,,3,,1.60143744E9
Raw,2064695262,949292000000,,,-1311985616708482309,0.0,10.0205913122705,,,0,19,0.0,32995,13347934096361,166,22.61180877685547,-59.465664239668,4.2025357039299855,4,-5408.149361205678,3.4028234663852886E38,1.60368755E9,,,,1,,3,,1.60368755E9
Raw,2064695262,949292000000,,,-1311985616708482309,0.0,10.0205913122705,,,0,3,0.0,32995,13347922250851,50,31.4277400970459,-559.9246935411427,0.12552909894752784,4,-557293.8299589219,3.4028234663852886E38,1.60481254E9,,,,0,,3,,1.60481254E9
Raw,2064695262,949292000000,,,-1311985616708482309,0.0,10.0205913122705,,,0,193,0.0,35,11938291,21,32.90712356567383,-179.77064352608522,0.10767651517571586,1,-21261.05440734424,0.0019383549224585295,1.57542003E9,,,,0,,4,,1.57542003E9
Raw,2064695263,949292000000,,,-1311985616708482309,0.0,10.0205913122705,,,0,194,0.0,35,16439127,6,43.18141174316406,-160.37878232075832,0.0352908651628869,1,-20752.13161909538,6.640090141445398E-4,1.57542003E9,,,,0,,4,,1.57542003E9
Raw,2064695263,949292000000,,,-1311985616708482309,0.0,10.0205913122705,,,0,195,0.0,35,8632961,15,35.465553283691406,-111.12070304168833,0.08015793538286403,1,-98418.56875639947,0.0015313980402424932,1.57542003E9,,,,0,,4,,1.57542003E9
Raw,2064695263,949292000000,,,-1311985616708482309,0.0,10.0205913122705,,,0,7,0.0,16431,175351880505117,6,36.82852554321289,-108.56084641778722,0.07087797144323599,1,-98106.65264070696,0.001321008545346558,1.56109798E9,,,,0,,5,,1.56109798E9
Raw,2064695264,949292000000,,,-1311985616708482309,0.0,10.0205913122705,,,0,8,0.0,16431,175351878588348,7,36.19388198852539,-222.95083241589896,0.0756262833694637,1,-200785.54052890814,0.001421143184415996,1.56109798E9,,,,0,,5,,1.56109798E9
Raw,2064695264,949292000000,,,-1311985616708482309,0.0,10.0205913122705,,,0,10,0.0,16431,175351880959538,10,32.789695739746094,-170.06941310143247,0.11073559038779507,1,-126648.84024646305,0.0021030378993600607,1.56109798E9,,,,0,,5,,1.56109798E9
Raw,2064695264,949292000000,,,-1311985616708482309,0.0,10.0205913122705,,,0,32,0.0,16431,175351912814138,6,37.82745361328125,-642.5729805685883,0.062195149449385034,1,-143584.40178866705,0.0011774953454732895,1.56109798E9,,,,0,,5,,1.56109798E9
Raw,2064695265,949292000000,,,-1311985616708482309,0.0,10.0205913122705,,,0,36,0.0,16431,175351920954056,8,35.226165771484375,-382.8265576783806,0.08457074812769533,1,-139312.71918434766,0.0015886330511420965,1.56109798E9,,,,0,,5,,1.56109798E9
Fix,gps,34.486766,109.464172,357.820343,0.189826,3.000000,1627951349000
Raw,2064696163,950292000000,,,-1311985616708482695,0.0,10.061898887183256,,,0,1,0.0,16431,175366927274120,59,23.938556671142578,473.07455086128243,0.29765547284058025,4,561894.6457741975,3.4028234663852886E38,1.57542003E9,,,,0,,1,,1.57542003E9
Raw,2064696163,950292000000,,,-1311985616708482695,0.0,10.061898887183256,,,0,3,0.0,16431,175366926516830,26,31.045560836791992,-254.80013822242177,0.13192481836208858,1,-88431.39197285716,0.0025473444256931543,1.57542003E9,,,,0,,1,,1.57542003E9
Raw,2064696163,950292000000,,,-1311985616708482695,0.0,10.061898887183256,,,0,6,0.0,17,122403,71,20.710102081298828,-682.259001933227,4.2007415821170895,4,-526884.6269551056,3.4028234663852886E38,1.57542003E9,,,,0,,1,,1.57542003E9
Raw,2064696163,950292000000,,,-1311985616708482695,0.0,10.061898887183256,,,0,7,0.0,16,950017141371,1000000000,7.0,546.0030666077269,2.99792458E8,2,9.28048405589829,3.4028234663852886E38,1.57542003E9,,,,0,,1,,1.57542003E9
Raw,2064696164,950292000000,,,-1311985616708482695,0.0,10.061898887183256,,,0,14,0.0,16431,175366933233642,11,37.989524841308594,-136.40750853027117,0.06116346450385435,1,-175435.54351509668,0.0011452212929725647,1.57542003E9,,,,0,,1,,1.57542003E9
Raw,2064696165,950292000000,,,-1311985616708482695,0.0,10.061898887183256,,,0,17,0.0,16431,175366930065634,11,38.312137603759766,-203.39626156313216,0.058450331218029006,1,-204807.67296465038,0.0011034657945856452,1.57542003E9,,,,0,,1,,1.57542003E9
Raw,2064696165,950292000000,,,-1311985616708482695,0.0,10.061898887183256,,,0,19,0.0,16431,175366927676223,6,43.536651611328125,-458.54608578947796,0.03241890854496561,1,-544504.5398753734,6.373996147885919E-4,1.57542003E9,,,,0,,1,,1.57542003E9
Raw,2064696165,950292000000,,,-1311985616708482695,0.0,10.061898887183256,,,0,21,0.0,16431,175366917703106,38,27.884613037109375,482.47254967025174,0.19133157187446448,1,563337.476960797,0.003455881727859378,1.57542003E9,,,,0,,1,,1.57542003E9
Raw,2064696165,950292000000,,,-1311985616708482695,0.0,10.061898887183256,,,0,22,0.0,16431,175366923946719,50,25.440269470214844,83.20908828768603,0.2500057189898447,4,27338.803789762034,3.4028234663852886E38,1.57542003E9,,,,0,,1,,1.57542003E9
Raw,2064696166,950292000000,,,-1311985616708482695,0.0,10.061898887183256,,,0,24,0.0,16431,175366916661121,15,35.69180679321289,-451.4969476366912,0.07958091340287604,1,-547007.6264526893,0.0014920225366950035,1.57542003E9,,,,0,,1,,1.57542003E9
Raw,2064696166,950292000000,,,-1311985616708482695,0.0,10.061898887183256,,,0,30,0.0,16,950003224350,1000000000,16.622074127197266,471.1852580488535,2.99792458E8,2,1.405754454266254,3.4028234663852886E38,1.57542003E9,,,,0,,1,,1.57542003E9
Raw,2064696166,950292000000,,,-1311985616708482695,0.0,10.061898887183256,,,0,10,0.0,32995,13348920888180,55,30.570533752441406,-880.8781300602959,0.14185982115483886,1,-579921.9132270438,0.0025007217191159725,1.59806246E9,,,,0,,3,,1.59806246E9
Raw,2064696167,950292000000,,,-1311985616708482695,0.0,10.061898887183256,,,0,2,0.0,32995,13348920894442,50,31.368791580200195,-94.59193007594598,0.12973468769400853,1,-151121.00725345185,0.002278736559674144,1.59975002E9,,,,0,,3,,1.59975002E9
Raw,2064696167,950292000000,,,-1311985616708482695,0.0,10.061898887183256,,,0,18,0.0,32995,13348929797961,95,25.92047119140625,370.2759998059644,0.23764986327450643,4,28052.331920087534,3.4028234663852886E38,1.60031245E9,,,,0,,3,,1.60031245E9
Raw,2064696167,950292000000,,,-1311985616708482695,0.0,10.061898887183256,,,0,9,0.0,32995,13348933187146,33,37.325279235839844,-469.46061758388623,0.06582685319979109,1,-506091.24467181263,0.0012165800435468554,1.59862502E9,,,,0,,3,,1.59862502E9
Raw,2064696167,950292000000,,,-1311985616708482695,0.0,10.061898887183256,,,0,16,0.0,32995,13348934356699,115,24.23714828491211,304.50333438367966,0.2889151200595226,4,57708.79740211948,3.4028234663852886E38,1.60143744E9,,,,0,,3,,1.60143744E9
Raw,2064696168,950292000000,,,-1311985616708482695,0.0,10.061898887183256,,,0,19,0.0,32995,13348934096641,106,25.007097244262695,-60.04840182098795,0.26457921430911857,4,-5468.233026569539,3.4028234663852886E38,1.60368755E9,,,,0,,3,,1.60368755E9
Raw,2064696168,950292000000,,,-1311985616708482695,0.0,10.061898887183256,,,0,3,0.0,32995,13348922252730,68,28.74861717224121,-559.5683614581967,0.1707376968498171,1,-557853.6125031094,0.0030713595915585756,1.60481254E9,,,,0,,3,,1.60481254E9
Raw,2064696176,950292000000,,,-1311985616708482695,0.0,10.061898887183256,,,0,193,0.0,35,11938958,30,29.8707332611084,-179.5295271874146,0.15183716074905107,1,-21440.75036062654,0.0027494938112795353,1.57542003E9,,,,0,,4,,1.57542003E9
Raw,2064696176,950292000000,,,-1311985616708482695,0.0,10.061898887183256,,,0,194,0.0,35,16439676,6,42.7353515625,-160.12628244160908,0.036994842373063275,1,-20912.45069447846,6.989994435571134E-4,1.57542003E9,,,,0,,4,,1.57542003E9
Raw,2064696176,950292000000,,,-1311985616708482695,0.0,10.061898887183256,,,0,195,0.0,35,8633333,23,32.191192626953125,-110.89005853778434,0.11614875152267246,1,-98529.72591455076,0.0022325750906020403,1.57542003E9,,,,0,,4,,1.57542003E9
Raw,2064696177,950292000000,,,-1311985616708482695,0.0,10.061898887183256,,,0,7,0.0,16431,175352880505484,7,36.421966552734375,-108.41823689908165,0.07409772347061194,1,-98215.20669601776,0.001384310657158494,1.56109798E9,,,,0,,5,,1.56109798E9
Raw,2064696177,950292000000,,,-1311985616708482695,0.0,10.061898887183256,,,0,8,0.0,16431,175352878589088,6,37.817832946777344,-222.883298028299,0.06330029972905632,1,-201008.52170861972,0.0011788002448156476,1.56109798E9,,,,0,,5,,1.56109798E9
Raw,2064696177,950292000000,,,-1311985616708482695,0.0,10.061898887183256,,,0,10,0.0,16431,175352880960087,13,30.68183708190918,-169.9944316970823,0.14011436003670485,1,-126819.03221467686,0.002527340780943632,1.56109798E9,,,,0,,5,,1.56109798E9
Raw,2064696177,950292000000,,,-1311985616708482695,0.0,10.061898887183256,,,0,32,0.0,16431,175352912816278,6,38.507041931152344,-642.423085924801,0.05768829791490712,1,-144226.91588434138,0.0010888794204220176,1.56109798E9,,,,0,,5,,1.56109798E9
Raw,2064696178,950292000000,,,-1311985616708482695,0.0,10.061898887183256,,,0,36,0.0,16431,175352920955320,9,33.65865707397461,-382.85832252785985,0.10055155933361543,1,-139695.58759304188,0.0019028257811442018,1.56109798E9,,,,0,,5,,1.56109798E9
Fix,gps,34.486766,109.464172,357.792816,0.000000,3.000000,1627951350000
Raw,2064697176,951292000000,,,-1311985616708483083,0.0,9.892771721529027,,,0,1,0.0,16431,175367927272579,36,28.168609619140625,472.5769810785059,0.18340310714219676,4,562367.5301353866,3.4028234663852886E38,1.57542003E9,,,,0,,1,,1.57542003E9
Raw,2064697176,951292000000,,,-1311985616708483083,0.0,9.892771721529027,,,0,3,0.0,16431,175367926517696,24,31.8153076171875,-254.51190288760836,0.12083622925953535,1,-88686.22519484979,0.0021979818120598793,1.57542003E9,,,,0,,1,,1.57542003E9
Raw,2064697176,951292000000,,,-1311985616708483083,0.0,9.892771721529027,,,0,6,0.0,17,124631,69,21.158023834228516,-682.5390915609314,4.200741848386281,4,-527567.4345563119,3.4028234663852886E38,1.57542003E9,,,,0,,1,,1.57542003E9
Raw,2064697177,951292000000,,,-1311985616708483083,0.0,9.892771721529027,,,0,7,0.0,16,951017139550,1000000000,7.0,546.0030666077269,2.99792458E8,2,9.276214237302167,3.4028234663852886E38,1.57542003E9,,,,0,,1,,1.57542003E9
Raw,2064697177,951292000000,,,-1311985616708483083,0.0,9.892771721529027,,,0,14,0.0,16431,175367933234097,9,40.24167251586914,-136.5849077164724,0.047737535314379936,1,-175572.32512083728,8.836538763716817E-4,1.57542003E9,,,,0,,1,,1.57542003E9
Raw,2064697177,951292000000,,,-1311985616708483083,0.0,9.892771721529027,,,0,17,0.0,16431,175367930066325,10,38.840946197509766,-203.53368202783213,0.055105020785452624,1,-205011.2656540649,0.0010382892796769738,1.57542003E9,,,,0,,1,,1.57542003E9
Raw,2064697177,951292000000,,,-1311985616708483083,0.0,9.892771721529027,,,0,19,0.0,16431,175367927677765,7,42.06852722167969,-458.8146214644212,0.0381348239913587,1,-544963.3896085465,7.547758286818862E-4,1.57542003E9,,,,0,,1,,1.57542003E9
Raw,2064697178,951292000000,,,-1311985616708483083,0.0,9.892771721529027,,,0,21,0.0,16431,175367917701570,31,29.4686336517334,482.6383267387787,0.1599662426753532,4,563819.8452230621,3.4028234663852886E38,1.57542003E9,,,,0,,1,,1.57542003E9
Raw,2064697178,951292000000,,,-1311985616708483083,0.0,9.892771721529027,,,0,22,0.0,16431,175367923946466,54,24.723224639892578,83.50845154455413,0.2714590443976288,4,27422.15289154772,3.4028234663852886E38,1.57542003E9,,,,0,,1,,1.57542003E9
Raw,2064697178,951292000000,,,-1311985616708483083,0.0,9.892771721529027,,,0,24,0.0,16431,175367916662607,17,34.567291259765625,-451.87625129533353,0.09016652832343847,1,-547459.4847532642,0.0016982480883598328,1.57542003E9,,,,0,,1,,1.57542003E9
Raw,2064697179,951292000000,,,-1311985616708483083,0.0,9.892771721529027,,,0,30,0.0,16,951003222716,1000000000,7.0,471.37090518953323,2.99792458E8,2,1.4026221111865214,3.4028234663852886E38,1.57542003E9,,,,0,,1,,1.57542003E9
Raw,2064697179,951292000000,,,-1311985616708483083,0.0,9.892771721529027,,,0,10,0.0,32995,13349920891165,33,35.77046585083008,-881.2137059272195,0.07965139152952355,1,-580803.141989617,0.0014576223911717534,1.59806246E9,,,,0,,3,,1.59806246E9
Raw,2064697179,951292000000,,,-1311985616708483083,0.0,9.892771721529027,,,0,2,0.0,32995,13349920894739,64,29.34476089477539,-94.3962541724344,0.16279259029307536,4,-151214.93361897717,3.4028234663852886E38,1.59975002E9,,,,0,,3,,1.59975002E9
Raw,2064697180,951292000000,,,-1311985616708483083,0.0,9.892771721529027,,,0,18,0.0,32995,13349929796422,102,25.299116134643555,370.3864951300113,0.2551422846810515,4,28422.406398126677,3.4028234663852886E38,1.60031245E9,,,,0,,3,,1.60031245E9
Raw,2064697182,951292000000,,,-1311985616708483083,0.0,9.892771721529027,,,0,9,0.0,32995,13349933188685,33,40.38319396972656,-469.82938976346304,0.04699633341504342,1,-506561.2151879651,8.55548947583884E-4,1.59862502E9,,,,0,,3,,1.59862502E9
Raw,2064697183,951292000000,,,-1311985616708483083,0.0,9.892771721529027,,,0,16,0.0,32995,13349934355694,99,25.520610809326172,304.3399090046528,0.24958271709536384,4,58013.11905001407,3.4028234663852886E38,1.60143744E9,,,,0,,3,,1.60143744E9
Raw,2064697183,951292000000,,,-1311985616708483083,0.0,9.892771721529027,,,0,19,0.0,32995,13349934096786,65,29.17148780822754,-60.10324901414728,0.16477416561684688,4,-5528.459989580073,3.4028234663852886E38,1.60368755E9,,,,0,,3,,1.60368755E9
Raw,2064697183,951292000000,,,-1311985616708483083,0.0,9.892771721529027,,,0,3,0.0,32995,13349922254691,109,24.699321746826172,-560.05959190406,0.27190088483741426,4,-558412.6536538521,3.4028234663852886E38,1.60481254E9,,,,0,,3,,1.60481254E9
Raw,2064697183,951292000000,,,-1311985616708483083,0.0,9.892771721529027,,,0,193,0.0,35,11939501,38,27.830068588256836,-179.008287138583,0.1914800335905973,4,-21620.062649287476,3.4028234663852886E38,1.57542003E9,,,,0,,4,,1.57542003E9
Raw,2064697184,951292000000,,,-1311985616708483083,0.0,9.892771721529027,,,0,194,0.0,35,16440210,9,39.87010192871094,-159.94252687726635,0.050296648514698145,1,-21072.49834021743,9.721635724417865E-4,1.57542003E9,,,,0,,4,,1.57542003E9
Raw,2064697184,951292000000,,,-1311985616708483083,0.0,9.892771721529027,,,0,195,0.0,35,8633689,20,33.10787582397461,-110.91501541657317,0.10467100167570631,1,-98640.70701497633,0.0020089626777917147,1.57542003E9,,,,0,,4,,1.57542003E9
Raw,2064697184,951292000000,,,-1311985616708483083,0.0,9.892771721529027,,,0,7,0.0,16431,175353880505850,10,32.8393440246582,-107.89250648660317,0.11004431396188064,4,-98323.50924529211,3.4028234663852886E38,1.56109798E9,,,,0,,5,,1.56109798E9
Raw,2064697185,951292000000,,,-1311985616708483083,0.0,9.892771721529027,,,0,8,0.0,16431,175353878589846,10,33.31690979003906,-222.69115817965167,0.10400987191482658,1,-201231.4426895654,0.0019791850354522467,1.56109798E9,,,,0,,5,,1.56109798E9
