# 
# Header Description:
# 
# Version: v2.0.0.1 Platform: 10 Manufacturer: HUAWEI Model: BLA-AL00
# 
# Raw,ElapsedRealtimeMillis,TimeNanos,LeapSecond,TimeUncertaintyNanos,FullBiasNanos,BiasNanos,BiasUncertaintyNanos,DriftNanosPerSecond,DriftUncertaintyNanosPerSecond,HardwareClockDiscontinuityCount,Svid,TimeOffsetNanos,State,ReceivedSvTimeNanos,ReceivedSvTimeUncertaintyNanos,Cn0DbHz,PseudorangeRateMetersPerSecond,PseudorangeRateUncertaintyMetersPerSecond,AccumulatedDeltaRangeState,AccumulatedDeltaRangeMeters,AccumulatedDeltaRangeUncertaintyMeters,CarrierFrequencyHz,CarrierCycles,CarrierPhase,CarrierPhaseUncertainty,MultipathIndicator,SnrInDb,ConstellationType,AgcDb,CarrierFrequencyHz
# 
# Fix,Provider,Latitude,Longitude,Altitude,Speed,Accuracy,(UTC)TimeInMs
# 
# Nav,Svid,Type,Status,MessageId,Sub-messageId,Data(Bytes)
# 
Fix,gps,34.486333,109.464219,358.884735,0.430684,4.000000,1627820437999
Raw,1933784584,1785824000000,,,-1311853870175876407,0.0,9.863015570840057,,,0,10,0.0,16431,44455931736306,9,39.814083099365234,-331.26661745067304,0.049756829333321845,1,-717976.7188886765,9.28242749068886E-4,1.57542003E9,,,,0,,1,,1.57542003E9
Raw,1933784586,1785824000000,,,-1311853870175876407,0.0,9.863015570840057,,,0,12,0.0,16431,44455923883373,15,35.49047088623047,-460.4436265563854,0.0790784467965317,4,-898048.5347210758,3.4028234663852886E38,1.57542003E9,,,,0,,1,,1.57542003E9
Raw,1933784586,1785824000000,,,-1311853870175876407,0.0,9.863015570840057,,,0,15,0.0,16431,44455916098550,77,19.548433303833008,416.15323572779766,4.202895699877008,4,541311.106049273,3.4028234663852886E38,1.57542003E9,,,,0,,1,,1.57542003E9
Raw,1933784586,1785824000000,,,-1311853870175876407,0.0,9.863015570840057,,,0,18,0.0,16431,44455920827808,12,37.24095916748047,565.5037190142746,0.06782022341665858,1,1094355.020404832,0.0012482966994866729,1.57542003E9,,,,0,,1,,1.57542003E9
Raw,1933784586,1785824000000,,,-1311853870175876407,0.0,9.863015570840057,,,0,23,0.0,16431,44455931266886,20,33.14487838745117,129.88814808167496,0.10470629898541572,1,78144.52866615786,0.0020004226826131344,1.57542003E9,,,,0,,1,,1.57542003E9
Raw,1933784587,1785824000000,,,-1311853870175876407,0.0,9.863015570840057,,,0,24,0.0,39,1925790657,40,27.24653434753418,469.42714861158083,0.2035307115287308,4,539739.9282037921,3.4028234663852886E38,1.57542003E9,,,,0,,1,,1.57542003E9
Raw,1933784587,1785824000000,,,-1311853870175876407,0.0,9.863015570840057,,,0,25,0.0,16431,44455923262343,9,39.85017776489258,-698.7690210272676,0.0480349871245726,1,-1040974.1508583416,9.743962436914444E-4,1.57542003E9,,,,0,,1,,1.57542003E9
Raw,1933784587,1785824000000,,,-1311853870175876407,0.0,9.863015570840057,,,0,31,0.0,16,1785018418368,1000000000,21.556541442871094,-825.4095455536394,2.99792458E8,2,-14.846126327125821,3.4028234663852886E38,1.57542003E9,,,,0,,1,,1.57542003E9
Raw,1933784588,1785824000000,,,-1311853870175876407,0.0,9.863015570840057,,,0,32,0.0,16431,44455927231516,16,35.202762603759766,-394.6500685882522,0.08232038237593153,4,-750324.3429943807,3.4028234663852886E38,1.57542003E9,,,,0,,1,,1.57542003E9
Raw,1933784588,1785824000000,,,-1311853870175876407,0.0,9.863015570840057,,,0,10,0.0,32995,55237930829985,33,43.38877868652344,-761.869621858164,0.033519128684136465,1,-1494916.2572044658,6.391580100171268E-4,1.59806246E9,,,,0,,3,,1.59806246E9
Raw,1933784588,1785824000000,,,-1311853870175876407,0.0,9.863015570840057,,,0,9,0.0,32995,55237933696569,37,33.94091796875,-76.67743259289921,0.09615136109173544,1,-400550.6579525125,0.0017962167039513588,1.59862502E9,,,,0,,3,,1.59862502E9
Raw,1933784589,1785824000000,,,-1311853870175876407,0.0,9.863015570840057,,,0,16,0.0,32995,55237924582904,130,23.22433090209961,551.5457601822054,0.32256941572226516,4,543501.0949088532,3.4028234663852886E38,1.60143744E9,,,,0,,3,,1.60143744E9
Raw,1933784589,1785824000000,,,-1311853870175876407,0.0,9.863015570840057,,,0,23,0.0,32961,55237924503875,33,37.52302932739258,18.831756505291636,0.06283659193191199,4,-7155.622356342714,3.4028234663852886E38,1.60368755E9,,,,0,,3,,1.60368755E9
Raw,1933784590,1785824000000,,,-1311853870175876407,0.0,9.863015570840057,,,0,7,0.0,17,901371,92,26.19495964050293,-164.29702081121843,0.23087021696932986,6,-524421.446083164,3.4028234663852886E38,1.60481254E9,,,,0,,3,,1.60481254E9
Raw,1933784591,1785824000000,,,-1311853870175876407,0.0,9.863015570840057,,,0,8,0.0,65,1927729509,70,28.56618309020996,-560.3704579900045,0.17533826265836439,4,-524852.3022802736,3.4028234663852886E38,1.60537498E9,,,,0,,3,,1.60537498E9
Raw,1933784591,1785824000000,,,-1311853870175876407,0.0,9.863015570840057,,,0,193,0.0,35,9449241,24,31.569746017456055,-256.116879847724,0.12479488661447041,4,-440677.3574623404,3.4028234663852886E38,1.57542003E9,,,,0,,4,,1.57542003E9
Raw,1933784591,1785824000000,,,-1311853870175876407,0.0,9.863015570840057,,,0,194,0.0,35,12424842,19,33.675498962402344,-101.41293730599733,0.09882967135984888,1,-78776.29183566834,0.0017742487834766507,1.57542003E9,,,,0,,4,,1.57542003E9
Raw,1933784592,1785824000000,,,-1311853870175876407,0.0,9.863015570840057,,,0,6,0.0,16431,44441878618126,20,27.228515625,-79.60071045070305,0.20625857282921567,4,-117923.93707785629,3.4028234663852886E38,1.56109798E9,,,,0,,5,,1.56109798E9
Raw,1933784592,1785824000000,,,-1311853870175876407,0.0,9.863015570840057,,,0,14,0.0,16431,44441924359682,166,27.326642990112305,138.734616058578,0.20141435406854413,4,163718.19346732806,3.4028234663852886E38,1.56109798E9,,,,1,,5,,1.56109798E9
Raw,1933784592,1785824000000,,,-1311853870175876407,0.0,9.863015570840057,,,0,16,0.0,16431,44441877975653,14,30.194608688354492,-77.74567902769365,0.1474442516262907,1,-116583.49726708609,0.0026731614489108324,1.56109798E9,,,,0,,5,,1.56109798E9
Raw,1933784593,1785824000000,,,-1311853870175876407,0.0,9.863015570840057,,,0,24,0.0,16431,44441924153186,166,28.344131469726562,40.38757464970422,0.17919921586181242,4,-75331.88256756503,3.4028234663852886E38,1.56109798E9,,,,1,,5,,1.56109798E9
Raw,1933784593,1785824000000,,,-1311853870175876407,0.0,9.863015570840057,,,0,25,0.0,16431,44441923171000,6,38.54753875732422,-571.2848534545867,0.0556957306660705,1,-776112.2530407709,0.0010838143061846495,1.56109798E9,,,,0,,5,,1.56109798E9
Raw,1933784593,1785824000000,,,-1311853870175876407,0.0,9.863015570840057,,,0,26,0.0,16431,44441915031641,20,27.123573303222656,436.7820174452504,0.20807987074147782,4,656653.6844509026,3.4028234663852886E38,1.56109798E9,,,,0,,5,,1.56109798E9
Raw,1933784594,1785824000000,,,-1311853870175876407,0.0,9.863015570840057,,,0,27,0.0,16431,44441913096405,6,39.0238037109375,131.23803489594565,0.05453983114266567,4,105058.54253468443,3.4028234663852886E38,1.56109798E9,,,,0,,5,,1.56109798E9
Raw,1933784594,1785824000000,,,-1311853870175876407,0.0,9.863015570840057,,,0,33,0.0,16431,44441926057423,14,30.497774124145508,-106.63056945138959,0.14035383589088612,1,-247536.86508175085,0.0025814687833189964,1.56109798E9,,,,0,,5,,1.56109798E9
Raw,1933785459,1786824000000,,,-1311853870175876795,0.0,10.108753531559758,,,0,10,0.0,16431,44456931737408,6,42.73963165283203,-331.1718682215396,0.03613225084555707,1,-718307.9266175663,6.986553780734539E-4,1.57542003E9,,,,0,,1,,1.57542003E9
Raw,1933785459,1786824000000,,,-1311853870175876795,0.0,10.108753531559758,,,0,12,0.0,16431,44456923884950,24,31.82581329345703,-460.15082417239796,0.12021800212214967,4,-898508.9603084379,3.4028234663852886E38,1.57542003E9,,,,0,,1,,1.57542003E9
Raw,1933785459,1786824000000,,,-1311853870175876795,0.0,10.108753531559758,,,0,15,0.0,16431,44456916097150,104,14.374822616577148,416.1755938192766,4.202895433607816,4,541728.0840922652,3.4028234663852886E38,1.57542003E9,,,,0,,1,,1.57542003E9
Raw,1933785459,1786824000000,,,-1311853870175876795,0.0,10.108753531559758,,,0,18,0.0,16431,44456920825959,16,35.323638916015625,565.6557949352793,0.08364602850897146,1,1094920.5762307907,0.0015566241927444935,1.57542003E9,,,,0,,1,,1.57542003E9
Raw,1933785459,1786824000000,,,-1311853870175876795,0.0,10.108753531559758,,,0,23,0.0,16431,44456931266486,21,32.78619384765625,130.13818550334042,0.1090351870094245,1,78274.53343609176,0.002084759995341301,1.57542003E9,,,,0,,1,,1.57542003E9
Raw,1933785459,1786824000000,,,-1311853870175876795,0.0,10.108753531559758,,,0,24,0.0,39,2925789020,38,27.796764373779297,469.3468844264696,0.19110104932185024,4,540209.3275183507,3.4028234663852886E38,1.57542003E9,,,,0,,1,,1.57542003E9
Raw,1933785460,1786824000000,,,-1311853870175876795,0.0,10.108753531559758,,,0,25,0.0,16431,44456923264671,9,39.86259078979492,-698.5949960042622,0.04796764182138233,1,-1041672.836441619,9.73004789557308E-4,1.57542003E9,,,,0,,1,,1.57542003E9
Raw,1933785460,1786824000000,,,-1311853870175876795,0.0,10.108753531559758,,,0,31,0.0,16,1786018421122,1000000000,16.7757568359375,-825.4095455536394,2.99792458E8,2,-14.839671511431563,3.4028234663852886E38,1.57542003E9,,,,0,,1,,1.57542003E9
Raw,1933785460,1786824000000,,,-1311853870175876795,0.0,10.108753531559758,,,0,32,0.0,16431,44456927232760,11,38.44926071166992,-394.59632055431575,0.05705361617357274,4,-750718.9545144766,3.4028234663852886E38,1.57542003E9,,,,0,,1,,1.57542003E9
Raw,1933785460,1786824000000,,,-1311853870175876795,0.0,10.108753531559758,,,0,10,0.0,32995,55238930832516,33,44.23454284667969,-761.6309083326782,0.03194850865415466,1,-1495678.0287552853,5.798556958325207E-4,1.59806246E9,,,,0,,3,,1.59806246E9
Raw,1933785460,1786824000000,,,-1311853870175876795,0.0,10.108753531559758,,,0,9,0.0,32995,55238933696794,40,33.40068054199219,-76.461963302762,0.1021635696612922,1,-400627.2479390872,0.0019114837050437927,1.59862502E9,,,,0,,3,,1.59862502E9
Raw,1933785460,1786824000000,,,-1311853870175876795,0.0,10.108753531559758,,,0,16,0.0,32995,55238924581168,95,25.876699447631836,550.5964956031321,0.23790321841029904,4,544051.6378631783,3.4028234663852886E38,1.60143744E9,,,,0,,3,,1.60143744E9
Raw,1933785460,1786824000000,,,-1311853870175876795,0.0,10.108753531559758,,,0,23,0.0,32961,55238924503829,37,34.08573532104492,18.848013837053017,0.09294873350174326,4,-7136.702001331751,3.4028234663852886E38,1.60368755E9,,,,0,,3,,1.60368755E9
Raw,1933785460,1786824000000,,,-1311853870175876795,0.0,10.108753531559758,,,0,7,0.0,17,901960,113,24.45244598388672,-164.6346757079899,0.2816433084373511,4,-524586.5078186158,3.4028234663852886E38,1.60481254E9,,,,0,,3,,1.60481254E9
Raw,1933785461,1786824000000,,,-1311853870175876795,0.0,10.108753531559758,,,0,8,0.0,65,927731513,77,27.76961326599121,-560.4670135893336,0.19204548950257583,4,-525412.666214094,3.4028234663852886E38,1.60537498E9,,,,0,,3,,1.60537498E9
Raw,1933785461,1786824000000,,,-1311853870175876795,0.0,10.108753531559758,,,0,193,0.0,35,9450144,29,29.998458862304688,-256.11014856256077,0.1492043908336108,4,-440933.50902719505,3.4028234663852886E38,1.57542003E9,,,,0,,4,,1.57542003E9
Raw,1933785461,1786824000000,,,-1311853870175876795,0.0,10.108753531559758,,,0,194,0.0,35,12425168,12,37.78578567504883,-101.26117664771539,0.06241317399181928,1,-78877.61845156805,0.0011724017094820738,1.57542003E9,,,,0,,4,,1.57542003E9
Raw,1933785461,1786824000000,,,-1311853870175876795,0.0,10.108753531559758,,,0,6,0.0,16431,44442878618392,12,31.34665298461914,-79.62637454046472,0.12964676893531224,4,-118003.51963324417,3.4028234663852886E38,1.56109798E9,,,,0,,5,,1.56109798E9
Raw,1933785461,1786824000000,,,-1311853870175876795,0.0,10.108753531559758,,,0,14,0.0,16431,44442924359282,166,23.29662322998047,138.72830228350716,0.3198623899860218,4,163858.2073779272,3.4028234663852886E38,1.56109798E9,,,,1,,5,,1.56109798E9
Raw,1933785461,1786824000000,,,-1311853870175876795,0.0,10.108753531559758,,,0,16,0.0,16431,44442877975916,9,34.05018997192383,-77.77281718369994,0.09574986875538727,1,-116661.20102615633,0.001818956807255745,1.56109798E9,,,,0,,5,,1.56109798E9
Raw,1933785467,1786824000000,,,-1311853870175876795,0.0,10.108753531559758,,,0,24,0.0,16431,44442924153061,26,25.010169982910156,40.15433561879743,0.26269790597780307,4,-75290.75190588001,3.4028234663852886E38,1.56109798E9,,,,0,,5,,1.56109798E9
Raw,1933785467,1786824000000,,,-1311853870175876795,0.0,10.108753531559758,,,0,25,0.0,16431,44442923172909,6,40.271942138671875,-571.1243591668208,0.0457699848881839,1,-776683.4344893371,8.886584546416998E-4,1.56109798E9,,,,0,,5,,1.56109798E9
Raw,1933785467,1786824000000,,,-1311853870175876795,0.0,10.108753531559758,,,0,26,0.0,16431,44442915030189,19,27.55086898803711,436.79268525414204,0.1982207546683291,4,657090.5029334985,3.4028234663852886E38,1.56109798E9,,,,0,,5,,1.56109798E9
Raw,1933785467,1786824000000,,,-1311853870175876795,0.0,10.108753531559758,,,0,27,0.0,16431,44442913095987,6,38.9609260559082,131.19397480027578,0.0549188778182545,4,105189.7797957163,3.4028234663852886E38,1.56109798E9,,,,0,,5,,1.56109798E9
Raw,1933785467,1786824000000,,,-1311853870175876795,0.0,10.108753531559758,,,0,33,0.0,16431,44442926057795,11,32.44875717163086,-106.50961081319014,0.11233721621700005,1,-247643.40572609,0.0020621384028345346,1.56109798E9,,,,0,,5,,1.56109798E9
Fix,gps,34.486332,109.464214,358.890472,0.294905,4.000000,1627820438999
Fix,gps,34.486332,109.464210,358.832977,0.303851,4.000000,1627820439999
Raw,1933786511,1787824000000,,,-1311853870175877182,0.0,10.239558598826953,,,0,10,0.0,16431,44457931738496,7,42.192256927490234,-331.0791980222541,0.03834540547779694,1,-718639.0296546754,7.441004272550344E-4,1.57542003E9,,,,0,,1,,1.57542003E9
Raw,1933786511,1787824000000,,,-1311853870175877182,0.0,10.239558598826953,,,0,12,0.0,16431,44457923886404,27,30.728012084960938,-460.3020821144462,0.1363203069676424,1,-898969.1891039398,0.0024910871870815754,1.57542003E9,,,,0,,1,,1.57542003E9
Raw,1933786512,1787824000000,,,-1311853870175877182,0.0,10.239558598826953,,,0,15,0.0,16431,44457916095761,167,15.305240631103516,415.98841296805335,4.202895167338625,4,542145.2620894308,3.4028234663852886E38,1.57542003E9,,,,1,,1,,1.57542003E9
Raw,1933786512,1787824000000,,,-1311853870175877182,0.0,10.239558598826953,,,0,18,0.0,16431,44457920824017,13,37.183387756347656,565.4117986290325,0.06824563005477594,1,1095486.1607650216,0.001256598043255508,1.57542003E9,,,,0,,1,,1.57542003E9
Raw,1933786512,1787824000000,,,-1311853870175877182,0.0,10.239558598826953,,,0,23,0.0,16431,44457931266028,18,34.105342864990234,130.13378034583485,0.09395732791581624,1,78404.70511046733,0.0017910123569890857,1.57542003E9,,,,0,,1,,1.57542003E9
Raw,1933786512,1787824000000,,,-1311853870175877182,0.0,10.239558598826953,,,0,24,0.0,39,3925787613,49,25.525558471679688,469.53236115486675,0.24790092759766746,4,540678.7589033785,3.4028234663852886E38,1.57542003E9,,,,0,,1,,1.57542003E9
Raw,1933786512,1787824000000,,,-1311853870175877182,0.0,10.239558598826953,,,0,25,0.0,16431,44457923267010,8,40.67385482788086,-698.6692275945688,0.04374309803682572,1,-1042371.431245173,8.862406830303371E-4,1.57542003E9,,,,0,,1,,1.57542003E9
Raw,1933786512,1787824000000,,,-1311853870175877182,0.0,10.239558598826953,,,0,31,0.0,16,1787018423935,1000000000,27.280242919921875,-825.2239324954162,2.99792458E8,2,-14.829880088404597,3.4028234663852886E38,1.57542003E9,,,,0,,1,,1.57542003E9
Raw,1933786513,1787824000000,,,-1311853870175877182,0.0,10.239558598826953,,,0,32,0.0,16431,44457927234113,9,39.931678771972656,-394.5932872156852,0.04830627382623598,1,-751113.5813258186,9.157602326013148E-4,1.57542003E9,,,,0,,1,,1.57542003E9
Raw,1933786513,1787824000000,,,-1311853870175877182,0.0,10.239558598826953,,,0,10,0.0,32995,55239930835086,33,43.10253143310547,-761.6964148141151,0.034577835792156855,1,-1496439.655849085,6.605724920518696E-4,1.59806246E9,,,,0,,3,,1.59806246E9
Raw,1933786513,1787824000000,,,-1311853870175877182,0.0,10.239558598826953,,,0,9,0.0,32995,55239933697076,36,34.16637420654297,-76.33619903819283,0.09375094432960157,1,-400703.6083897345,0.0017501931870356202,1.59862502E9,,,,0,,3,,1.59862502E9
Raw,1933786513,1787824000000,,,-1311853870175877182,0.0,10.239558598826953,,,0,16,0.0,32995,55239924579364,91,26.288997650146484,550.950407831665,0.2269122585710227,4,544602.3014962284,3.4028234663852886E38,1.60143744E9,,,,0,,3,,1.60143744E9
Raw,1933786513,1787824000000,,,-1311853870175877182,0.0,10.239558598826953,,,0,23,0.0,32961,55239924503712,33,35.61417770385742,19.080562698215218,0.07808163479418634,4,-7117.668993068563,3.4028234663852886E38,1.60368755E9,,,,0,,3,,1.60368755E9
Raw,1933786513,1787824000000,,,-1311853870175877182,0.0,10.239558598826953,,,0,7,0.0,17,902486,71,20.754539489746094,-164.94666651499972,4.202320824692377,4,-524289.989074308,3.4028234663852886E38,1.60481254E9,,,,0,,3,,1.60481254E9
Raw,1933786514,1787824000000,,,-1311853870175877182,0.0,10.239558598826953,,,0,8,0.0,65,1927733345,54,30.714519500732422,-560.358426882852,0.1372231342662707,4,-525973.0548556384,3.4028234663852886E38,1.60537498E9,,,,0,,3,,1.60537498E9
Raw,1933786514,1787824000000,,,-1311853870175877182,0.0,10.239558598826953,,,0,193,0.0,35,9450948,32,29.186378479003906,-256.1207822889959,0.1636606112158162,4,-441189.5838702296,3.4028234663852886E38,1.57542003E9,,,,0,,4,,1.57542003E9
Raw,1933786515,1787824000000,,,-1311853870175877182,0.0,10.239558598826953,,,0,194,0.0,35,12425534,16,35.1564826965332,-101.38585027367583,0.08368749993556074,1,-78978.89268486243,0.0015868706395849586,1.57542003E9,,,,0,,4,,1.57542003E9
Raw,1933786515,1787824000000,,,-1311853870175877182,0.0,10.239558598826953,,,0,6,0.0,16431,44443878618670,12,31.205671310424805,-79.52026733269508,0.13171352543765408,4,-118083.06381175606,3.4028234663852886E38,1.56109798E9,,,,0,,5,,1.56109798E9
Raw,1933786515,1787824000000,,,-1311853870175877182,0.0,10.239558598826953,,,0,14,0.0,16431,44443924358894,74,20.136573791503906,138.66705610913567,4.200784185187743,4,163997.02543421616,3.4028234663852886E38,1.56109798E9,,,,0,,5,,1.56109798E9
Raw,1933786515,1787824000000,,,-1311853870175877182,0.0,10.239558598826953,,,0,16,0.0,16431,44443877976173,10,33.16814422607422,-77.74646292419368,0.10563846582059172,1,-116738.87835330638,0.002013375051319599,1.56109798E9,,,,0,,5,,1.56109798E9
Raw,1933786515,1787824000000,,,-1311853870175877182,0.0,10.239558598826953,,,0,24,0.0,16431,44443924152950,61,22.598133087158203,42.19775782023666,4.200746907500921,4,-75249.33848777745,3.4028234663852886E38,1.56109798E9,,,,0,,5,,1.56109798E9
Raw,1933786515,1787824000000,,,-1311853870175877182,0.0,10.239558598826953,,,0,25,0.0,16431,44443923174816,6,38.119712829589844,-571.2314462452155,0.058479624989559414,1,-777254.500806928,0.001138534746132791,1.56109798E9,,,,0,,5,,1.56109798E9
Raw,1933786515,1787824000000,,,-1311853870175877182,0.0,10.239558598826953,,,0,26,0.0,16431,44443915028740,12,31.32048988342285,437.02560476201893,0.12938208903796505,4,657527.3847629568,3.4028234663852886E38,1.56109798E9,,,,0,,5,,1.56109798E9
Raw,1933786516,1787824000000,,,-1311853870175877182,0.0,10.239558598826953,,,0,27,0.0,16431,44443913095536,6,39.73090744018555,131.25976246197894,0.05045977167819257,1,105321.05244102073,9.457722189836204E-4,1.56109798E9,,,,0,,5,,1.56109798E9
Raw,1933786516,1787824000000,,,-1311853870175877182,0.0,10.239558598826953,,,0,33,0.0,16431,44443926058161,11,32.245235443115234,-106.43192837416052,0.11497473737332764,1,-247749.85909985716,0.0021110274828970432,1.56109798E9,,,,0,,5,,1.56109798E9
Fix,gps,34.486331,109.464206,358.863861,0.311881,3.000000,1627820440999
Raw,1933787550,1788824000000,,,-1311853870175877569,0.0,10.36895920377544,,,0,10,0.0,16431,44458931739620,7,42.14251708984375,-330.9745989631856,0.038553686232001644,1,-718970.0614906619,7.483740337193012E-4,1.57542003E9,,,,0,,1,,1.57542003E9
Raw,1933787551,1788824000000,,,-1311853870175877569,0.0,10.36895920377544,,,0,12,0.0,16431,44458923888017,23,32.006587982177734,-460.2414153418356,0.1177567761333877,1,-899429.386804285,0.0022805328480899334,1.57542003E9,,,,0,,1,,1.57542003E9
Raw,1933787551,1788824000000,,,-1311853870175877569,0.0,10.36895920377544,,,0,15,0.0,16,1788016094605,1000000000,23.51992416381836,415.4895821343855,2.99792458E8,2,524294.6446092069,3.4028234663852886E38,1.57542003E9,,,,0,,1,,1.57542003E9
Raw,1933787551,1788824000000,,,-1311853870175877569,0.0,10.36895920377544,,,0,18,0.0,16431,44458920822178,14,36.19137191772461,565.5793139028422,0.07604896906927955,1,1096051.680566184,0.0014086305163800716,1.57542003E9,,,,0,,1,,1.57542003E9
Raw,1933787551,1788824000000,,,-1311853870175877569,0.0,10.36895920377544,,,0,23,0.0,16431,44458931265615,20,33.20106887817383,130.23929963122947,0.10404395437134939,1,78534.88349777368,0.0019875233992934227,1.57542003E9,,,,0,,1,,1.57542003E9
Raw,1933787551,1788824000000,,,-1311853870175877569,0.0,10.36895920377544,,,0,24,0.0,39,4925786029,32,29.13420867919922,469.56392150960687,0.1639770887918388,4,541148.3451850654,3.4028234663852886E38,1.57542003E9,,,,0,,1,,1.57542003E9
Raw,1933787551,1788824000000,,,-1311853870175877569,0.0,10.36895920377544,,,0,25,0.0,16431,44458923269338,10,38.982826232910156,-698.5711382846962,0.0530189348039842,1,-1043070.0448236839,0.0010214672656729817,1.57542003E9,,,,0,,1,,1.57542003E9
Raw,1933787552,1788824000000,,,-1311853870175877569,0.0,10.36895920377544,,,0,31,0.0,16,18426621,1000000000,23.69614028930664,-825.2598554045912,2.99792458E8,4,-675.203062569367,3.4028234663852886E38,1.57542003E9,,,,0,,1,,1.57542003E9
Raw,1933787552,1788824000000,,,-1311853870175877569,0.0,10.36895920377544,,,0,32,0.0,16431,44458927235390,10,38.94822311401367,-394.50279829361716,0.05394162828057836,1,-751508.1222448527,0.0010255445959046483,1.57542003E9,,,,0,,1,,1.57542003E9
Raw,1933787552,1788824000000,,,-1311853870175877569,0.0,10.36895920377544,,,0,10,0.0,32995,55240930837591,33,43.703025817871094,-761.4982594118915,0.03239870120959802,1,-1497201.2445124942,6.164470105431974E-4,1.59806246E9,,,,0,,3,,1.59806246E9
Raw,1933787552,1788824000000,,,-1311853870175877569,0.0,10.36895920377544,,,0,9,0.0,32995,55240933697299,40,33.31208419799805,-76.19117818568827,0.10318577708778492,1,-400779.85628885595,0.0018206402892246842,1.59862502E9,,,,0,,3,,1.59862502E9
Raw,1933787552,1788824000000,,,-1311853870175877569,0.0,10.36895920377544,,,0,16,0.0,32995,55240924577412,103,25.216564178466797,550.9404557543603,0.25662314079004844,4,545153.1666321333,3.4028234663852886E38,1.60143744E9,,,,0,,3,,1.60143744E9
Raw,1933787552,1788824000000,,,-1311853870175877569,0.0,10.36895920377544,,,0,23,0.0,32961,55240924503748,39,33.53423309326172,19.285937190761075,0.09898866735087375,1,-7098.452033120871,0.0018790166359394789,1.60368755E9,,,,0,,3,,1.60368755E9
Raw,1933787553,1788824000000,,,-1311853870175877569,0.0,10.36895920377544,,,0,7,0.0,17,902838,58,30.12327003479004,-164.08746482728793,0.1477210717345917,4,-524454.1009293763,3.4028234663852886E38,1.60481254E9,,,,0,,3,,1.60481254E9
Raw,1933787553,1788824000000,,,-1311853870175877569,0.0,10.36895920377544,,,0,8,0.0,65,927735218,63,29.47381591796875,-560.2907732066542,0.15808002500581786,1,-526533.3724014774,0.00282435049302876,1.60537498E9,,,,0,,3,,1.60537498E9
Raw,1933787553,1788824000000,,,-1311853870175877569,0.0,10.36895920377544,,,0,193,0.0,35,9451781,28,30.471017837524414,-256.1293369855831,0.14139404977145975,1,-441445.70917133545,0.002565893344581127,1.57542003E9,,,,0,,4,,1.57542003E9
Raw,1933787553,1788824000000,,,-1311853870175877569,0.0,10.36895920377544,,,0,194,0.0,35,12425826,19,33.86238098144531,-101.25317579104666,0.09677371540159069,1,-79080.21314331144,0.001841818098910153,1.57542003E9,,,,0,,4,,1.57542003E9
Raw,1933787553,1788824000000,,,-1311853870175877569,0.0,10.36895920377544,,,0,6,0.0,16431,44444878618932,12,31.671180725097656,-79.61785392633402,0.12501513284047194,4,-118162.66727404529,3.4028234663852886E38,1.56109798E9,,,,0,,5,,1.56109798E9
Raw,1933787553,1788824000000,,,-1311853870175877569,0.0,10.36895920377544,,,0,14,0.0,16431,44444924358377,166,20.06451416015625,138.56361585358894,4.200783918918551,4,164136.50247836483,3.4028234663852886E38,1.56109798E9,,,,1,,5,,1.56109798E9
Raw,1933787554,1788824000000,,,-1311853870175877569,0.0,10.36895920377544,,,0,16,0.0,16431,44444877976443,10,32.841041564941406,-77.75857923748754,0.10956854084199263,1,-116816.63029213731,0.0020906426943838596,1.56109798E9,,,,0,,5,,1.56109798E9
Raw,1933787554,1788824000000,,,-1311853870175877569,0.0,10.36895920377544,,,0,24,0.0,16431,44444924152711,166,27.009471893310547,41.43751454503885,0.20883870465384458,4,-75207.88512341112,3.4028234663852886E38,1.56109798E9,,,,1,,5,,1.56109798E9
Raw,1933787554,1788824000000,,,-1311853870175877569,0.0,10.36895920377544,,,0,25,0.0,16431,44444923176708,6,40.465660095214844,-571.0243953218394,0.04477378031243184,1,-777825.5978071847,8.690582471899688E-4,1.56109798E9,,,,0,,5,,1.56109798E9
Raw,1933787555,1788824000000,,,-1311853870175877569,0.0,10.36895920377544,,,0,26,0.0,16431,44444915027261,13,30.905067443847656,436.9788095492131,0.13558774217520791,1,657964.3632485082,0.0024632145650684834,1.56109798E9,,,,0,,5,,1.56109798E9
Raw,1933787555,1788824000000,,,-1311853870175877569,0.0,10.36895920377544,,,0,27,0.0,16431,44444913095094,6,38.36500930786133,131.42117697607097,0.058651547517744484,1,105452.43873858308,0.0011068313615396619,1.56109798E9,,,,0,,5,,1.56109798E9
Raw,1933787555,1788824000000,,,-1311853870175877569,0.0,10.36895920377544,,,0,33,0.0,16431,44444926058498,12,31.786684036254883,-106.38420441441446,0.12114862126764958,1,-247856.26552091207,0.0022254681680351496,1.56109798E9,,,,0,,5,,1.56109798E9
Fix,gps,34.486331,109.464202,358.825775,0.298673,3.000000,1627820441999
Raw,1933788532,1789824000000,,,-1311853870175877959,0.0,10.762886230530514,,,0,10,0.0,16431,44459931740736,7,42.43414306640625,-330.8848257727045,0.03735067786396695,1,-719300.970783625,7.236644742079079E-4,1.57542003E9,,,,0,,1,,1.57542003E9
Raw,1933788532,1789824000000,,,-1311853870175877959,0.0,10.762886230530514,,,0,12,0.0,16431,44459923889626,38,27.863279342651367,-459.70601403231876,0.1893095402753966,4,-899889.4296356777,3.4028234663852886E38,1.57542003E9,,,,0,,1,,1.57542003E9
Raw,1933788532,1789824000000,,,-1311853870175877959,0.0,10.762886230530514,,,0,15,0.0,16,1789016093280,1000000000,14.35615348815918,415.4895821343855,2.99792458E8,2,524294.6413600217,3.4028234663852886E38,1.57542003E9,,,,0,,1,,1.57542003E9
Raw,1933788533,1789824000000,,,-1311853870175877959,0.0,10.762886230530514,,,0,18,0.0,16431,44459920820247,12,37.49138641357422,565.610397103191,0.06599786874854233,1,1096617.2769059248,0.001212820177897811,1.57542003E9,,,,0,,1,,1.57542003E9
Raw,1933788533,1789824000000,,,-1311853870175877959,0.0,10.762886230530514,,,0,23,0.0,16431,44459931265165,18,33.982688903808594,130.38507881839166,0.09526450994460223,1,78665.23725128981,0.001816482748836279,1.57542003E9,,,,0,,1,,1.57542003E9
Raw,1933788533,1789824000000,,,-1311853870175877959,0.0,10.762886230530514,,,0,24,0.0,39,5925784533,24,31.62195587158203,469.60379798373856,0.12339798850994493,4,541617.9343754143,3.4028234663852886E38,1.57542003E9,,,,0,,1,,1.57542003E9
Raw,1933788533,1789824000000,,,-1311853870175877959,0.0,10.762886230530514,,,0,25,0.0,16431,44459923271673,11,38.004722595214844,-698.5134707682596,0.0592687927874862,1,-1043768.5664194474,0.0011432194150984287,1.57542003E9,,,,0,,1,,1.57542003E9
Raw,1933788533,1789824000000,,,-1311853870175877959,0.0,10.762886230530514,,,0,31,0.0,17,429302,38,27.710657119750977,-825.3578083846378,0.19526822873744487,4,-14.84580739163448,3.4028234663852886E38,1.57542003E9,,,,0,,1,,1.57542003E9
Raw,1933788533,1789824000000,,,-1311853870175877959,0.0,10.762886230530514,,,0,32,0.0,16431,44459927236699,12,37.423988342285156,-394.49005145487763,0.0640394463630703,1,-751902.657034493,0.001222267746925354,1.57542003E9,,,,0,,1,,1.57542003E9
Raw,1933788534,1789824000000,,,-1311853870175877959,0.0,10.762886230530514,,,0,10,0.0,32995,55241930840137,33,44.44314193725586,-761.3916494878881,0.03194987952444571,1,-1497962.6755078186,5.660959868691862E-4,1.59806246E9,,,,0,,3,,1.59806246E9
Raw,1933788534,1789824000000,,,-1311853870175877959,0.0,10.762886230530514,,,0,9,0.0,32995,55241933697555,52,31.08863639831543,-75.88739273008633,0.13256963081407153,1,-400855.8762064041,0.002351779490709305,1.59862502E9,,,,0,,3,,1.59862502E9
Raw,1933788534,1789824000000,,,-1311853870175877959,0.0,10.762886230530514,,,0,16,0.0,32995,55241924575729,65,21.774585723876953,550.7311213063972,4.200823060489714,4,545703.9860690632,3.4028234663852886E38,1.60143744E9,,,,0,,3,,1.60143744E9
Raw,1933788534,1789824000000,,,-1311853870175877959,0.0,10.762886230530514,,,0,23,0.0,32961,55241924503579,57,30.39641761779785,19.449277363646644,0.14170894637415732,1,-7079.077083870566,0.002542407251894474,1.60368755E9,,,,0,,3,,1.60368755E9
Raw,1933788534,1789824000000,,,-1311853870175877959,0.0,10.762886230530514,,,0,7,0.0,65,1932903430,33,35.050140380859375,-163.96096778990352,0.08477684880289393,4,-524618.0856065337,3.4028234663852886E38,1.60481254E9,,,,0,,3,,1.60481254E9
Raw,1933788534,1789824000000,,,-1311853870175877959,0.0,10.762886230530514,,,0,8,0.0,65,1927737031,73,28.238706588745117,-560.3328309580033,0.18202301728039005,1,-527093.7042695833,0.003255922347307205,1.60537498E9,,,,0,,3,,1.60537498E9
Raw,1933788535,1789824000000,,,-1311853870175877959,0.0,10.762886230530514,,,0,193,0.0,35,9452641,30,29.75900650024414,-256.1580855376601,0.15332781889266323,1,-441701.8169630033,0.002785089425742626,1.57542003E9,,,,0,,4,,1.57542003E9
Raw,1933788535,1789824000000,,,-1311853870175877959,0.0,10.762886230530514,,,0,194,0.0,35,12426179,14,36.16539001464844,-101.2593191538349,0.07475532516470318,1,-79181.48363148751,0.001412850571796298,1.57542003E9,,,,0,,4,,1.57542003E9
Raw,1933788535,1789824000000,,,-1311853870175877959,0.0,10.762886230530514,,,0,6,0.0,16431,44445878619196,12,31.884883880615234,-79.59143150191471,0.12205830499796116,1,-118242.2383539498,0.002200449351221323,1.56109798E9,,,,0,,5,,1.56109798E9
Raw,1933788535,1789824000000,,,-1311853870175877959,0.0,10.762886230530514,,,0,14,0.0,16431,44445924357929,25,25.414783477783203,138.03150350112656,0.25081221508750506,4,164275.405547207,3.4028234663852886E38,1.56109798E9,,,,0,,5,,1.56109798E9
Raw,1933788535,1789824000000,,,-1311853870175877959,0.0,10.762886230530514,,,0,16,0.0,16431,44445877976704,9,33.81724548339844,-77.68669933668093,0.09826473966534127,1,-116894.31470398007,0.0018683988600969315,1.56109798E9,,,,0,,5,,1.56109798E9
Raw,1933788535,1789824000000,,,-1311853870175877959,0.0,10.762886230530514,,,0,24,0.0,16431,44445924152567,15,29.405681610107422,41.61685643126188,0.15866956163781032,4,-75166.27887054942,3.4028234663852886E38,1.56109798E9,,,,0,,5,,1.56109798E9
Raw,1933788536,1789824000000,,,-1311853870175877959,0.0,10.762886230530514,,,0,25,0.0,16431,44445923178622,6,42.3576545715332,-570.9221820347275,0.03612226159041654,1,-778396.5478694118,7.367631769739091E-4,1.56109798E9,,,,0,,5,,1.56109798E9
Raw,1933788536,1789824000000,,,-1311853870175877959,0.0,10.762886230530514,,,0,26,0.0,16431,44445915025827,15,29.87948989868164,437.0457134113674,0.15224157372559444,1,658401.355441643,0.0027719230856746435,1.56109798E9,,,,0,,5,,1.56109798E9
Raw,1933788536,1789824000000,,,-1311853870175877959,0.0,10.762886230530514,,,0,27,0.0,16431,44445913094668,6,38.13190460205078,131.51042188847595,0.060182740985319255,1,105583.88264965574,0.0011369376443326473,1.56109798E9,,,,0,,5,,1.56109798E9
Raw,1933788536,1789824000000,,,-1311853870175877959,0.0,10.762886230530514,,,0,33,0.0,16431,44445926058851,11,31.906076431274414,-106.30615558897722,0.11950969278888607,1,-247962.60969868826,0.0021950877271592617,1.56109798E9,,,,0,,5,,1.56109798E9
Fix,gps,34.486331,109.464198,358.821198,0.289678,3.000000,1627820442999
Raw,1933789525,1790824000000,,,-1311853870175878347,0.0,10.87284067884423,,,0,10,0.0,16431,44460931741817,7,42.140907287597656,-330.77848850835335,0.03856085053743771,1,-719631.7612480363,7.485125679522753E-4,1.57542003E9,,,,0,,1,,1.57542003E9
Raw,1933789526,1790824000000,,,-1311853870175878347,0.0,10.87284067884423,,,0,12,0.0,16431,44460923891026,24,31.801677703857422,-459.502439519508,0.12055168734467842,4,-900349.2693893765,3.4028234663852886E38,1.57542003E9,,,,0,,1,,1.57542003E9
Raw,1933789526,1790824000000,,,-1311853870175878347,0.0,10.87284067884423,,,0,15,0.0,16,1790016091894,1000000000,22.897624969482422,415.4895821343855,2.99792458E8,2,524294.6381108365,3.4028234663852886E38,1.57542003E9,,,,0,,1,,1.57542003E9
Raw,1933789527,1790824000000,,,-1311853870175878347,0.0,10.87284067884423,,,0,18,0.0,16431,44460920818369,11,38.66191864013672,565.647035743953,0.05814893945589211,1,1097182.8840881803,0.001059912028722465,1.57542003E9,,,,0,,1,,1.57542003E9
Raw,1933789527,1790824000000,,,-1311853870175878347,0.0,10.87284067884423,,,0,23,0.0,16431,44460931264729,19,33.69013214111328,130.68047146907486,0.09845838393492107,1,78795.82152014766,0.001878707087598741,1.57542003E9,,,,0,,1,,1.57542003E9
Raw,1933789527,1790824000000,,,-1311853870175878347,0.0,10.87284067884423,,,0,24,0.0,16431,44460925782946,30,29.77503776550293,470.1520483793645,0.1523881382737372,4,542087.7681085196,3.4028234663852886E38,1.57542003E9,,,,0,,1,,1.57542003E9
Raw,1933789528,1790824000000,,,-1311853870175878347,0.0,10.87284067884423,,,0,25,0.0,16431,44460923274015,11,38.647029876708984,-698.1831435996405,0.05508645266979573,1,-1044466.9414343203,0.0010617304360494018,1.57542003E9,,,,0,,1,,1.57542003E9
Raw,1933789529,1790824000000,,,-1311853870175878347,0.0,10.87284067884423,,,0,31,0.0,16431,44460918432061,35,28.507308959960938,-825.7518697469545,0.17844642293172974,4,-840.2491845017182,3.4028234663852886E38,1.57542003E9,,,,0,,1,,1.57542003E9
Raw,1933789529,1790824000000,,,-1311853870175878347,0.0,10.87284067884423,,,0,32,0.0,16431,44460927238041,7,41.96205520629883,-394.78455796169123,0.03850901957511335,1,-752297.2496687464,7.640849216841161E-4,1.57542003E9,,,,0,,1,,1.57542003E9
Raw,1933789529,1790824000000,,,-1311853870175878347,0.0,10.87284067884423,,,0,10,0.0,32995,55242930842680,33,44.216888427734375,-761.1577756712286,0.031950335094390686,1,-1498723.9613470642,5.81035390496254E-4,1.59806246E9,,,,0,,3,,1.59806246E9
Raw,1933789530,1790824000000,,,-1311853870175878347,0.0,10.87284067884423,,,0,9,0.0,32995,55242933697925,62,29.57644271850586,-75.51194890964518,0.1573121545827617,1,-400931.60969759006,0.00279902177862823,1.59862502E9,,,,0,,3,,1.59862502E9
Raw,1933789530,1790824000000,,,-1311853870175878347,0.0,10.87284067884423,,,0,16,0.0,32995,55242924573882,123,23.670808792114258,551.2614443298921,0.3064470824410179,4,546254.9450013957,3.4028234663852886E38,1.60143744E9,,,,0,,3,,1.60143744E9
Raw,1933789530,1790824000000,,,-1311853870175878347,0.0,10.87284067884423,,,0,23,0.0,32961,55242924503524,33,34.93640899658203,19.202049614490775,0.08435267365978766,1,-7059.67119781653,0.0015989021630957723,1.60368755E9,,,,0,,3,,1.60368755E9
Raw,1933789531,1790824000000,,,-1311853870175878347,0.0,10.87284067884423,,,0,7,0.0,65,932904001,34,34.85824203491211,-164.02551996255772,0.08661891571209968,4,-524782.0345200131,3.4028234663852886E38,1.60481254E9,,,,0,,3,,1.60481254E9
Raw,1933789531,1790824000000,,,-1311853870175878347,0.0,10.87284067884423,,,0,8,0.0,65,927738939,54,30.774459838867188,-560.5597519535322,0.13629002716801192,1,-527654.0830848234,0.0024315675254911184,1.60537498E9,,,,0,,3,,1.60537498E9
Raw,1933789531,1790824000000,,,-1311853870175878347,0.0,10.87284067884423,,,0,193,0.0,35,9453481,31,29.642616271972656,-255.6056259586536,0.1553734319570108,1,-441957.7608679287,0.002822660841047764,1.57542003E9,,,,0,,4,,1.57542003E9
Raw,1933789532,1790824000000,,,-1311853870175878347,0.0,10.87284067884423,,,0,194,0.0,35,12426545,20,33.18345642089844,-101.30560312979287,0.1044598418858676,1,-79282.64756066598,0.0018776587676256895,1.57542003E9,,,,0,,4,,1.57542003E9
Raw,1933789532,1790824000000,,,-1311853870175878347,0.0,10.87284067884423,,,0,6,0.0,16431,44446878619475,13,31.008800506591797,-79.46820638035649,0.1346563575057822,1,-118321.73655816713,0.002433971967548132,1.56109798E9,,,,0,,5,,1.56109798E9
Raw,1933789532,1790824000000,,,-1311853870175878347,0.0,10.87284067884423,,,0,14,0.0,16431,44446924357472,29,24.049924850463867,137.76974171441725,0.293355391814736,4,164413.3933193935,3.4028234663852886E38,1.56109798E9,,,,0,,5,,1.56109798E9
Raw,1933789533,1790824000000,,,-1311853870175878347,0.0,10.87284067884423,,,0,16,0.0,16431,44446877976961,10,33.21088409423828,-77.63807219183701,0.10513597425151067,1,-116971.94837849219,0.0020034927874803543,1.56109798E9,,,,0,,5,,1.56109798E9
Raw,1933789533,1790824000000,,,-1311853870175878347,0.0,10.87284067884423,,,0,24,0.0,16431,44446924152459,17,28.80553436279297,42.26103190077126,0.16996693074930247,4,-75124.4152056062,3.4028234663852886E38,1.56109798E9,,,,0,,5,,1.56109798E9
Raw,1933789533,1790824000000,,,-1311853870175878347,0.0,10.87284067884423,,,0,25,0.0,16431,44446923180527,6,40.490501403808594,-570.7662888785921,0.0446482177467753,1,-778967.3669148904,9.13451483938843E-4,1.56109798E9,,,,0,,5,,1.56109798E9
Raw,1933789534,1790824000000,,,-1311853870175878347,0.0,10.87284067884423,,,0,26,0.0,16431,44446915024328,16,29.21036148071289,437.33415324091993,0.1642165480041956,1,658838.50815089,0.0029939014930278063,1.56109798E9,,,,0,,5,,1.56109798E9
Raw,1933789534,1790824000000,,,-1311853870175878347,0.0,10.87284067884423,,,0,27,0.0,16431,44446913094223,6,38.026588439941406,131.0644870273315,0.06088808391337036,1,105715.26253392082,0.0011508070165291429,1.56109798E9,,,,0,,5,,1.56109798E9
Raw,1933789534,1790824000000,,,-1311853870175878347,0.0,10.87284067884423,,,0,33,0.0,16431,44446926059218,13,30.92495346069336,-106.02776156348477,0.13367072880948339,1,-248068.78113088233,0.0024575814604759216,1.56109798E9,,,,0,,5,,1.56109798E9
Fix,gps,34.486331,109.464195,358.720856,0.351617,3.000000,1627820443999
Raw,1933790515,1791824000000,,,-1311853870175878731,0.0,10.496947393617463,,,0,10,0.0,16431,44461931742905,14,36.29745101928711,-330.7889177400493,0.07353815876449721,4,-719962.5973803531,3.4028234663852886E38,1.57542003E9,,,,0,,1,,1.57542003E9
Raw,1933790515,1791824000000,,,-1311853870175878731,0.0,10.496947393617463,,,0,12,0.0,16431,44461923892563,29,30.150381088256836,-459.19511800904183,0.1456472174941117,4,-900808.6638401828,3.4028234663852886E38,1.57542003E9,,,,0,,1,,1.57542003E9
Raw,1933790515,1791824000000,,,-1311853870175878731,0.0,10.496947393617463,,,0,15,0.0,16,1791016090447,1000000000,22.43086814880371,415.4895821343855,2.99792458E8,2,524294.6348616512,3.4028234663852886E38,1.57542003E9,,,,0,,1,,1.57542003E9
Raw,1933790516,1791824000000,,,-1311853870175878731,0.0,10.496947393617463,,,0,18,0.0,16431,44461920816496,13,36.69892120361328,565.2437380359186,0.07194406336086673,1,1097748.443470552,0.0013286778703331947,1.57542003E9,,,,0,,1,,1.57542003E9
Raw,1933790516,1791824000000,,,-1311853870175878731,0.0,10.496947393617463,,,0,23,0.0,16431,44461931264290,16,35.2786750793457,130.9542302804802,0.08234079357364893,1,78926.62341317107,0.0015647029504179955,1.57542003E9,,,,0,,1,,1.57542003E9
Raw,1933790516,1791824000000,,,-1311853870175878731,0.0,10.496947393617463,,,0,24,0.0,16431,44461925781297,45,26.357437133789062,469.95205252448864,0.2253539680527481,4,542557.7146706448,3.4028234663852886E38,1.57542003E9,,,,0,,1,,1.57542003E9
Raw,1933790517,1791824000000,,,-1311853870175878731,0.0,10.496947393617463,,,0,25,0.0,16431,44461923276330,10,38.7213020324707,-698.0555388824191,0.05462285304451048,1,-1045165.0002867187,0.001052690320648253,1.57542003E9,,,,0,,1,,1.57542003E9
Raw,1933790517,1791824000000,,,-1311853870175878731,0.0,10.496947393617463,,,0,31,0.0,16431,44461918434831,50,25.397541046142578,-825.4369478486838,0.25384109370907615,4,-1665.768056411081,3.4028234663852886E38,1.57542003E9,,,,0,,1,,1.57542003E9
Raw,1933790517,1791824000000,,,-1311853870175878731,0.0,10.496947393617463,,,0,32,0.0,16431,44461927239376,6,44.089359283447266,-394.9893935253933,0.0313021859566007,1,-752692.1181193804,5.981036811135709E-4,1.57542003E9,,,,0,,1,,1.57542003E9
Raw,1933790518,1791824000000,,,-1311853870175878731,0.0,10.496947393617463,,,0,10,0.0,32995,55243930845228,33,42.400115966796875,-761.3326186731906,0.037327928489910955,1,-1499485.0733587544,7.162113906815648E-4,1.59806246E9,,,,0,,3,,1.59806246E9
Raw,1933790518,1791824000000,,,-1311853870175878731,0.0,10.496947393617463,,,0,9,0.0,32995,55243933698089,50,31.424949645996094,-75.09772777429521,0.12762839853762864,1,-401006.9469896309,0.0022624603006988764,1.59862502E9,,,,0,,3,,1.59862502E9
Raw,1933790518,1791824000000,,,-1311853870175878731,0.0,10.496947393617463,,,0,16,0.0,32995,55243924572019,63,29.46639060974121,551.4463075740719,0.15764509092318912,4,546806.26767866,3.4028234663852886E38,1.60143744E9,,,,0,,3,,1.60143744E9
Raw,1933790519,1791824000000,,,-1311853870175878731,0.0,10.496947393617463,,,0,23,0.0,32961,55243924503448,33,36.67955780029297,19.145255461002577,0.06916193307077206,1,-7040.526306805159,0.0013081704964861274,1.60368755E9,,,,0,,3,,1.60368755E9
Raw,1933790519,1791824000000,,,-1311853870175878731,0.0,10.496947393617463,,,0,7,0.0,65,1932904492,44,32.56867599487305,-163.5373569377815,0.11204342144773555,4,-524945.8806130225,3.4028234663852886E38,1.60481254E9,,,,0,,3,,1.60481254E9
Raw,1933790520,1791824000000,,,-1311853870175878731,0.0,10.496947393617463,,,0,8,0.0,65,1927740790,34,34.72238540649414,-560.6291438350127,0.08701906006066545,1,-528214.7238984993,0.0016370664816349745,1.60537498E9,,,,0,,3,,1.60537498E9
Raw,1933790521,1791824000000,,,-1311853870175878731,0.0,10.496947393617463,,,0,193,0.0,35,9454321,41,27.111894607543945,-255.92412651485927,0.20735293920662778,4,-442213.86283436755,3.4028234663852886E38,1.57542003E9,,,,0,,4,,1.57542003E9
Raw,1933790521,1791824000000,,,-1311853870175878731,0.0,10.496947393617463,,,0,194,0.0,35,12426844,27,30.787744522094727,-100.58509147828653,0.1369270928507022,4,-79383.52557263123,3.4028234663852886E38,1.57542003E9,,,,0,,4,,1.57542003E9
Raw,1933790521,1791824000000,,,-1311853870175878731,0.0,10.496947393617463,,,0,6,0.0,16431,44447878619725,15,29.448705673217773,-79.49111831175395,0.16049155850670038,4,-118401.44113719957,3.4028234663852886E38,1.56109798E9,,,,0,,5,,1.56109798E9
Raw,1933790522,1791824000000,,,-1311853870175878731,0.0,10.496947393617463,,,0,14,0.0,16431,44447924356988,21,26.843585968017578,138.3014024743307,0.21288784360844493,4,164551.98262872486,3.4028234663852886E38,1.56109798E9,,,,0,,5,,1.56109798E9
Raw,1933790522,1791824000000,,,-1311853870175878731,0.0,10.496947393617463,,,0,16,0.0,16431,44447877977201,9,33.476280212402344,-77.91926097876433,0.10206949342754051,1,-117049.74357675637,0.0019432015251368284,1.56109798E9,,,,0,,5,,1.56109798E9
Raw,1933790522,1791824000000,,,-1311853870175878731,0.0,10.496947393617463,,,0,24,0.0,16431,44447924152312,19,27.591934204101562,42.14956096640634,0.19534188545256692,4,-75082.4828266662,3.4028234663852886E38,1.56109798E9,,,,0,,5,,1.56109798E9
Raw,1933790523,1791824000000,,,-1311853870175878731,0.0,10.496947393617463,,,0,25,0.0,16431,44447923182434,6,39.66670227050781,-571.0996493858418,0.04903355483939997,1,-779538.1707270866,9.527890360914171E-4,1.56109798E9,,,,0,,5,,1.56109798E9
Raw,1933790523,1791824000000,,,-1311853870175878731,0.0,10.496947393617463,,,0,26,0.0,16431,44447915022881,16,28.92885398864746,437.94559251093915,0.16953667301935094,4,659275.9288821778,3.4028234663852886E38,1.56109798E9,,,,0,,5,,1.56109798E9
Raw,1933790523,1791824000000,,,-1311853870175878731,0.0,10.496947393617463,,,0,27,0.0,16431,44447913093790,6,38.21888732910156,130.66581601277005,0.05960639299922246,1,105846.2100610562,0.0011256090365350246,1.56109798E9,,,,0,,5,,1.56109798E9
Raw,1933790524,1791824000000,,,-1311853870175878731,0.0,10.496947393617463,,,0,33,0.0,16431,44447926059550,15,29.920467376708984,-106.11320628198746,0.14992496519151177,4,-248174.8350072799,3.4028234663852886E38,1.56109798E9,,,,0,,5,,1.56109798E9
Fix,gps,34.486331,109.464188,358.773743,0.629705,4.000000,1627820444999
Raw,1933791516,1792824000000,,,-1311853870175879120,0.0,10.38163038051607,,,0,10,0.0,16431,44462931744032,10,38.66658020019531,-330.44410552740806,0.05648746130496629,4,-720293.3217002227,3.4028234663852886E38,1.57542003E9,,,,0,,1,,1.57542003E9
Raw,1933791517,1792824000000,,,-1311853870175879120,0.0,10.38163038051607,,,0,12,0.0,16431,44462923894067,29,30.132753372192383,-459.1141040098871,0.14594194420554674,4,-901267.7658411954,3.4028234663852886E38,1.57542003E9,,,,0,,1,,1.57542003E9
Raw,1933791517,1792824000000,,,-1311853870175879120,0.0,10.38163038051607,,,0,15,0.0,16,1792016089123,1000000000,26.347637176513672,415.30393499370575,2.99792458E8,2,524294.6416404325,3.4028234663852886E38,1.57542003E9,,,,0,,1,,1.57542003E9
Raw,1933791517,1792824000000,,,-1311853870175879120,0.0,10.38163038051607,,,0,18,0.0,16431,44462920814605,10,39.332366943359375,565.6563061721272,0.054106873276693224,1,1098314.0548273653,9.811770869418979E-4,1.57542003E9,,,,0,,1,,1.57542003E9
Raw,1933791517,1792824000000,,,-1311853870175879120,0.0,10.38163038051607,,,0,23,0.0,16431,44462931263867,17,34.4417724609375,131.21905096766244,0.0904642422423666,1,79057.5870640129,0.001722967717796564,1.57542003E9,,,,0,,1,,1.57542003E9
Raw,1933791517,1792824000000,,,-1311853870175879120,0.0,10.38163038051607,,,0,24,0.0,16431,44462925779750,42,26.8361759185791,470.64985673933666,0.21332475806818607,4,543027.9299431058,3.4028234663852886E38,1.57542003E9,,,,0,,1,,1.57542003E9
Raw,1933791517,1792824000000,,,-1311853870175879120,0.0,10.38163038051607,,,0,25,0.0,16431,44462923278662,11,38.266090393066406,-697.8499535046735,0.05753059998619123,1,-1045862.866148103,0.0011093310313299298,1.57542003E9,,,,0,,1,,1.57542003E9
Raw,1933791518,1792824000000,,,-1311853870175879120,0.0,10.38163038051607,,,0,31,0.0,16431,44462918437504,63,23.499465942382812,-825.7487341609544,0.315029537591466,4,-2490.479105913803,3.4028234663852886E38,1.57542003E9,,,,0,,1,,1.57542003E9
Raw,1933791518,1792824000000,,,-1311853870175879120,0.0,10.38163038051607,,,0,32,0.0,16431,44462927240686,6,43.92919921875,-394.99733473776314,0.03130242102237139,1,-753087.0880301108,6.092344410717487E-4,1.57542003E9,,,,0,,1,,1.57542003E9
Raw,1933791518,1792824000000,,,-1311853870175879120,0.0,10.38163038051607,,,0,10,0.0,32995,55244930847740,33,42.195919036865234,-760.7425150209547,0.03816990911780607,1,-1500245.9969569403,7.332481909543276E-4,1.59806246E9,,,,0,,3,,1.59806246E9
Raw,1933791518,1792824000000,,,-1311853870175879120,0.0,10.38163038051607,,,0,9,0.0,32995,55244933698338,58,30.177349090576172,-74.01719461392429,0.14696172192566626,4,-401081.09786540054,3.4028234663852886E38,1.59862502E9,,,,0,,3,,1.59862502E9
Raw,1933791518,1792824000000,,,-1311853870175879120,0.0,10.38163038051607,,,0,16,0.0,32995,55244924570203,51,31.312355041503906,552.5032045508442,0.12761956172883293,4,547357.971493131,3.4028234663852886E38,1.60143744E9,,,,0,,3,,1.60143744E9
Raw,1933791518,1792824000000,,,-1311853870175879120,0.0,10.38163038051607,,,0,23,0.0,32961,55244924503445,33,35.373748779296875,19.290704474367203,0.08025039735964173,4,-7021.350287042993,3.4028234663852886E38,1.60368755E9,,,,0,,3,,1.60368755E9
Raw,1933791519,1792824000000,,,-1311853870175879120,0.0,10.38163038051607,,,0,7,0.0,65,932905067,57,30.336633682250977,-163.40557711963606,0.14419328785711372,4,-525109.1416409665,3.4028234663852886E38,1.60481254E9,,,,0,,3,,1.60481254E9
Raw,1933791519,1792824000000,,,-1311853870175879120,0.0,10.38163038051607,,,0,8,0.0,65,927742656,33,36.38362503051758,-560.7012282305584,0.07211350209674905,1,-528775.4721383764,0.0013520861975848675,1.60537498E9,,,,0,,3,,1.60537498E9
Raw,1933791519,1792824000000,,,-1311853870175879120,0.0,10.38163038051607,,,0,193,0.0,35,9455171,50,25.445173263549805,-255.67131989360132,0.250855816667627,4,-442469.75285241683,3.4028234663852886E38,1.57542003E9,,,,0,,4,,1.57542003E9
Raw,1933791519,1792824000000,,,-1311853870175879120,0.0,10.38163038051607,,,0,194,0.0,35,12427217,23,32.15656661987305,-100.49364824743583,0.1172889162010371,4,-79484.19239094162,3.4028234663852886E38,1.57542003E9,,,,0,,4,,1.57542003E9
Raw,1933791519,1792824000000,,,-1311853870175879120,0.0,10.38163038051607,,,0,6,0.0,16431,44448878620021,19,27.869060516357422,-79.88288762886953,0.19183365571884592,4,-118481.11428989944,3.4028234663852886E38,1.56109798E9,,,,0,,5,,1.56109798E9
Raw,1933791519,1792824000000,,,-1311853870175879120,0.0,10.38163038051607,,,0,14,0.0,16431,44448924356539,21,26.944313049316406,138.81843333978173,0.21044224429286407,4,164690.9226062083,3.4028234663852886E38,1.56109798E9,,,,0,,5,,1.56109798E9
Raw,1933791520,1792824000000,,,-1311853870175879120,0.0,10.38163038051607,,,0,16,0.0,16431,44448877977471,11,32.0283317565918,-77.92707438192218,0.11999846317368829,4,-117127.59782172753,3.4028234663852886E38,1.56109798E9,,,,0,,5,,1.56109798E9
Raw,1933791520,1792824000000,,,-1311853870175879120,0.0,10.38163038051607,,,0,24,0.0,16431,44448924152178,24,25.689685821533203,42.406960198680736,0.24298588123203446,4,-75040.53361049548,3.4028234663852886E38,1.56109798E9,,,,0,,5,,1.56109798E9
Raw,1933791520,1792824000000,,,-1311853870175879120,0.0,10.38163038051607,,,0,25,0.0,16431,44448923184332,6,39.49578094482422,-570.4349733187339,0.04999694173728925,1,-780108.8875601606,9.717238717712462E-4,1.56109798E9,,,,0,,5,,1.56109798E9
Raw,1933791520,1792824000000,,,-1311853870175879120,0.0,10.38163038051607,,,0,26,0.0,16431,44448915021426,12,31.721920013427734,438.0658013350951,0.1236593816469585,4,659713.7214977155,3.4028234663852886E38,1.56109798E9,,,,0,,5,,1.56109798E9
Raw,1933791521,1792824000000,,,-1311853870175879120,0.0,10.38163038051607,,,0,27,0.0,16431,44448913093346,7,36.08336639404297,130.91026391156578,0.07556344384024977,1,105977.05557270662,0.0014393405290320516,1.56109798E9,,,,0,,5,,1.56109798E9
Raw,1933791521,1792824000000,,,-1311853870175879120,0.0,10.38163038051607,,,0,33,0.0,16431,44448926059924,15,29.79713249206543,-106.11487632235708,0.15205345454174002,4,-248280.7584041632,3.4028234663852886E38,1.56109798E9,,,,0,,5,,1.56109798E9
Raw,1933792462,1793824000000,,,-1311853870175879507,0.0,10.368879675897825,,,0,10,0.0,16431,44463931745138,11,38.462989807128906,-330.7523813466569,0.05777722350398409,4,-720623.9371600457,3.4028234663852886E38,1.57542003E9,,,,0,,1,,1.57542003E9
Raw,1933792463,1793824000000,,,-1311853870175879507,0.0,10.368879675897825,,,0,12,0.0,16431,44463923895668,33,28.934724807739258,-458.50815201536807,0.16742242907087246,4,-901726.5029516702,3.4028234663852886E38,1.57542003E9,,,,0,,1,,1.57542003E9
Raw,1933792463,1793824000000,,,-1311853870175879507,0.0,10.368879675897825,,,0,15,0.0,16,1793016087736,1000000000,18.71050262451172,415.67522927506525,2.99792458E8,2,524294.6443273445,3.4028234663852886E38,1.57542003E9,,,,0,,1,,1.57542003E9
Raw,1933792464,1793824000000,,,-1311853870175879507,0.0,10.368879675897825,,,0,18,0.0,16431,44463920812702,11,37.923492431640625,565.5318711233624,0.06297533482255196,1,1098879.620136368,0.0011539608240127563,1.57542003E9,,,,0,,1,,1.57542003E9
Raw,1933792464,1793824000000,,,-1311853870175879507,0.0,10.368879675897825,,,0,23,0.0,16431,44463931263412,15,35.9148063659668,131.0684576335164,0.07666884374728816,1,79188.73499414492,0.0014542040880769491,1.57542003E9,,,,0,,1,,1.57542003E9
Raw,1933792464,1793824000000,,,-1311853870175879507,0.0,10.368879675897825,,,0,24,0.0,16431,44463925778184,45,26.394027709960938,470.3409674358704,0.2244104265305441,4,543498.917998226,3.4028234663852886E38,1.57542003E9,,,,0,,1,,1.57542003E9
Raw,1933792465,1793824000000,,,-1311853870175879507,0.0,10.368879675897825,,,0,25,0.0,16431,44463923280991,11,38.13334655761719,-697.6462085795802,0.05840789872607635,1,-1046560.5476668846,0.0011264148633927107,1.57542003E9,,,,0,,1,,1.57542003E9
Raw,1933792465,1793824000000,,,-1311853870175879507,0.0,10.368879675897825,,,0,31,0.0,16431,44463918440314,62,23.610214233398438,-825.8476414497836,0.3110808320475664,4,-3316.2634524923724,3.4028234663852886E38,1.57542003E9,,,,0,,1,,1.57542003E9
Raw,1933792465,1793824000000,,,-1311853870175879507,0.0,10.368879675897825,,,0,32,0.0,16431,44463927242009,6,42.92737579345703,-395.1641342799858,0.03459616052113082,1,-753482.1906033212,6.837159744463861E-4,1.57542003E9,,,,0,,1,,1.57542003E9
Raw,1933792466,1793824000000,,,-1311853870175879507,0.0,10.368879675897825,,,0,10,0.0,32995,55245930850299,33,41.562828063964844,-760.8787766821329,0.040908849712934514,1,-1501006.8074288524,7.886886596679688E-4,1.59806246E9,,,,0,,3,,1.59806246E9
Raw,1933792466,1793824000000,,,-1311853870175879507,0.0,10.368879675897825,,,0,9,0.0,32995,55245933698655,69,28.6889591217041,-74.3569114993154,0.17397050438849293,4,-401155.4723255264,3.4028234663852886E38,1.59862502E9,,,,0,,3,,1.59862502E9
Raw,1933792466,1793824000000,,,-1311853870175879507,0.0,10.368879675897825,,,0,16,0.0,32995,55245924568298,62,29.62905502319336,551.7717950338647,0.15473486851011786,4,547909.7538725053,3.4028234663852886E38,1.60143744E9,,,,0,,3,,1.60143744E9
Raw,1933792466,1793824000000,,,-1311853870175879507,0.0,10.368879675897825,,,0,23,0.0,32961,55245924503347,33,38.528282165527344,18.95305809820985,0.05605776107613464,4,-7002.334108987542,3.4028234663852886E38,1.60368755E9,,,,0,,3,,1.60368755E9
Raw,1933792467,1793824000000,,,-1311853870175879507,0.0,10.368879675897825,,,0,7,0.0,65,1932905616,59,29.9572811126709,-163.37088117889584,0.15052689998273738,4,-525272.5745178701,3.4028234663852886E38,1.60481254E9,,,,0,,3,,1.60481254E9
Raw,1933792467,1793824000000,,,-1311853870175879507,0.0,10.368879675897825,,,0,8,0.0,65,1927744502,33,37.16429901123047,-560.9652309387841,0.0660348427220675,1,-529336.384864417,0.0012358637759462,1.60537498E9,,,,0,,3,,1.60537498E9
Raw,1933792467,1793824000000,,,-1311853870175879507,0.0,10.368879675897825,,,0,193,0.0,35,9455998,55,24.543506622314453,-255.34588355749327,0.27811041551975957,4,-442725.72489529534,3.4028234663852886E38,1.57542003E9,,,,0,,4,,1.57542003E9
Raw,1933792468,1793824000000,,,-1311853870175879507,0.0,10.368879675897825,,,0,194,0.0,35,12427513,22,32.485931396484375,-100.39905238935677,0.11300786510147892,4,-79584.72138688824,3.4028234663852886E38,1.57542003E9,,,,0,,4,,1.57542003E9
Raw,1933792469,1793824000000,,,-1311853870175879507,0.0,10.368879675897825,,,0,6,0.0,16431,44449878620261,15,29.642126083374023,-79.91571755511512,0.15703100760009747,4,-118560.80089770508,3.4028234663852886E38,1.56109798E9,,,,0,,5,,1.56109798E9
Raw,1933792469,1793824000000,,,-1311853870175879507,0.0,10.368879675897825,,,0,14,0.0,16431,44449924356094,24,25.746051788330078,139.029863858821,0.24145564882982307,4,164830.5538518172,3.4028234663852886E38,1.56109798E9,,,,0,,5,,1.56109798E9
Raw,1933792470,1793824000000,,,-1311853870175879507,0.0,10.368879675897825,,,0,16,0.0,16431,44449877977745,10,33.14818572998047,-77.68642667702875,0.10587432207794989,4,-117205.53118022706,3.4028234663852886E38,1.56109798E9,,,,0,,5,,1.56109798E9
Raw,1933792470,1793824000000,,,-1311853870175879507,0.0,10.368879675897825,,,0,24,0.0,16431,44449924152014,27,24.685333251953125,43.06939534427221,0.2726797887900967,4,-74996.85860401523,3.4028234663852886E38,1.56109798E9,,,,0,,5,,1.56109798E9
Raw,1933792470,1793824000000,,,-1311853870175879507,0.0,10.368879675897825,,,0,25,0.0,16431,44449923186231,6,40.87541961669922,-570.6326174841097,0.0427386515975029,4,-780679.5194247933,3.4028234663852886E38,1.56109798E9,,,,0,,5,,1.56109798E9
Raw,1933792470,1793824000000,,,-1311853870175879507,0.0,10.368879675897825,,,0,26,0.0,16431,44449915019972,8,34.55169677734375,437.5805012366668,0.0900277438282373,4,660151.5431036833,3.4028234663852886E38,1.56109798E9,,,,0,,5,,1.56109798E9
Raw,1933792471,1793824000000,,,-1311853870175879507,0.0,10.368879675897825,,,0,27,0.0,16431,44449913092917,6,37.78471755981445,130.59029780972963,0.06254067533002705,1,106107.7025987065,0.0011833031894639134,1.56109798E9,,,,0,,5,,1.56109798E9
Raw,1933792471,1793824000000,,,-1311853870175879507,0.0,10.368879675897825,,,0,33,0.0,16431,44449926060270,17,28.53879165649414,-106.074974286383,0.17558744069621401,4,-248386.9505830789,3.4028234663852886E38,1.56109798E9,,,,0,,5,,1.56109798E9
Fix,gps,34.486330,109.464179,358.753906,0.870744,4.000000,1627820445999
Fix,gps,34.486329,109.464171,358.731445,0.799687,4.000000,1627820446999
Raw,1933793508,1794824000000,,,-1311853870175879895,0.0,10.541498115379415,,,0,10,0.0,16431,44464931746234,10,38.83963394165039,-330.48476589803977,0.05541524103547299,4,-720954.3148113578,3.4028234663852886E38,1.57542003E9,,,,0,,1,,1.57542003E9
Raw,1933793508,1794824000000,,,-1311853870175879895,0.0,10.541498115379415,,,0,12,0.0,16431,44464923897165,37,28.109346389770508,-458.7562382163976,0.18404261917308473,4,-902186.3330229616,3.4028234663852886E38,1.57542003E9,,,,0,,1,,1.57542003E9
Raw,1933793509,1794824000000,,,-1311853870175879895,0.0,10.541498115379415,,,0,15,0.0,16,1794016086288,1000000000,17.508441925048828,415.860876415745,2.99792458E8,2,524294.6440430662,3.4028234663852886E38,1.57542003E9,,,,0,,1,,1.57542003E9
Raw,1933793509,1794824000000,,,-1311853870175879895,0.0,10.541498115379415,,,0,18,0.0,16431,44464920810797,11,38.4930305480957,565.7250164044772,0.05921574281151912,1,1099445.2028177003,0.0010807225480675697,1.57542003E9,,,,0,,1,,1.57542003E9
Raw,1933793509,1794824000000,,,-1311853870175879895,0.0,10.541498115379415,,,0,23,0.0,16431,44464931262970,15,35.87407684326172,131.42308559363624,0.07701957851899055,1,79320.02132584316,0.0014610394136980176,1.57542003E9,,,,0,,1,,1.57542003E9
Raw,1933793510,1794824000000,,,-1311853870175879895,0.0,10.541498115379415,,,0,24,0.0,16431,44464925776625,57,24.347797393798828,470.13991502484237,0.2837473343056025,4,543968.9186915093,3.4028234663852886E38,1.57542003E9,,,,0,,1,,1.57542003E9
Raw,1933793511,1794824000000,,,-1311853870175879895,0.0,10.541498115379415,,,0,25,0.0,16431,44464923283332,11,38.458648681640625,-697.3890905275721,0.056283004009934495,1,-1047258.2248150413,0.0010850090766325593,1.57542003E9,,,,0,,1,,1.57542003E9
Raw,1933793511,1794824000000,,,-1311853870175879895,0.0,10.541498115379415,,,0,31,0.0,16431,44464918443068,42,26.88474464416504,-825.8255560179568,0.21441889146005555,4,-4142.133884363626,3.4028234663852886E38,1.57542003E9,,,,0,,1,,1.57542003E9
Raw,1933793511,1794824000000,,,-1311853870175879895,0.0,10.541498115379415,,,0,32,0.0,16431,44464927243311,6,44.3406867980957,-395.13915183935455,0.031302893234140844,1,-753877.2042353761,5.81045460421592E-4,1.57542003E9,,,,0,,1,,1.57542003E9
Raw,1933793512,1794824000000,,,-1311853870175879895,0.0,10.541498115379415,,,0,10,0.0,32995,55246930852818,33,41.34238815307617,-760.4155279330748,0.04191064178125373,1,-1501767.480875877,8.089612238109112E-4,1.59806246E9,,,,0,,3,,1.59806246E9
Raw,1933793512,1794824000000,,,-1311853870175879895,0.0,10.541498115379415,,,0,9,0.0,32995,55246933698923,55,30.611122131347656,-75.07920395917506,0.1399228126370088,4,-401230.0865125263,3.4028234663852886E38,1.59862502E9,,,,0,,3,,1.59862502E9
Raw,1933793512,1794824000000,,,-1311853870175879895,0.0,10.541498115379415,,,0,16,0.0,32995,55246924566461,76,27.800926208496094,551.7208758438196,0.1907901134733775,4,548461.7731765669,3.4028234663852886E38,1.60143744E9,,,,0,,3,,1.60143744E9
Raw,1933793513,1794824000000,,,-1311853870175879895,0.0,10.541498115379415,,,0,23,0.0,32961,55246924503270,33,40.7243537902832,19.072489416326377,0.04371531451086633,4,-6983.07234004023,3.4028234663852886E38,1.60368755E9,,,,0,,3,,1.60368755E9
Raw,1933793513,1794824000000,,,-1311853870175879895,0.0,10.541498115379415,,,0,7,0.0,65,932906202,65,29.138521194458008,-163.5492857975645,0.1651769976200652,4,-525437.0381629592,3.4028234663852886E38,1.60481254E9,,,,0,,3,,1.60481254E9
Raw,1933793513,1794824000000,,,-1311853870175879895,0.0,10.541498115379415,,,0,8,0.0,65,927746414,33,38.230133056640625,-560.9247068979785,0.05857045606753866,1,-529897.203163968,0.0010931480210274458,1.60537498E9,,,,0,,3,,1.60537498E9
Raw,1933793514,1794824000000,,,-1311853870175879895,0.0,10.541498115379415,,,0,193,0.0,35,9456949,59,24.00656509399414,-255.34574722766718,0.2957368368969695,4,-442981.92061094125,3.4028234663852886E38,1.57542003E9,,,,0,,4,,1.57542003E9
