# 
# Header Description:
# 
# Version: v2.0.0.1 Platform: 10 Manufacturer: HUAWEI Model: BLA-AL00
# 
# Raw,ElapsedRealtimeMillis,TimeNanos,LeapSecond,TimeUncertaintyNanos,FullBiasNanos,BiasNanos,BiasUncertaintyNanos,DriftNanosPerSecond,DriftUncertaintyNanosPerSecond,HardwareClockDiscontinuityCount,Svid,TimeOffsetNanos,State,ReceivedSvTimeNanos,ReceivedSvTimeUncertaintyNanos,Cn0DbHz,PseudorangeRateMetersPerSecond,PseudorangeRateUncertaintyMetersPerSecond,AccumulatedDeltaRangeState,AccumulatedDeltaRangeMeters,AccumulatedDeltaRangeUncertaintyMeters,CarrierFrequencyHz,CarrierCycles,CarrierPhase,CarrierPhaseUncertainty,MultipathIndicator,SnrInDb,ConstellationType,AgcDb,CarrierFrequencyHz
# 
# Fix,Provider,Latitude,Longitude,Altitude,Speed,Accuracy,(UTC)TimeInMs
# 
# Nav,Svid,Type,Status,MessageId,Sub-messageId,Data(Bytes)
# 
Fix,gps,34.486383,109.463921,359.923431,0.895892,3.000000,1627820230999
Raw,1933577558,1578824000000,,,-1311853870175796273,0.0,12.349677342575434,,,0,10,0.0,16431,44248931501375,6,45.20048904418945,-349.47438595148446,0.03206881448350547,1,-647547.2922207738,5.262836930342019E-4,1.57542003E9,,,,0,,1,,1.57542003E9
Raw,1933577558,1578824000000,,,-1311853870175796273,0.0,12.349677342575434,,,0,12,0.0,16431,44248923558891,39,27.631494522094727,-479.0444339458179,0.194350881446963,4,-800772.8824580796,3.4028234663852886E38,1.57542003E9,,,,0,,1,,1.57542003E9
Raw,1933577559,1578824000000,,,-1311853870175796273,0.0,12.349677342575434,,,0,15,0.0,16431,44248916385614,21,32.993980407714844,415.44704722864503,0.1074264551211691,1,754256.2933228195,0.0019190686289221048,1.57542003E9,,,,0,,1,,1.57542003E9
Raw,1933577559,1578824000000,,,-1311853870175796273,0.0,12.349677342575434,,,0,18,0.0,16431,44248921217644,17,34.47438049316406,563.3217260652277,0.08832579276019065,1,854250.683482205,0.0017165116732940078,1.57542003E9,,,,0,,1,,1.57542003E9
Raw,1933577559,1578824000000,,,-1311853870175796273,0.0,12.349677342575434,,,0,23,0.0,16431,44248931349706,22,32.531944274902344,109.7144949680137,0.11222875312599057,1,53320.84356733142,0.00202391529455781,1.57542003E9,,,,0,,1,,1.57542003E9
Raw,1933577560,1578824000000,,,-1311853870175796273,0.0,12.349677342575434,,,0,24,0.0,17,111165,14,36.50689697265625,458.40624547036487,0.0708234361844346,4,525207.4878383989,3.4028234663852886E38,1.57542003E9,,,,0,,1,,1.57542003E9
Raw,1933577560,1578824000000,,,-1311853870175796273,0.0,12.349677342575434,,,0,25,0.0,16431,44248922777123,17,34.4862174987793,-706.6591778772113,0.0884863364408916,4,-895507.8882910942,3.4028234663852886E38,1.57542003E9,,,,0,,1,,1.57542003E9
Raw,1933577560,1578824000000,,,-1311853870175796273,0.0,12.349677342575434,,,0,31,0.0,16,1578017846486,1000000000,24.124122619628906,-831.5361397732668,2.99792458E8,2,-14.117469722172787,3.4028234663852886E38,1.57542003E9,,,,0,,1,,1.57542003E9
Raw,1933577560,1578824000000,,,-1311853870175796273,0.0,12.349677342575434,,,0,32,0.0,16431,44248926957044,15,35.91851806640625,-400.3637197646492,0.07586233932871556,4,-668050.2068264612,3.4028234663852886E38,1.57542003E9,,,,0,,1,,1.57542003E9
Raw,1933577561,1578824000000,,,-1311853870175796273,0.0,12.349677342575434,,,0,10,0.0,32995,55030930296648,33,37.89756393432617,-782.9237185505649,0.06126083165839577,1,-1335030.6516232872,0.0011410119477659464,1.59806246E9,,,,0,,3,,1.59806246E9
Raw,1933577561,1578824000000,,,-1311853870175796273,0.0,12.349677342575434,,,0,9,0.0,32995,55030933631816,34,34.8186149597168,-111.34632890386933,0.08713531152552878,1,-381102.39494091703,0.0016235805815085769,1.59862502E9,,,,0,,3,,1.59862502E9
Raw,1933577562,1578824000000,,,-1311853870175796273,0.0,12.349677342575434,,,0,16,0.0,17,956486,166,15.152606010437012,531.2515659404371,4.2008914916719515,4,526410.8327158805,3.4028234663852886E38,1.60143744E9,,,,1,,3,,1.60143744E9
Raw,1933577563,1578824000000,,,-1311853870175796273,0.0,12.349677342575434,,,0,23,0.0,32961,55030924506283,33,35.41045379638672,-12.107974807855435,0.07991588836680152,4,-7879.622185966432,3.4028234663852886E38,1.60368755E9,,,,0,,3,,1.60368755E9
Raw,1933577563,1578824000000,,,-1311853870175796273,0.0,12.349677342575434,,,0,7,0.0,32995,55030932784233,33,42.547027587890625,-174.78269305520018,0.037083381039721225,1,-330923.0728723112,7.012376445345581E-4,1.60481254E9,,,,0,,3,,1.60481254E9
Raw,1933577563,1578824000000,,,-1311853870175796273,0.0,12.349677342575434,,,0,8,0.0,65,927342343,33,36.850257873535156,-561.7549896213307,0.06834243138728524,4,-543402.0252179556,3.4028234663852886E38,1.60537498E9,,,,0,,3,,1.60537498E9
Raw,1933577564,1578824000000,,,-1311853870175796273,0.0,12.349677342575434,,,0,193,0.0,35,9273026,16,34.99051284790039,-254.3133214546782,0.08469180075891941,1,-387855.3131994718,0.0016174842603504658,1.57542003E9,,,,0,,4,,1.57542003E9
Raw,1933577564,1578824000000,,,-1311853870175796273,0.0,12.349677342575434,,,0,194,0.0,35,12353869,20,33.06562805175781,-104.08018775040182,0.10584296055972858,1,-57502.518599694005,0.0019033033167943358,1.57542003E9,,,,0,,4,,1.57542003E9
Raw,1933577564,1578824000000,,,-1311853870175796273,0.0,12.349677342575434,,,0,6,0.0,16431,44234878563624,6,37.01543426513672,-78.65459849885809,0.06909835714082516,4,-101584.7326749927,3.4028234663852886E38,1.56109798E9,,,,0,,5,,1.56109798E9
Raw,1933577565,1578824000000,,,-1311853870175796273,0.0,12.349677342575434,,,0,14,0.0,16431,44234924451395,15,29.62371253967285,127.36620819065547,0.15480850858341544,4,136254.17820158298,3.4028234663852886E38,1.56109798E9,,,,0,,5,,1.56109798E9
Raw,1933577565,1578824000000,,,-1311853870175796273,0.0,12.349677342575434,,,0,16,0.0,16431,44234877922330,7,36.33281707763672,-77.14886113152272,0.07435948272776394,4,-100591.56097322513,3.4028234663852886E38,1.56109798E9,,,,0,,5,,1.56109798E9
Raw,1933577565,1578824000000,,,-1311853870175796273,0.0,12.349677342575434,,,0,24,0.0,16431,44234924174453,12,31.37261390686035,19.87333980831758,0.1266717432577391,4,-81698.46670835007,3.4028234663852886E38,1.56109798E9,,,,0,,5,,1.56109798E9
Raw,1933577566,1578824000000,,,-1311853870175796273,0.0,12.349677342575434,,,0,25,0.0,16431,44234922771476,6,38.343421936035156,-586.0592916151163,0.05693467289360074,1,-656336.3846394185,0.0011095855152234435,1.56109798E9,,,,0,,5,,1.56109798E9
Raw,1933577566,1578824000000,,,-1311853870175796273,0.0,12.349677342575434,,,0,26,0.0,16431,44234915330291,68,21.222854614257812,428.2960651728315,4.202757506166575,4,567141.5882065067,3.4028234663852886E38,1.56109798E9,,,,0,,5,,1.56109798E9
Raw,1933577566,1578824000000,,,-1311853870175796273,0.0,12.349677342575434,,,0,27,0.0,16431,44234913182176,23,26.202531814575195,116.76046345234386,0.23072157219312783,4,79357.30605261907,3.4028234663852886E38,1.56109798E9,,,,0,,5,,1.56109798E9
Raw,1933577567,1578824000000,,,-1311853870175796273,0.0,12.349677342575434,,,0,33,0.0,16431,44234925980154,6,40.43827819824219,-117.48319046352418,0.04541759425494635,1,-224367.57284344244,8.718020399101079E-4,1.56109798E9,,,,0,,5,,1.56109798E9
Fix,gps,34.486384,109.463927,359.990082,0.624004,3.000000,1627820231999
Raw,1933578514,1579824000000,,,-1311853870175796661,0.0,12.287283746191456,,,0,10,0.0,16431,44249931502539,6,43.413330078125,-349.23816044532487,0.033550983216407815,1,-647896.6026763348,6.465141195803881E-4,1.57542003E9,,,,0,,1,,1.57542003E9
Raw,1933578514,1579824000000,,,-1311853870175796661,0.0,12.287283746191456,,,0,12,0.0,16431,44249923560610,29,30.21409034729004,-478.99951326812084,0.14452822121647801,4,-801252.3118863108,3.4028234663852886E38,1.57542003E9,,,,0,,1,,1.57542003E9
Raw,1933578514,1579824000000,,,-1311853870175796661,0.0,12.287283746191456,,,0,15,0.0,16431,44249916384299,17,34.4533805847168,415.6111883392589,0.091267193631414,1,754671.7972344016,0.001720666536130011,1.57542003E9,,,,0,,1,,1.57542003E9
Raw,1933578514,1579824000000,,,-1311853870175796661,0.0,12.287283746191456,,,0,18,0.0,16431,44249921215763,22,32.51820755004883,563.4116015030784,0.11058028888180343,1,854813.9623983558,0.0020271181128919125,1.57542003E9,,,,0,,1,,1.57542003E9
Raw,1933578515,1579824000000,,,-1311853870175796661,0.0,12.287283746191456,,,0,23,0.0,16431,44249931349367,17,34.81342315673828,109.83420107593594,0.08677539878762897,1,53430.67927093762,0.0016508003463968635,1.57542003E9,,,,0,,1,,1.57542003E9
Raw,1933578515,1579824000000,,,-1311853870175796661,0.0,12.287283746191456,,,0,24,0.0,17,109631,8,40.47052001953125,458.57686224771805,0.04527660471800238,4,525666.0429772586,3.4028234663852886E38,1.57542003E9,,,,0,,1,,1.57542003E9
Raw,1933578516,1579824000000,,,-1311853870175796661,0.0,12.287283746191456,,,0,25,0.0,16431,44249922779491,11,38.602256774902344,-706.6581554035156,0.0552791483553805,4,-896214.5150771559,3.4028234663852886E38,1.57542003E9,,,,0,,1,,1.57542003E9
Raw,1933578516,1579824000000,,,-1311853870175796661,0.0,12.287283746191456,,,0,31,0.0,16,1579017849223,1000000000,20.98208236694336,-831.5361397732668,2.99792458E8,2,-14.110966995750251,3.4028234663852886E38,1.57542003E9,,,,0,,1,,1.57542003E9
Raw,1933578516,1579824000000,,,-1311853870175796661,0.0,12.287283746191456,,,0,32,0.0,16431,44249926958351,19,33.728878021240234,-400.0984900879887,0.0972545476361188,4,-668450.5750367162,3.4028234663852886E38,1.57542003E9,,,,0,,1,,1.57542003E9
Raw,1933578516,1579824000000,,,-1311853870175796661,0.0,12.287283746191456,,,0,10,0.0,32995,55031930299301,33,36.979679107666016,-782.7676208996904,0.06788307126678475,1,-1335813.4751784555,0.0012681899825111032,1.59806246E9,,,,0,,3,,1.59806246E9
Raw,1933578516,1579824000000,,,-1311853870175796661,0.0,12.287283746191456,,,0,9,0.0,32995,55031933632107,33,38.338104248046875,-111.14898295998813,0.05892278845439056,1,-381213.6148313961,0.001082678441889584,1.59862502E9,,,,0,,3,,1.59862502E9
Raw,1933578517,1579824000000,,,-1311853870175796661,0.0,12.287283746191456,,,0,16,0.0,16,4955024,1000000000,15.778850555419922,531.1732785378042,2.99792458E8,6,524715.3695521583,3.4028234663852886E38,1.60143744E9,,,,0,,3,,1.60143744E9
Raw,1933578517,1579824000000,,,-1311853870175796661,0.0,12.287283746191456,,,0,23,0.0,32961,55031924506305,166,31.39352035522461,-11.122698918235471,0.12642872269494487,4,-7891.774948433407,3.4028234663852886E38,1.60368755E9,,,,1,,3,,1.60368755E9
Raw,1933578519,1579824000000,,,-1311853870175796661,0.0,12.287283746191456,,,0,7,0.0,32995,55031932784881,33,42.44765090942383,-174.80707905284225,0.037483741732005166,1,-331097.8625393496,7.093063904903829E-4,1.60481254E9,,,,0,,3,,1.60481254E9
Raw,1933578519,1579824000000,,,-1311853870175796661,0.0,12.287283746191456,,,0,8,0.0,65,1927344182,33,37.1077995300293,-561.6707718712628,0.06638468299570441,4,-543963.7293414416,3.4028234663852886E38,1.60537498E9,,,,0,,3,,1.60537498E9
Raw,1933578519,1579824000000,,,-1311853870175796661,0.0,12.287283746191456,,,0,193,0.0,35,9273893,9,39.65706253051758,-254.2998077606669,0.05018305974175066,1,-388109.6073096014,9.451757068745792E-4,1.57542003E9,,,,0,,4,,1.57542003E9
Raw,1933578519,1579824000000,,,-1311853870175796661,0.0,12.287283746191456,,,0,194,0.0,35,12354254,12,37.28353500366211,-104.17315617118192,0.06598272884872708,1,-57606.723149583355,0.0012421926949173212,1.57542003E9,,,,0,,4,,1.57542003E9
Raw,1933578520,1579824000000,,,-1311853870175796661,0.0,12.287283746191456,,,0,6,0.0,16431,44235878563891,7,35.474422454833984,-78.54268875286544,0.08186408019067815,4,-101663.29459760949,3.4028234663852886E38,1.56109798E9,,,,0,,5,,1.56109798E9
Raw,1933578520,1579824000000,,,-1311853870175796661,0.0,12.287283746191456,,,0,14,0.0,16431,44235924450985,6,37.18633270263672,127.63972842486515,0.06527866318070435,4,136381.75929986988,3.4028234663852886E38,1.56109798E9,,,,0,,5,,1.56109798E9
Raw,1933578520,1579824000000,,,-1311853870175796661,0.0,12.287283746191456,,,0,16,0.0,16431,44235877922581,8,34.62764358520508,-77.02204883141547,0.0897896076409262,1,-100668.61917422367,0.0017019616207107902,1.56109798E9,,,,0,,5,,1.56109798E9
Raw,1933578520,1579824000000,,,-1311853870175796661,0.0,12.287283746191456,,,0,24,0.0,16431,44235924174385,7,35.51698684692383,20.396605633158757,0.07889190026509008,4,-81678.1057818596,3.4028234663852886E38,1.56109798E9,,,,0,,5,,1.56109798E9
Raw,1933578520,1579824000000,,,-1311853870175796661,0.0,12.287283746191456,,,0,25,0.0,16431,44235922773441,6,38.02387237548828,-586.0365926990721,0.0590499236724599,1,-656922.4663985112,0.00115116685628891,1.56109798E9,,,,0,,5,,1.56109798E9
Raw,1933578521,1579824000000,,,-1311853870175796661,0.0,12.287283746191456,,,0,26,0.0,16431,44235915328863,31,23.585979461669922,428.3523693910072,0.3113810505610779,4,567569.5751752402,3.4028234663852886E38,1.56109798E9,,,,0,,5,,1.56109798E9
Raw,1933578521,1579824000000,,,-1311853870175796661,0.0,12.287283746191456,,,0,27,0.0,16431,44235913181773,24,25.766582489013672,117.36516291658569,0.24247504378797968,4,79474.168104839,3.4028234663852886E38,1.56109798E9,,,,0,,5,,1.56109798E9
Raw,1933578521,1579824000000,,,-1311853870175796661,0.0,12.287283746191456,,,0,33,0.0,16431,44235925980550,6,41.24980926513672,-117.34551438040029,0.0414624233622386,1,-224484.9404809797,8.369898423552513E-4,1.56109798E9,,,,0,,5,,1.56109798E9
Fix,gps,34.486385,109.463930,360.036163,0.430767,3.000000,1627820232999
Raw,1933579556,1580824000000,,,-1311853870175797053,0.0,12.091649938927668,,,0,10,0.0,16431,44250931503707,6,44.264041900634766,-349.1509775215395,0.03206923260934538,1,-648245.8126610608,5.861954996362329E-4,1.57542003E9,,,,0,,1,,1.57542003E9
Raw,1933579556,1580824000000,,,-1311853870175797053,0.0,12.091649938927668,,,0,12,0.0,16431,44250923562159,13,36.71335220336914,-478.9259633269446,0.06872720701094925,4,-801731.3079963294,3.4028234663852886E38,1.57542003E9,,,,0,,1,,1.57542003E9
Raw,1933579557,1580824000000,,,-1311853870175797053,0.0,12.091649938927668,,,0,15,0.0,16431,44250916382908,21,32.751346588134766,415.5845699407146,0.1103856461027552,1,755087.3624975809,0.0020931409671902657,1.57542003E9,,,,0,,1,,1.57542003E9
Raw,1933579557,1580824000000,,,-1311853870175797053,0.0,12.091649938927668,,,0,18,0.0,16431,44250921213911,25,31.30887222290039,563.2067318569198,0.12706671199889347,1,855377.2755566098,0.002329946029931307,1.57542003E9,,,,0,,1,,1.57542003E9
Raw,1933579559,1580824000000,,,-1311853870175797053,0.0,12.091649938927668,,,0,23,0.0,16431,44250931348929,26,30.959508895874023,110.03216050403455,0.13409580261111126,1,53540.62375593359,0.0024255712050944567,1.57542003E9,,,,0,,1,,1.57542003E9
Raw,1933579559,1580824000000,,,-1311853870175797053,0.0,12.091649938927668,,,0,24,0.0,5,926108109,10,39.46217727661133,458.6494237976551,0.05071444983903087,4,526124.6596863065,3.4028234663852886E38,1.57542003E9,,,,0,,1,,1.57542003E9
Raw,1933579559,1580824000000,,,-1311853870175797053,0.0,12.091649938927668,,,0,25,0.0,16431,44250922781837,11,38.47661590576172,-706.5292555529463,0.05607770214231064,4,-896921.0711252899,3.4028234663852886E38,1.57542003E9,,,,0,,1,,1.57542003E9
Raw,1933579560,1580824000000,,,-1311853870175797053,0.0,12.091649938927668,,,0,31,0.0,16,1580017851997,1000000000,7.0,-831.5361397732668,2.99792458E8,2,-14.130475174862623,3.4028234663852886E38,1.57542003E9,,,,0,,1,,1.57542003E9
Raw,1933579560,1580824000000,,,-1311853870175797053,0.0,12.091649938927668,,,0,32,0.0,16431,44250926959716,19,33.80732727050781,-400.6059437831568,0.09639161911166699,4,-668851.1708734721,3.4028234663852886E38,1.57542003E9,,,,0,,1,,1.57542003E9
Raw,1933579560,1580824000000,,,-1311853870175797053,0.0,12.091649938927668,,,0,10,0.0,32995,55032930301882,33,36.69715881347656,-782.6501045895998,0.07006656600735578,1,-1336596.2086087766,0.0013101178919896483,1.59806246E9,,,,0,,3,,1.59806246E9
Raw,1933579561,1580824000000,,,-1311853870175797053,0.0,12.091649938927668,,,0,9,0.0,32995,55032933632516,33,40.536293029785156,-110.95839386311258,0.04629651557271769,1,-381324.6432584653,8.406011038459837E-4,1.59862502E9,,,,0,,3,,1.59862502E9
Raw,1933579561,1580824000000,,,-1311853870175797053,0.0,12.091649938927668,,,0,16,0.0,16,4953252,1000000000,10.72732162475586,531.4074590965724,2.99792458E8,4,524290.12293266,3.4028234663852886E38,1.60143744E9,,,,0,,3,,1.60143744E9
Raw,1933579562,1580824000000,,,-1311853870175797053,0.0,12.091649938927668,,,0,23,0.0,32961,55032924506335,46,32.140323638916016,-11.968117447514082,0.11607951321194826,4,-7903.802132894897,3.4028234663852886E38,1.60368755E9,,,,0,,3,,1.60368755E9
Raw,1933579562,1580824000000,,,-1311853870175797053,0.0,12.091649938927668,,,0,7,0.0,32995,55032932785439,33,41.915008544921875,-174.68698951728413,0.039708957526532584,1,-331272.5684194773,7.541645900346339E-4,1.60481254E9,,,,0,,3,,1.60481254E9
Raw,1933579563,1580824000000,,,-1311853870175797053,0.0,12.091649938927668,,,0,8,0.0,65,927346065,33,36.14454650878906,-561.672544159002,0.07401581241055077,1,-544525.433513953,0.0013898188481107354,1.60537498E9,,,,0,,3,,1.60537498E9
Raw,1933579563,1580824000000,,,-1311853870175797053,0.0,12.091649938927668,,,0,193,0.0,35,9274726,8,40.91358947753906,-254.2522968162741,0.04364891363121495,1,-388363.87819449074,8.178735733963549E-4,1.57542003E9,,,,0,,4,,1.57542003E9
Raw,1933579564,1580824000000,,,-1311853870175797053,0.0,12.091649938927668,,,0,194,0.0,35,12354606,10,39.27745819091797,-104.12360880001188,0.05290448481662019,1,-57710.85331838523,9.873993694782257E-4,1.57542003E9,,,,0,,4,,1.57542003E9
Raw,1933579564,1580824000000,,,-1311853870175797053,0.0,12.091649938927668,,,0,6,0.0,16431,44236878564154,8,35.08011245727539,-78.553220231931,0.08551104449412689,1,-101741.84027915914,0.001615571673028171,1.56109798E9,,,,0,,5,,1.56109798E9
Raw,1933579564,1580824000000,,,-1311853870175797053,0.0,12.091649938927668,,,0,14,0.0,16431,44236924450557,6,39.64255142211914,127.69390248950816,0.04939657959847643,4,136509.42003146803,3.4028234663852886E38,1.56109798E9,,,,0,,5,,1.56109798E9
Raw,1933579565,1580824000000,,,-1311853870175797053,0.0,12.091649938927668,,,0,16,0.0,16431,44236877922829,7,35.65772247314453,-77.06540171611249,0.08010900009799815,1,-100745.6769501071,0.0015116308350116014,1.56109798E9,,,,0,,5,,1.56109798E9
Raw,1933579565,1580824000000,,,-1311853870175797053,0.0,12.091649938927668,,,0,24,0.0,16431,44236924174329,6,36.96603775024414,20.50593150291627,0.06688512345991904,4,-81657.66394485722,3.4028234663852886E38,1.56109798E9,,,,0,,5,,1.56109798E9
Raw,1933579565,1580824000000,,,-1311853870175797053,0.0,12.091649938927668,,,0,25,0.0,16431,44236922775384,6,38.927581787109375,-585.9340045049385,0.05326463886097488,1,-657508.457945407,0.0010374156991019845,1.56109798E9,,,,0,,5,,1.56109798E9
Raw,1933579566,1580824000000,,,-1311853870175797053,0.0,12.091649938927668,,,0,26,0.0,16431,44236915327454,26,24.97438621520996,428.06662207551994,0.26578934121757203,4,567997.5863188314,3.4028234663852886E38,1.56109798E9,,,,0,,5,,1.56109798E9
Raw,1933579566,1580824000000,,,-1311853870175797053,0.0,12.091649938927668,,,0,27,0.0,16431,44236913181355,20,27.248701095581055,116.80591240811702,0.20480961909773543,4,79590.97173078322,3.4028234663852886E38,1.56109798E9,,,,0,,5,,1.56109798E9
Raw,1933579566,1580824000000,,,-1311853870175797053,0.0,12.091649938927668,,,0,33,0.0,16431,44236925980945,6,41.34135818481445,-117.25423304121807,0.041039051187163195,1,-224602.22759901555,8.28214455395937E-4,1.56109798E9,,,,0,,5,,1.56109798E9
Fix,gps,34.486385,109.463930,360.039673,0.000000,3.000000,1627820233999
Raw,1933580459,1581824000000,,,-1311853870175797440,0.0,11.896007383597338,,,0,10,0.0,16431,44251931504872,6,44.005470275878906,-349.0535357783408,0.03206944271237937,1,-648594.9378298046,6.039082072675228E-4,1.57542003E9,,,,0,,1,,1.57542003E9
Raw,1933580459,1581824000000,,,-1311853870175797440,0.0,11.896007383597338,,,0,12,0.0,16431,44251923563773,17,34.51154327392578,-478.84740326465953,0.08837165762844107,4,-802210.1918222335,3.4028234663852886E38,1.57542003E9,,,,0,,1,,1.57542003E9
Raw,1933580459,1581824000000,,,-1311853870175797440,0.0,11.896007383597338,,,0,15,0.0,16431,44251916381489,19,33.67728805541992,415.5625185913443,0.09952146368232201,1,755502.9171047861,0.0018814876675605774,1.57542003E9,,,,0,,1,,1.57542003E9
Raw,1933580459,1581824000000,,,-1311853870175797440,0.0,11.896007383597338,,,0,18,0.0,16431,44251921212009,25,31.458026885986328,563.3614321270768,0.1249066780703747,1,855940.600665508,0.002290277509018779,1.57542003E9,,,,0,,1,,1.57542003E9
Raw,1933580459,1581824000000,,,-1311853870175797440,0.0,11.896007383597338,,,0,23,0.0,16431,44251931348573,26,31.147293090820312,110.14940415447302,0.13127144369141375,1,53650.67554642242,0.002373694209381938,1.57542003E9,,,,0,,1,,1.57542003E9
Raw,1933580459,1581824000000,,,-1311853870175797440,0.0,11.896007383597338,,,0,24,0.0,39,1926106595,10,39.13258361816406,458.724711944114,0.0526330608199049,4,526583.3480754575,3.4028234663852886E38,1.57542003E9,,,,0,,1,,1.57542003E9
Raw,1933580459,1581824000000,,,-1311853870175797440,0.0,11.896007383597338,,,0,25,0.0,16431,44251922784216,11,38.556766510009766,-706.4723378505532,0.05556763438263779,1,-897627.593375208,0.0010728213237598538,1.57542003E9,,,,0,,1,,1.57542003E9
Raw,1933580460,1581824000000,,,-1311853870175797440,0.0,11.896007383597338,,,0,31,0.0,16,1581017854770,1000000000,7.0,-831.5361397732668,2.99792458E8,2,-14.123972448422558,3.4028234663852886E38,1.57542003E9,,,,0,,1,,1.57542003E9
Raw,1933580460,1581824000000,,,-1311853870175797440,0.0,11.896007383597338,,,0,32,0.0,16431,44251926961049,20,33.235652923583984,-400.51289867684955,0.10286429864350788,4,-669251.7017684799,3.4028234663852886E38,1.57542003E9,,,,0,,1,,1.57542003E9
Raw,1933580460,1581824000000,,,-1311853870175797440,0.0,11.896007383597338,,,0,10,0.0,32995,55033930304486,33,37.776058197021484,-782.5507201463793,0.062099138603538245,1,-1337378.8233375072,0.0011570854112505913,1.59806246E9,,,,0,,3,,1.59806246E9
Raw,1933580460,1581824000000,,,-1311853870175797440,0.0,11.896007383597338,,,0,9,0.0,32995,55033933632877,33,40.914695739746094,-110.74721044188311,0.04442749722877626,1,-381435.4895572518,8.047663141041994E-4,1.59862502E9,,,,0,,3,,1.59862502E9
Raw,1933580460,1581824000000,,,-1311853870175797440,0.0,11.896007383597338,,,0,16,0.0,17,951378,115,12.260637283325195,531.5017311713145,4.200890692864377,4,524822.0569951636,3.4028234663852886E38,1.60143744E9,,,,0,,3,,1.60143744E9
Raw,1933580460,1581824000000,,,-1311853870175797440,0.0,11.896007383597338,,,0,23,0.0,32961,55033924506396,37,33.933658599853516,-11.807393103166639,0.09457659516723155,4,-7915.69364147003,3.4028234663852886E38,1.60368755E9,,,,0,,3,,1.60368755E9
Raw,1933580461,1581824000000,,,-1311853870175797440,0.0,11.896007383597338,,,0,7,0.0,32995,55033932786027,33,41.82073974609375,-174.62460158061913,0.04011727301091511,1,-331447.2072662164,7.623940473422408E-4,1.60481254E9,,,,0,,3,,1.60481254E9
Raw,1933580461,1581824000000,,,-1311853870175797440,0.0,11.896007383597338,,,0,8,0.0,65,1927347974,33,35.43939208984375,-561.6904374486764,0.08016394308149916,1,-545087.1286644571,0.0015073567628860474,1.60537498E9,,,,0,,3,,1.60537498E9
Raw,1933580461,1581824000000,,,-1311853870175797440,0.0,11.896007383597338,,,0,193,0.0,35,9275574,8,41.09943389892578,-254.24909306536097,0.0427603899807221,1,-388618.1558630619,8.005602867342532E-4,1.57542003E9,,,,0,,4,,1.57542003E9
Raw,1933580461,1581824000000,,,-1311853870175797440,0.0,11.896007383597338,,,0,194,0.0,35,12354944,10,38.96436309814453,-104.08705536539117,0.05476478284453723,1,-57814.95608988052,0.0010236408561468124,1.57542003E9,,,,0,,4,,1.57542003E9
Raw,1933580461,1581824000000,,,-1311853870175797440,0.0,11.896007383597338,,,0,6,0.0,16431,44237878564415,9,34.31153106689453,-78.56205610878453,0.09311353748950957,1,-101820.38065962309,0.0017650433583185077,1.56109798E9,,,,0,,5,,1.56109798E9
Raw,1933580461,1581824000000,,,-1311853870175797440,0.0,11.896007383597338,,,0,14,0.0,16431,44237924450130,6,38.830535888671875,127.75924707927652,0.05415871672038594,4,136637.1375997868,3.4028234663852886E38,1.56109798E9,,,,0,,5,,1.56109798E9
Raw,1933580462,1581824000000,,,-1311853870175797440,0.0,11.896007383597338,,,0,16,0.0,16431,44237877923095,8,34.93730163574219,-77.04052152285084,0.08675794151375571,1,-100822.72122979112,0.0016423541819676757,1.56109798E9,,,,0,,5,,1.56109798E9
Raw,1933580462,1581824000000,,,-1311853870175797440,0.0,11.896007383597338,,,0,24,0.0,16431,44237924174247,6,37.435157775878906,20.64551833375897,0.06340798481477164,4,-81637.09405881964,3.4028234663852886E38,1.56109798E9,,,,0,,5,,1.56109798E9
Raw,1933580462,1581824000000,,,-1311853870175797440,0.0,11.896007383597338,,,0,25,0.0,16431,44237922777341,6,37.553611755371094,-585.842186367066,0.062308014302967896,1,-658094.3674170335,0.001215210068039596,1.56109798E9,,,,0,,5,,1.56109798E9
Raw,1933580463,1581824000000,,,-1311853870175797440,0.0,11.896007383597338,,,0,26,0.0,16431,44237915325975,26,25.05348014831543,428.1579630590011,0.2634047341886885,4,568425.6721890254,3.4028234663852886E38,1.56109798E9,,,,0,,5,,1.56109798E9
Raw,1933580463,1581824000000,,,-1311853870175797440,0.0,11.896007383597338,,,0,27,0.0,16431,44237913180951,27,24.628917694091797,116.86058066837961,0.27607578605956484,4,79707.890757197,3.4028234663852886E38,1.56109798E9,,,,0,,5,,1.56109798E9
Raw,1933580463,1581824000000,,,-1311853870175797440,0.0,11.896007383597338,,,0,33,0.0,16431,44237925981340,6,40.07260513305664,-117.20172049633055,0.04732445610774172,1,-224719.47162342304,9.584742947481573E-4,1.56109798E9,,,,0,,5,,1.56109798E9
Fix,gps,34.486385,109.463930,359.987000,0.000000,3.000000,1627820234999
Raw,1933581517,1582824000000,,,-1311853870175797828,0.0,11.792124888739636,,,0,10,0.0,16431,44252931506040,6,42.61070251464844,-348.8888493484226,0.03659937853763082,1,-648943.9108397916,7.091030129231513E-4,1.57542003E9,,,,0,,1,,1.57542003E9
Raw,1933581518,1582824000000,,,-1311853870175797828,0.0,11.792124888739636,,,0,12,0.0,16431,44252923565336,17,34.62315368652344,-478.8119575098758,0.08725182925958369,4,-802688.9588765606,3.4028234663852886E38,1.57542003E9,,,,0,,1,,1.57542003E9
Raw,1933581518,1582824000000,,,-1311853870175797828,0.0,11.792124888739636,,,0,15,0.0,16431,44252916380114,12,37.31467819213867,415.38191565422994,0.06647868018078984,1,755918.3814961514,0.0012377470266073942,1.57542003E9,,,,0,,1,,1.57542003E9
Raw,1933581518,1582824000000,,,-1311853870175797828,0.0,11.792124888739636,,,0,18,0.0,16431,44252921210113,23,31.960742950439453,563.3507643181852,0.11789457876094489,1,856504.0164113673,0.0021614856086671352,1.57542003E9,,,,0,,1,,1.57542003E9
Raw,1933581518,1582824000000,,,-1311853870175797828,0.0,11.792124888739636,,,0,23,0.0,16431,44252931348236,17,34.539207458496094,110.10330763202592,0.08949290055237874,1,53760.82069381205,0.001703747664578259,1.57542003E9,,,,0,,1,,1.57542003E9
Raw,1933581518,1582824000000,,,-1311853870175797828,0.0,11.792124888739636,,,0,24,0.0,39,2926105075,13,37.03172302246094,458.711283456244,0.06673418627239572,1,527042.0419025265,0.0012787322048097849,1.57542003E9,,,,0,,1,,1.57542003E9
Raw,1933581518,1582824000000,,,-1311853870175797828,0.0,11.792124888739636,,,0,25,0.0,16431,44252922786536,9,40.16651153564453,-706.5769028271652,0.046252468823791054,1,-898334.0512578512,8.913333294913173E-4,1.57542003E9,,,,0,,1,,1.57542003E9
Raw,1933581519,1582824000000,,,-1311853870175797828,0.0,11.792124888739636,,,0,31,0.0,16,1582017857605,1000000000,19.15654754638672,-831.5361397732668,2.99792458E8,2,-14.11746972217901,3.4028234663852886E38,1.57542003E9,,,,0,,1,,1.57542003E9
Raw,1933581519,1582824000000,,,-1311853870175797828,0.0,11.792124888739636,,,0,32,0.0,16431,44252926962384,20,33.338809967041016,-400.27428739873335,0.1016648890700157,4,-669652.1256065578,3.4028234663852886E38,1.57542003E9,,,,0,,1,,1.57542003E9
Raw,1933581519,1582824000000,,,-1311853870175797828,0.0,11.792124888739636,,,0,10,0.0,32995,55034930307090,33,38.008277893066406,-782.5536512376402,0.060510281214160966,1,-1338161.2893098944,0.0011265603825449944,1.59806246E9,,,,0,,3,,1.59806246E9
Raw,1933581519,1582824000000,,,-1311853870175797828,0.0,11.792124888739636,,,0,9,0.0,32995,55034933633279,33,39.68995666503906,-110.65984006458689,0.050783821284350855,1,-381546.1538564119,9.26631095353514E-4,1.59862502E9,,,,0,,3,,1.59862502E9
Raw,1933581519,1582824000000,,,-1311853870175797828,0.0,11.792124888739636,,,0,16,0.0,17,949752,113,12.57777214050293,531.4021422333549,4.200890426595185,4,525353.5843240258,3.4028234663852886E38,1.60143744E9,,,,0,,3,,1.60143744E9
Raw,1933581519,1582824000000,,,-1311853870175797828,0.0,11.792124888739636,,,0,23,0.0,32961,55034924506459,33,35.61115264892578,-10.96654907859945,0.0781090522000073,4,-7927.331089095816,3.4028234663852886E38,1.60368755E9,,,,0,,3,,1.60368755E9
Raw,1933581520,1582824000000,,,-1311853870175797828,0.0,11.792124888739636,,,0,7,0.0,32995,55034932786595,33,40.38277816772461,-174.59435340045513,0.04692615068078032,1,-331621.77888601524,8.996585384011269E-4,1.60481254E9,,,,0,,3,,1.60481254E9
Raw,1933581520,1582824000000,,,-1311853870175797828,0.0,11.792124888739636,,,0,8,0.0,65,927349814,33,35.06195068359375,-561.403565412124,0.08366583228009555,1,-545648.7460968986,0.0015743018593639135,1.60537498E9,,,,0,,3,,1.60537498E9
Raw,1933581520,1582824000000,,,-1311853870175797828,0.0,11.792124888739636,,,0,193,0.0,35,9276429,10,38.8675537109375,-254.3115150844825,0.054799934538282496,1,-388872.4152644041,0.001035113469697535,1.57542003E9,,,,0,,4,,1.57542003E9
Raw,1933581520,1582824000000,,,-1311853870175797828,0.0,11.792124888739636,,,0,194,0.0,35,12355285,13,36.9950065612793,-104.17096637335032,0.06813646384668243,1,-57919.01040612084,0.001284149126149714,1.57542003E9,,,,0,,4,,1.57542003E9
Raw,1933581520,1582824000000,,,-1311853870175797828,0.0,11.792124888739636,,,0,6,0.0,16431,44238878564682,10,32.95005798339844,-78.42852956474229,0.10834808768145304,1,-101898.8403188608,0.0019464925862848759,1.56109798E9,,,,0,,5,,1.56109798E9
Raw,1933581520,1582824000000,,,-1311853870175797828,0.0,11.792124888739636,,,0,14,0.0,16431,44238924449692,6,36.723854064941406,127.6847257880894,0.0688045956552096,1,136764.89061894143,0.0013370239175856113,1.56109798E9,,,,0,,5,,1.56109798E9
Raw,1933581521,1582824000000,,,-1311853870175797828,0.0,11.792124888739636,,,0,16,0.0,16431,44238877923357,10,33.466087341308594,-76.69480612511171,0.1021758679695785,4,-100899.66758763015,3.4028234663852886E38,1.56109798E9,,,,0,,5,,1.56109798E9
Raw,1933581521,1582824000000,,,-1311853870175797828,0.0,11.792124888739636,,,0,24,0.0,16431,44238924174162,6,37.004981994628906,20.540090644966256,0.06658923182077081,4,-81616.3793626117,3.4028234663852886E38,1.56109798E9,,,,0,,5,,1.56109798E9
Raw,1933581521,1582824000000,,,-1311853870175797828,0.0,11.792124888739636,,,0,25,0.0,16431,44238922779280,6,38.843467712402344,-585.7004715128442,0.0537788129908367,1,-658680.114336593,0.0010475108865648508,1.56109798E9,,,,0,,5,,1.56109798E9
Raw,1933581521,1582824000000,,,-1311853870175797828,0.0,11.792124888739636,,,0,26,0.0,16431,44238915324530,25,25.435571670532227,428.1288907235871,0.2521871626255493,4,568853.779356108,3.4028234663852886E38,1.56109798E9,,,,0,,5,,1.56109798E9
Raw,1933581527,1582824000000,,,-1311853870175797828,0.0,11.792124888739636,,,0,27,0.0,16431,44238913180543,25,25.23101234436035,117.81050985535512,0.2577454987162259,4,79825.19786550367,3.4028234663852886E38,1.56109798E9,,,,0,,5,,1.56109798E9
Raw,1933581527,1582824000000,,,-1311853870175797828,0.0,11.792124888739636,,,0,33,0.0,16431,44238925981733,6,37.75379943847656,-116.95892559667618,0.061476160225265225,1,-224836.6287373566,0.0011875227792188525,1.56109798E9,,,,0,,5,,1.56109798E9
Fix,gps,34.486385,109.463930,359.844360,0.000000,3.000000,1627820235999
Raw,1933582488,1583824000000,,,-1311853870175798215,0.0,11.759045268045078,,,0,10,0.0,16431,44253931507215,13,37.115272521972656,-348.4137399044946,0.06707754871585611,4,-649292.5169627407,3.4028234663852886E38,1.57542003E9,,,,0,,1,,1.57542003E9
Raw,1933582488,1583824000000,,,-1311853870175798215,0.0,11.759045268045078,,,0,12,0.0,16431,44253923566941,24,31.667335510253906,-479.6359690612278,0.12236150239805349,4,-803168.1641993945,3.4028234663852886E38,1.57542003E9,,,,0,,1,,1.57542003E9
Raw,1933582489,1583824000000,,,-1311853870175798215,0.0,11.759045268045078,,,0,15,0.0,16431,44253916378723,10,38.91840744018555,414.93874147206384,0.05576729883222106,1,756333.3553736603,0.0010290710488334298,1.57542003E9,,,,0,,1,,1.57542003E9
Raw,1933582489,1583824000000,,,-1311853870175798215,0.0,11.759045268045078,,,0,18,0.0,16431,44253921208260,18,34.04841232299805,563.9347672107035,0.09275270113035144,1,857067.4843775852,0.0018027899786829948,1.57542003E9,,,,0,,1,,1.57542003E9
Raw,1933582489,1583824000000,,,-1311853870175798215,0.0,11.759045268045078,,,0,23,0.0,16431,44253931347861,7,42.402992248535156,110.15547935234821,0.037406606875568044,1,53870.88946721947,7.262645522132516E-4,1.57542003E9,,,,0,,1,,1.57542003E9
Raw,1933582489,1583824000000,,,-1311853870175798215,0.0,11.759045268045078,,,0,24,0.0,39,3926103487,18,34.02587127685547,458.080758010572,0.09387370274783424,1,527500.4815045391,0.0018074744148179889,1.57542003E9,,,,0,,1,,1.57542003E9
Raw,1933582490,1583824000000,,,-1311853870175798215,0.0,11.759045268045078,,,0,25,0.0,16431,44253922788917,8,41.040374755859375,-706.5946938694701,0.04187395487920073,1,-899040.8254488106,8.496222435496747E-4,1.57542003E9,,,,0,,1,,1.57542003E9
Raw,1933582490,1583824000000,,,-1311853870175798215,0.0,11.759045268045078,,,0,31,0.0,16,1583017860342,1000000000,21.476896286010742,-831.3504585501305,2.99792458E8,2,-14.107815202911294,3.4028234663852886E38,1.57542003E9,,,,0,,1,,1.57542003E9
Raw,1933582490,1583824000000,,,-1311853870175798215,0.0,11.759045268045078,,,0,32,0.0,16431,44253926963713,20,33.24259948730469,-399.03235676549866,0.10278355251115989,4,-670051.8679170811,3.4028234663852886E38,1.57542003E9,,,,0,,1,,1.57542003E9
Raw,1933582490,1583824000000,,,-1311853870175798215,0.0,11.759045268045078,,,0,10,0.0,32995,55035930309717,33,35.4185791015625,-781.8726837563145,0.08088583214353356,1,-1338943.721751677,0.0015178867615759373,1.59806246E9,,,,0,,3,,1.59806246E9
Raw,1933582490,1583824000000,,,-1311853870175798215,0.0,11.759045268045078,,,0,9,0.0,32995,55035933633600,33,40.67336654663086,-110.35625058310995,0.045610231694145464,1,-381656.87637197174,8.721980266273022E-4,1.59862502E9,,,,0,,3,,1.59862502E9
Raw,1933582490,1583824000000,,,-1311853870175798215,0.0,11.759045268045078,,,0,16,0.0,16,4947896,1000000000,18.953563690185547,531.9640256115899,2.99792458E8,6,524715.4991400809,3.4028234663852886E38,1.60143744E9,,,,0,,3,,1.60143744E9
Raw,1933582490,1583824000000,,,-1311853870175798215,0.0,11.759045268045078,,,0,23,0.0,32961,55035924506492,33,36.25148391723633,-10.318364660141576,0.07261552769474483,4,-7938.247212745414,3.4028234663852886E38,1.60368755E9,,,,0,,3,,1.60368755E9
Raw,1933582490,1583824000000,,,-1311853870175798215,0.0,11.759045268045078,,,0,7,0.0,32995,55035932787165,33,44.12916564941406,-174.61935288231462,0.03230010047981746,1,-331796.3732785926,5.844645784236491E-4,1.60481254E9,,,,0,,3,,1.60481254E9
Raw,1933582491,1583824000000,,,-1311853870175798215,0.0,11.759045268045078,,,0,8,0.0,65,1927351647,33,38.2379035949707,-561.0588895293088,0.05844831339681153,1,-546209.9173794098,0.001092170481570065,1.60537498E9,,,,0,,3,,1.60537498E9
Raw,1933582491,1583824000000,,,-1311853870175798215,0.0,11.759045268045078,,,0,193,0.0,35,9277290,16,35.00438690185547,-254.52872257990236,0.08456007239729524,1,-389126.83153990284,0.0016149027505889535,1.57542003E9,,,,0,,4,,1.57542003E9
Raw,1933582491,1583824000000,,,-1311853870175798215,0.0,11.759045268045078,,,0,194,0.0,35,12355633,20,33.200801849365234,-104.54213284549786,0.10424318197304022,4,-58023.45180769837,3.4028234663852886E38,1.57542003E9,,,,0,,4,,1.57542003E9
Raw,1933582491,1583824000000,,,-1311853870175798215,0.0,11.759045268045078,,,0,6,0.0,16431,44239878564950,12,31.358074188232422,-78.0829078937586,0.12947119768711124,1,-101977.20132053655,0.0023380396887660027,1.56109798E9,,,,0,,5,,1.56109798E9
Raw,1933582491,1583824000000,,,-1311853870175798215,0.0,11.759045268045078,,,0,14,0.0,16431,44239924449280,9,34.05876159667969,127.88249776267713,0.09322548704274636,4,136892.2925493401,3.4028234663852886E38,1.56109798E9,,,,0,,5,,1.56109798E9
Raw,1933582491,1583824000000,,,-1311853870175798215,0.0,11.759045268045078,,,0,16,0.0,16431,44239877923615,11,31.99657440185547,-76.6216481321855,0.12041647252082693,4,-100976.47674556803,3.4028234663852886E38,1.56109798E9,,,,0,,5,,1.56109798E9
Raw,1933582491,1583824000000,,,-1311853870175798215,0.0,11.759045268045078,,,0,24,0.0,16431,44239924174104,6,42.70037841796875,20.588560158448757,0.03492590163125922,1,-81595.86575476083,7.082585361786187E-4,1.56109798E9,,,,0,,5,,1.56109798E9
Raw,1933582491,1583824000000,,,-1311853870175798215,0.0,11.759045268045078,,,0,25,0.0,16431,44239922781233,7,35.67240524291992,-585.5415109356218,0.07725553462729556,1,-659265.848981767,0.0015090778470039368,1.56109798E9,,,,0,,5,,1.56109798E9
Raw,1933582491,1583824000000,,,-1311853870175798215,0.0,11.759045268045078,,,0,26,0.0,16431,44239915323071,21,26.988981246948242,427.65722360776795,0.21133947161755684,4,569281.5845363275,3.4028234663852886E38,1.56109798E9,,,,0,,5,,1.56109798E9
Raw,1933582492,1583824000000,,,-1311853870175798215,0.0,11.759045268045078,,,0,27,0.0,16431,44239913180215,21,26.77652359008789,118.10865466440254,0.21611887047190204,4,79943.55302893891,3.4028234663852886E38,1.56109798E9,,,,0,,5,,1.56109798E9
Raw,1933582492,1583824000000,,,-1311853870175798215,0.0,11.759045268045078,,,0,33,0.0,16431,44239925982106,6,39.289825439453125,-117.06954020932096,0.051686128525964325,1,-224953.83948623223,9.950402891263366E-4,1.56109798E9,,,,0,,5,,1.56109798E9
Fix,gps,34.486385,109.463930,359.686371,0.000000,3.000000,1627820236999
Raw,1933583501,1584824000000,,,-1311853870175798603,0.0,11.801456689899151,,,0,10,0.0,16431,44254931508350,11,37.9769401550293,-348.76969708041884,0.06093835470465028,4,-649641.2076387731,3.4028234663852886E38,1.57542003E9,,,,0,,1,,1.57542003E9
Raw,1933583501,1584824000000,,,-1311853870175798603,0.0,11.801456689899151,,,0,12,0.0,16431,44254923568524,30,29.681594848632812,-479.3871671286113,0.1536268225529881,4,-803647.6033144747,3.4028234663852886E38,1.57542003E9,,,,0,,1,,1.57542003E9
Raw,1933583501,1584824000000,,,-1311853870175798603,0.0,11.801456689899151,,,0,15,0.0,16431,44254916377348,9,40.18994140625,414.6571862987289,0.04857386188241,1,756747.9455174904,8.889320306479931E-4,1.57542003E9,,,,0,,1,,1.57542003E9
Raw,1933583502,1584824000000,,,-1311853870175798603,0.0,11.801456689899151,,,0,18,0.0,16431,44254921206358,19,33.63418197631836,563.198858809463,0.09727230446283258,1,857631.0047102009,0.0018908483907580376,1.57542003E9,,,,0,,1,,1.57542003E9
Raw,1933583502,1584824000000,,,-1311853870175798603,0.0,11.801456689899151,,,0,23,0.0,16431,44254931347505,7,41.815162658691406,110.04569975988824,0.03988281466681276,1,53980.928324418215,7.771169184707105E-4,1.57542003E9,,,,0,,1,,1.57542003E9
Raw,1933583502,1584824000000,,,-1311853870175798603,0.0,11.801456689899151,,,0,24,0.0,39,4926101981,15,35.607635498046875,458.372094848929,0.07842733541398533,4,527958.8909311997,3.4028234663852886E38,1.57542003E9,,,,0,,1,,1.57542003E9
Raw,1933583502,1584824000000,,,-1311853870175798603,0.0,11.801456689899151,,,0,25,0.0,16431,44254922791271,7,41.496246337890625,-706.8385197634343,0.03975897452998928,1,-899747.7335236213,8.061800617724657E-4,1.57542003E9,,,,0,,1,,1.57542003E9
Raw,1933583502,1584824000000,,,-1311853870175798603,0.0,11.801456689899151,,,0,31,0.0,16,1584017863053,1000000000,25.30612564086914,-831.1648454919073,2.99792458E8,2,-14.124164948946563,3.4028234663852886E38,1.57542003E9,,,,0,,1,,1.57542003E9
Raw,1933583502,1584824000000,,,-1311853870175798603,0.0,11.801456689899151,,,0,32,0.0,16431,44254926965023,17,34.419795989990234,-399.8824073136341,0.08991505371381142,4,-670451.5218800436,3.4028234663852886E38,1.57542003E9,,,,0,,1,,1.57542003E9
Raw,1933583503,1584824000000,,,-1311853870175798603,0.0,11.801456689899151,,,0,10,0.0,32995,55036930312292,33,35.51141357421875,-782.6304049297296,0.0800461106433108,4,-1339726.2206592553,3.4028234663852886E38,1.59806246E9,,,,0,,3,,1.59806246E9
Raw,1933583503,1584824000000,,,-1311853870175798603,0.0,11.801456689899151,,,0,9,0.0,32995,55036933634007,33,40.50893783569336,-110.75740109638343,0.04643508372420069,4,-381767.70342847396,3.4028234663852886E38,1.59862502E9,,,,0,,3,,1.59862502E9
Raw,1933583503,1584824000000,,,-1311853870175798603,0.0,11.801456689899151,,,0,16,0.0,16,4946086,1000000000,20.932296752929688,532.3023621574919,2.99792458E8,4,524290.1265082231,3.4028234663852886E38,1.60143744E9,,,,0,,3,,1.60143744E9
Raw,1933583503,1584824000000,,,-1311853870175798603,0.0,11.801456689899151,,,0,23,0.0,32961,55036924506485,38,33.75241470336914,-10.975973942904773,0.09655376872842969,4,-7948.725337203157,3.4028234663852886E38,1.60368755E9,,,,0,,3,,1.60368755E9
Raw,1933583503,1584824000000,,,-1311853870175798603,0.0,11.801456689899151,,,0,7,0.0,32995,55036932787748,33,43.34480667114258,-174.7883337017547,0.03403151381786733,1,-331971.0794126918,6.396996905095875E-4,1.60481254E9,,,,0,,3,,1.60481254E9
Raw,1933583504,1584824000000,,,-1311853870175798603,0.0,11.801456689899151,,,0,8,0.0,65,927353566,33,35.93603515625,-561.111581007093,0.07578334058793734,1,-546770.8996983948,0.0014235862763598561,1.60537498E9,,,,0,,3,,1.60537498E9
Raw,1933583504,1584824000000,,,-1311853870175798603,0.0,11.801456689899151,,,0,193,0.0,35,9278136,15,35.62771987915039,-255.3881287623533,0.0788200575088357,1,-389381.8006780696,0.0015030718641355634,1.57542003E9,,,,0,,4,,1.57542003E9
Raw,1933583504,1584824000000,,,-1311853870175798603,0.0,11.801456689899151,,,0,194,0.0,35,12356005,22,32.31296157836914,-104.53408086514435,0.11522304171539238,4,-58127.47993064664,3.4028234663852886E38,1.57542003E9,,,,0,,4,,1.57542003E9
Raw,1933583504,1584824000000,,,-1311853870175798603,0.0,11.801456689899151,,,0,6,0.0,16431,44240878565210,13,30.80825424194336,-78.466386653325,0.13771356883352032,4,-102056.06166795753,3.4028234663852886E38,1.56109798E9,,,,0,,5,,1.56109798E9
Raw,1933583505,1584824000000,,,-1311853870175798603,0.0,11.801456689899151,,,0,14,0.0,16431,44240924448851,9,33.61198425292969,126.13844733872014,0.09810389643179979,4,137019.34776799925,3.4028234663852886E38,1.56109798E9,,,,0,,5,,1.56109798E9
Raw,1933583505,1584824000000,,,-1311853870175798603,0.0,11.801456689899151,,,0,16,0.0,16431,44240877923854,12,31.752805709838867,-76.79721538634863,0.12375208493019108,4,-101053.37840679138,3.4028234663852886E38,1.56109798E9,,,,0,,5,,1.56109798E9
Raw,1933583505,1584824000000,,,-1311853870175798603,0.0,11.801456689899151,,,0,24,0.0,16431,44240924174032,6,43.25374221801758,20.48761431268879,0.03281655037917611,1,-81575.46602821768,6.645437097176909E-4,1.56109798E9,,,,0,,5,,1.56109798E9
Raw,1933583507,1584824000000,,,-1311853870175798603,0.0,11.801456689899151,,,0,25,0.0,16431,44240922783205,8,34.94893264770508,-585.7832237172815,0.08392286525909692,1,-659851.5454626397,0.001640156377106905,1.56109798E9,,,,0,,5,,1.56109798E9
Raw,1933583507,1584824000000,,,-1311853870175798603,0.0,11.801456689899151,,,0,26,0.0,16431,44240915321627,25,25.19223403930664,427.401025782086,0.2592732847702396,4,569708.1492745186,3.4028234663852886E38,1.56109798E9,,,,0,,5,,1.56109798E9
Raw,1933583507,1584824000000,,,-1311853870175798603,0.0,11.801456689899151,,,0,27,0.0,16431,44240913179818,23,25.906909942626953,117.71725173369458,0.23862678829660533,4,80061.7303309172,3.4028234663852886E38,1.56109798E9,,,,0,,5,,1.56109798E9
Raw,1933583507,1584824000000,,,-1311853870175798603,0.0,11.801456689899151,,,0,33,0.0,16431,44240925982502,6,39.3881721496582,-117.25904718820192,0.05111638734418372,4,-225071.13735836535,3.4028234663852886E38,1.56109798E9,,,,0,,5,,1.56109798E9
Fix,gps,34.486385,109.463930,359.629456,0.000000,3.000000,1627820237999
Raw,1933584504,1585824000000,,,-1311853870175798992,0.0,12.060357309643148,,,0,10,0.0,16431,44255931509498,9,39.94483184814453,-348.22925156733663,0.04900419034011555,4,-649989.6610446052,3.4028234663852886E38,1.57542003E9,,,,0,,1,,1.57542003E9
Raw,1933584505,1585824000000,,,-1311853870175798992,0.0,12.060357309643148,,,0,12,0.0,16431,44255923570158,21,32.987003326416016,-479.1138939922114,0.10520523752497157,4,-804126.9691185663,3.4028234663852886E38,1.57542003E9,,,,0,,1,,1.57542003E9
Raw,1933584505,1585824000000,,,-1311853870175798992,0.0,12.060357309643148,,,0,15,0.0,16431,44255916375962,6,43.90850067138672,414.3105677158919,0.03294563893139309,1,757162.5163425115,6.106880609877408E-4,1.57542003E9,,,,0,,1,,1.57542003E9
Raw,1933584505,1585824000000,,,-1311853870175798992,0.0,12.060357309643148,,,0,18,0.0,16431,44255921204469,23,32.04607009887695,563.4258820523614,0.11674318085106028,4,858194.5111900028,3.4028234663852886E38,1.57542003E9,,,,0,,1,,1.57542003E9
Raw,1933584505,1585824000000,,,-1311853870175798992,0.0,12.060357309643148,,,0,23,0.0,16431,44255931347145,8,40.93775939941406,109.92376977167788,0.04390503547032637,1,54091.11034904896,8.597191772423685E-4,1.57542003E9,,,,0,,1,,1.57542003E9
Raw,1933584505,1585824000000,,,-1311853870175798992,0.0,12.060357309643148,,,0,24,0.0,39,5926100472,13,37.06938552856445,458.49615499067204,0.06644936560697884,4,528417.4037258616,3.4028234663852886E38,1.57542003E9,,,,0,,1,,1.57542003E9
Raw,1933584506,1585824000000,,,-1311853870175798992,0.0,12.060357309643148,,,0,25,0.0,16431,44255922793628,8,40.73590087890625,-707.172732332097,0.043350771185306614,1,-900454.6046403256,8.799324277788401E-4,1.57542003E9,,,,0,,1,,1.57542003E9
Raw,1933584506,1585824000000,,,-1311853870175798992,0.0,12.060357309643148,,,0,31,0.0,16,1585017865888,1000000000,21.71849822998047,-831.5361397732668,2.99792458E8,2,-14.12397244841939,3.4028234663852886E38,1.57542003E9,,,,0,,1,,1.57542003E9
Raw,1933584506,1585824000000,,,-1311853870175798992,0.0,12.060357309643148,,,0,32,0.0,16431,44255926966350,18,34.210140228271484,-399.59904577010343,0.09208140321471808,4,-670851.1943014374,3.4028234663852886E38,1.57542003E9,,,,0,,1,,1.57542003E9
Raw,1933584506,1585824000000,,,-1311853870175798992,0.0,12.060357309643148,,,0,10,0.0,32995,55037930314924,33,35.9873161315918,-782.3463617370685,0.07587769973270508,4,-1340508.4421056856,3.4028234663852886E38,1.59806246E9,,,,0,,3,,1.59806246E9
Raw,1933584506,1585824000000,,,-1311853870175798992,0.0,12.060357309643148,,,0,9,0.0,32995,55037933634335,33,42.77764129638672,-110.7197058994692,0.0363249132474929,4,-381878.3116671882,3.4028234663852886E38,1.59862502E9,,,,0,,3,,1.59862502E9
Raw,1933584506,1585824000000,,,-1311853870175798992,0.0,12.060357309643148,,,0,16,0.0,17,944171,81,18.69287109375,532.4355223151265,4.200889361518419,4,524822.3676757659,3.4028234663852886E38,1.60143744E9,,,,0,,3,,1.60143744E9
Raw,1933584507,1585824000000,,,-1311853870175798992,0.0,12.060357309643148,,,0,23,0.0,32961,55037924506502,41,33.2380256652832,-10.065841349303476,0.10239502415607699,4,-7958.9060347967425,3.4028234663852886E38,1.60368755E9,,,,0,,3,,1.60368755E9
Raw,1933584507,1585824000000,,,-1311853870175798992,0.0,12.060357309643148,,,0,7,0.0,32995,55037932788333,33,42.80665969848633,-174.62526618852132,0.03605977153951656,4,-332145.6669490547,3.4028234663852886E38,1.60481254E9,,,,0,,3,,1.60481254E9
Raw,1933584507,1585824000000,,,-1311853870175798992,0.0,12.060357309643148,,,0,8,0.0,65,1927355385,33,35.06562042236328,-560.581121653772,0.08363206601823775,1,-547331.7764723913,0.0015736371278762817,1.60537498E9,,,,0,,3,,1.60537498E9
Raw,1933584507,1585824000000,,,-1311853870175798992,0.0,12.060357309643148,,,0,193,0.0,35,9278983,16,35.35783767700195,-254.7914642372367,0.08125503934040212,4,-389636.55861080304,3.4028234663852886E38,1.57542003E9,,,,0,,4,,1.57542003E9
Raw,1933584507,1585824000000,,,-1311853870175798992,0.0,12.060357309643148,,,0,194,0.0,35,12356349,22,32.46126174926758,-104.96409921909265,0.11331014720122518,4,-58232.05517613808,3.4028234663852886E38,1.57542003E9,,,,0,,4,,1.57542003E9
Raw,1933584507,1585824000000,,,-1311853870175798992,0.0,12.060357309643148,,,0,6,0.0,16431,44241878565481,14,30.295948028564453,-78.09036343112297,0.14587759027030567,4,-102134.19231828646,3.4028234663852886E38,1.56109798E9,,,,0,,5,,1.56109798E9
Raw,1933584508,1585824000000,,,-1311853870175798992,0.0,12.060357309643148,,,0,14,0.0,16431,44241924448433,10,33.44468688964844,127.23490552690134,0.09999614676270696,4,137146.65754337085,3.4028234663852886E38,1.56109798E9,,,,0,,5,,1.56109798E9
Raw,1933584508,1585824000000,,,-1311853870175798992,0.0,12.060357309643148,,,0,16,0.0,16431,44241877924105,11,31.917293548583984,-76.80046174033242,0.1214911349780618,4,-101130.07490269077,3.4028234663852886E38,1.56109798E9,,,,0,,5,,1.56109798E9
Raw,1933584508,1585824000000,,,-1311853870175798992,0.0,12.060357309643148,,,0,24,0.0,16431,44241924173966,6,42.42664337158203,20.40754823185611,0.036020043344040936,1,-81554.97049668539,7.309345528483391E-4,1.56109798E9,,,,0,,5,,1.56109798E9
Raw,1933584508,1585824000000,,,-1311853870175798992,0.0,12.060357309643148,,,0,25,0.0,16431,44241922785142,7,36.18800354003906,-585.4108387973133,0.07283259533227182,4,-660436.966562158,3.4028234663852886E38,1.56109798E9,,,,0,,5,,1.56109798E9
Raw,1933584508,1585824000000,,,-1311853870175798992,0.0,12.060357309643148,,,0,26,0.0,16431,44241915320254,22,26.543827056884766,427.7915084864678,0.2223075489481814,4,570135.9173729543,3.4028234663852886E38,1.56109798E9,,,,0,,5,,1.56109798E9
Raw,1933584509,1585824000000,,,-1311853870175798992,0.0,12.060357309643148,,,0,27,0.0,16431,44241913179411,23,26.098548889160156,118.28297790890258,0.2334712176418492,4,80180.84775662419,3.4028234663852886E38,1.56109798E9,,,,0,,5,,1.56109798E9
Raw,1933584509,1585824000000,,,-1311853870175798992,0.0,12.060357309643148,,,0,33,0.0,16431,44241925982905,6,39.30244827270508,-117.11656547870831,0.051612775524138926,4,-225188.26609217082,3.4028234663852886E38,1.56109798E9,,,,0,,5,,1.56109798E9
Fix,gps,34.486385,109.463930,359.724854,0.000000,4.000000,1627820238999
Raw,1933585565,1586824000000,,,-1311853870175799381,0.0,12.521983237497993,,,0,10,0.0,16431,44256931510694,8,40.480751037597656,-348.2281609287279,0.046196119606121994,4,-650338.032188015,3.4028234663852886E38,1.57542003E9,,,,0,,1,,1.57542003E9
Raw,1933585565,1586824000000,,,-1311853870175799381,0.0,12.521983237497993,,,0,12,0.0,16431,44256923571746,21,32.648319244384766,-479.40935480780763,0.10936321401163207,4,-804607.4157151912,3.4028234663852886E38,1.57542003E9,,,,0,,1,,1.57542003E9
Raw,1933585565,1586824000000,,,-1311853870175799381,0.0,12.521983237497993,,,0,15,0.0,16431,44256916374576,6,45.140159606933594,414.4595080508966,0.03294538930402598,1,757577.1199650464,5.299518234096467E-4,1.57542003E9,,,,0,,1,,1.57542003E9
Raw,1933585566,1586824000000,,,-1311853870175799381,0.0,12.521983237497993,,,0,18,0.0,16431,44256921202591,33,28.900646209716797,563.4151801610133,0.16759340717551863,4,858757.989015739,3.4028234663852886E38,1.57542003E9,,,,0,,1,,1.57542003E9
Raw,1933585566,1586824000000,,,-1311853870175799381,0.0,12.521983237497993,,,0,23,0.0,16431,44256931346759,8,40.46350860595703,110.40492033102453,0.046254307745395434,1,54201.40661661044,9.079647716134787E-4,1.57542003E9,,,,0,,1,,1.57542003E9
Raw,1933585566,1586824000000,,,-1311853870175799381,0.0,12.521983237497993,,,0,24,0.0,39,926098889,16,35.28507614135742,458.21633802261977,0.0813524855436098,4,528875.8304139441,3.4028234663852886E38,1.57542003E9,,,,0,,1,,1.57542003E9
Raw,1933585567,1586824000000,,,-1311853870175799381,0.0,12.521983237497993,,,0,25,0.0,16431,44256922796034,10,39.339744567871094,-706.9040262448711,0.050822979497338244,1,-901161.4023437661,0.001033373293466866,1.57542003E9,,,,0,,1,,1.57542003E9
Raw,1933585567,1586824000000,,,-1311853870175799381,0.0,12.521983237497993,,,0,31,0.0,16,1586017868661,1000000000,20.37674331665039,-831.3504585501305,2.99792458E8,2,-14.11431647691369,3.4028234663852886E38,1.57542003E9,,,,0,,1,,1.57542003E9
Raw,1933585567,1586824000000,,,-1311853870175799381,0.0,12.521983237497993,,,0,32,0.0,16431,44256926967683,17,34.864051818847656,-399.1853869952861,0.08549473550614234,4,-671250.822703694,3.4028234663852886E38,1.57542003E9,,,,0,,1,,1.57542003E9
Raw,1933585568,1586824000000,,,-1311853870175799381,0.0,12.521983237497993,,,0,10,0.0,32995,55038930317545,33,36.39278030395508,-781.9788165259265,0.07250218022825222,4,-1341290.5718318985,3.4028234663852886E38,1.59806246E9,,,,0,,3,,1.59806246E9
Raw,1933585568,1586824000000,,,-1311853870175799381,0.0,12.521983237497993,,,0,9,0.0,32995,55038933634725,33,43.330955505371094,-110.34390421323457,0.034234523274169884,4,-381988.7229554511,3.4028234663852886E38,1.59862502E9,,,,0,,3,,1.59862502E9
Raw,1933585568,1586824000000,,,-1311853870175799381,0.0,12.521983237497993,,,0,16,0.0,17,942397,82,18.53387451171875,532.1138520904642,4.200889095249227,4,525354.1465487661,3.4028234663852886E38,1.60143744E9,,,,0,,3,,1.60143744E9
Raw,1933585569,1586824000000,,,-1311853870175799381,0.0,12.521983237497993,,,0,23,0.0,32961,55038924506584,42,32.93391418457031,-10.17402971707454,0.10601474579286174,4,-7968.956177045367,3.4028234663852886E38,1.60368755E9,,,,0,,3,,1.60368755E9
Raw,1933585569,1586824000000,,,-1311853870175799381,0.0,12.521983237497993,,,0,7,0.0,32995,55038932788898,33,41.969093322753906,-174.46732808499462,0.03947735325532753,4,-332320.2081679378,3.4028234663852886E38,1.60481254E9,,,,0,,3,,1.60481254E9
Raw,1933585569,1586824000000,,,-1311853870175799381,0.0,12.521983237497993,,,0,8,0.0,65,927357306,38,33.91952896118164,-560.6800630250577,0.09524208508612347,1,-547892.6841746472,0.0017955978401005268,1.60537498E9,,,,0,,3,,1.60537498E9
Raw,1933585570,1586824000000,,,-1311853870175799381,0.0,12.521983237497993,,,0,193,0.0,35,9279847,19,33.90013885498047,-254.818406419118,0.09579777224713576,4,-389891.31953286333,3.4028234663852886E38,1.57542003E9,,,,0,,4,,1.57542003E9
Raw,1933585570,1586824000000,,,-1311853870175799381,0.0,12.521983237497993,,,0,194,0.0,35,12356688,16,35.218055725097656,-104.6480440791425,0.08309977726243595,4,-58336.65397147025,3.4028234663852886E38,1.57542003E9,,,,0,,4,,1.57542003E9
Raw,1933585570,1586824000000,,,-1311853870175799381,0.0,12.521983237497993,,,0,6,0.0,16431,44242878565740,15,29.470829010009766,-78.34867436910935,0.16008210305734139,4,-102212.448538597,3.4028234663852886E38,1.56109798E9,,,,0,,5,,1.56109798E9
Raw,1933585571,1586824000000,,,-1311853870175799381,0.0,12.521983237497993,,,0,14,0.0,16431,44242924448013,13,31.14348602294922,127.82283642253395,0.1300868536626157,4,137274.0463902866,3.4028234663852886E38,1.56109798E9,,,,0,,5,,1.56109798E9
Raw,1933585571,1586824000000,,,-1311853870175799381,0.0,12.521983237497993,,,0,16,0.0,16431,44242877924371,12,31.535945892333984,-76.65636111415398,0.12679930284233254,4,-101206.74688718756,3.4028234663852886E38,1.56109798E9,,,,0,,5,,1.56109798E9
Raw,1933585571,1586824000000,,,-1311853870175799381,0.0,12.521983237497993,,,0,24,0.0,16431,44242924173898,6,41.39833068847656,20.69181083033108,0.04045275139003093,1,-81534.34324396294,8.227997459471226E-4,1.56109798E9,,,,0,,5,,1.56109798E9
Raw,1933585572,1586824000000,,,-1311853870175799381,0.0,12.521983237497993,,,0,25,0.0,16431,44242922787101,6,37.43798065185547,-585.2640797395261,0.06313811682864467,4,-661022.3316614397,3.4028234663852886E38,1.56109798E9,,,,0,,5,,1.56109798E9
Raw,1933585572,1586824000000,,,-1311853870175799381,0.0,12.521983237497993,,,0,26,0.0,16431,44242915318842,8,34.5616455078125,427.70442781005204,0.08998152116076069,4,570563.6848708808,3.4028234663852886E38,1.56109798E9,,,,0,,5,,1.56109798E9
Raw,1933585572,1586824000000,,,-1311853870175799381,0.0,12.521983237497993,,,0,27,0.0,16431,44242913179015,24,25.866817474365234,118.89624059034577,0.23971960698434136,4,80299.26965417476,3.4028234663852886E38,1.56109798E9,,,,0,,5,,1.56109798E9
Raw,1933585573,1586824000000,,,-1311853870175799381,0.0,12.521983237497993,,,0,33,0.0,16431,44242925983288,6,37.358516693115234,-116.9185804887673,0.06428869096821782,4,-225305.36024061413,3.4028234663852886E38,1.56109798E9,,,,0,,5,,1.56109798E9
Fix,gps,34.486385,109.463930,359.784027,0.000000,4.000000,1627820239999
Raw,1933586557,1587824000000,,,-1311853870175799768,0.0,12.809776335180043,,,0,10,0.0,16431,44257931511831,8,40.758609771728516,-348.30859552612174,0.04480709308457273,4,-650686.351727791,3.4028234663852886E38,1.57542003E9,,,,0,,1,,1.57542003E9
Raw,1933586558,1587824000000,,,-1311853870175799768,0.0,12.809776335180043,,,0,12,0.0,16431,44257923573342,13,36.7587890625,-478.6801947329586,0.06837396764466352,4,-805086.4156676553,3.4028234663852886E38,1.57542003E9,,,,0,,1,,1.57542003E9
Raw,1933586558,1587824000000,,,-1311853870175799768,0.0,12.809776335180043,,,0,15,0.0,16431,44257916373201,7,42.552764892578125,414.69849423603455,0.037705968335119106,1,757991.746344743,7.138486253097653E-4,1.57542003E9,,,,0,,1,,1.57542003E9
Raw,1933586558,1587824000000,,,-1311853870175799768,0.0,12.809776335180043,,,0,18,0.0,16431,44257921200674,39,27.45718765258789,563.5408421782129,0.19785331982576704,4,859321.5711118032,3.4028234663852886E38,1.57542003E9,,,,0,,1,,1.57542003E9
Raw,1933586559,1587824000000,,,-1311853870175799768,0.0,12.809776335180043,,,0,23,0.0,16431,44257931346416,8,40.725685119628906,110.6502969767605,0.04493962857468389,1,54311.76411560889,8.809682913124561E-4,1.57542003E9,,,,0,,1,,1.57542003E9
Raw,1933586559,1587824000000,,,-1311853870175799768,0.0,12.809776335180043,,,0,24,0.0,39,1926097396,14,36.495826721191406,458.6662946136339,0.07090989046257717,4,529334.3186862238,3.4028234663852886E38,1.57542003E9,,,,0,,1,,1.57542003E9
Raw,1933586560,1587824000000,,,-1311853870175799768,0.0,12.809776335180043,,,0,25,0.0,16431,44257922798301,7,42.27033615112305,-706.546637605773,0.036413027547626764,1,-901868.155480986,7.374416454695165E-4,1.57542003E9,,,,0,,1,,1.57542003E9
Raw,1933586560,1587824000000,,,-1311853870175799768,0.0,12.809776335180043,,,0,31,0.0,16,1587017871372,1000000000,26.29976463317871,-830.979164268771,2.99792458E8,2,-14.10151472448551,3.4028234663852886E38,1.57542003E9,,,,0,,1,,1.57542003E9
Raw,1933586560,1587824000000,,,-1311853870175799768,0.0,12.809776335180043,,,0,32,0.0,16431,44257926969062,20,33.11430740356445,-399.81345850408843,0.10429525424181946,4,-671650.2675650741,3.4028234663852886E38,1.57542003E9,,,,0,,1,,1.57542003E9
Raw,1933586560,1587824000000,,,-1311853870175799768,0.0,12.809776335180043,,,0,10,0.0,32995,55039930320139,33,35.9541015625,-782.4484727768108,0.07616224164756202,4,-1342072.6702693366,3.4028234663852886E38,1.59806246E9,,,,0,,3,,1.59806246E9
Raw,1933586561,1587824000000,,,-1311853870175799768,0.0,12.809776335180043,,,0,9,0.0,32995,55039933635087,33,42.916622161865234,-110.07248005010103,0.03578737815652566,4,-382098.9747932557,3.4028234663852886E38,1.59862502E9,,,,0,,3,,1.59862502E9
Raw,1933586561,1587824000000,,,-1311853870175799768,0.0,12.809776335180043,,,0,16,0.0,17,940727,166,22.441482543945312,532.4068930516473,4.200888828980036,4,525886.4618612075,3.4028234663852886E38,1.60143744E9,,,,1,,3,,1.60143744E9
Raw,1933586561,1587824000000,,,-1311853870175799768,0.0,12.809776335180043,,,0,23,0.0,32961,55039924506546,45,32.386512756347656,-10.043172255408741,0.11285828838310635,4,-7978.832022242063,3.4028234663852886E38,1.60368755E9,,,,0,,3,,1.60368755E9
Raw,1933586561,1587824000000,,,-1311853870175799768,0.0,12.809776335180043,,,0,7,0.0,32995,55039932789506,33,41.487152099609375,-174.25294943346614,0.04159855348643615,4,-332494.73410193535,3.4028234663852886E38,1.60481254E9,,,,0,,3,,1.60481254E9
Raw,1933586562,1587824000000,,,-1311853870175799768,0.0,12.809776335180043,,,0,8,0.0,65,1927359131,33,35.61764144897461,-560.876241644803,0.07856444740582685,1,-548453.5558100622,0.0014767381362617016,1.60537498E9,,,,0,,3,,1.60537498E9
Raw,1933586562,1587824000000,,,-1311853870175799768,0.0,12.809776335180043,,,0,193,0.0,35,9280703,15,35.59632873535156,-254.58635601388244,0.07909983154098083,4,-390146.06508130877,3.4028234663852886E38,1.57542003E9,,,,0,,4,,1.57542003E9
