# 
# Header Description:
# 
# Version: v2.0.0.1 Platform: 10 Manufacturer: HUAWEI Model: BLA-AL00
# 
# Raw,ElapsedRealtimeMillis,TimeNanos,LeapSecond,TimeUncertaintyNanos,FullBiasNanos,BiasNanos,BiasUncertaintyNanos,DriftNanosPerSecond,DriftUncertaintyNanosPerSecond,HardwareClockDiscontinuityCount,Svid,TimeOffsetNanos,State,ReceivedSvTimeNanos,ReceivedSvTimeUncertaintyNanos,Cn0DbHz,PseudorangeRateMetersPerSecond,PseudorangeRateUncertaintyMetersPerSecond,AccumulatedDeltaRangeState,AccumulatedDeltaRangeMeters,AccumulatedDeltaRangeUncertaintyMeters,CarrierFrequencyHz,CarrierCycles,CarrierPhase,CarrierPhaseUncertainty,MultipathIndicator,SnrInDb,ConstellationType,AgcDb,CarrierFrequencyHz
# 
# Fix,Provider,Latitude,Longitude,Altitude,Speed,Accuracy,(UTC)TimeInMs
# 
# Nav,Svid,Type,Status,MessageId,Sub-messageId,Data(Bytes)
# 
Raw,2065441119,1695291000000,,,-1311985616708770249,0.0,7.908037424909401,,,0,1,0.0,16431,176111925059140,14,36.52128982543945,503.7846846409868,0.07051877430378856,4,550421.7716293379,3.4028234663852886E38,1.57542003E9,,,,0,,1,,1.57542003E9
Raw,2065441119,1695291000000,,,-1311985616708770249,0.0,7.908037424909401,,,0,2,0.0,16,1695014643614,1000000000,19.05564308166504,-690.4404956215276,2.99792458E8,2,-9.65743512635066,3.4028234663852886E38,1.57542003E9,,,,0,,1,,1.57542003E9
Raw,2065441119,1695291000000,,,-1311985616708770249,0.0,7.908037424909401,,,0,3,0.0,16431,176111926039280,27,30.72272491455078,-163.95839456443605,0.13679017223984213,4,-10607.91811844319,3.4028234663852886E38,1.57542003E9,,,,0,,1,,1.57542003E9
Raw,2065441120,1695291000000,,,-1311985616708770249,0.0,7.908037424909401,,,0,6,0.0,16431,176111924761258,6,44.82809829711914,-635.2984892132727,0.030856432607835785,1,-654676.6146189632,5.493377684615552E-4,1.57542003E9,,,,0,,1,,1.57542003E9
Raw,2065441120,1695291000000,,,-1311985616708770249,0.0,7.908037424909401,,,0,14,0.0,16431,176111932476679,12,37.82146072387695,-57.87458866150658,0.06217577420524115,1,-248274.80399623438,0.0011675963178277016,1.57542003E9,,,,0,,1,,1.57542003E9
Raw,2065441120,1695291000000,,,-1311985616708770249,0.0,7.908037424909401,,,0,17,0.0,16431,176111929548509,18,33.94552993774414,-185.0034082821736,0.0953554824780895,1,-102006.496258723,0.0018242704682052135,1.57542003E9,,,,0,,1,,1.57542003E9
Raw,2065441120,1695291000000,,,-1311985616708770249,0.0,7.908037424909401,,,0,19,0.0,16431,176111927786577,18,34.281070709228516,-434.65128451081387,0.09149026064666388,1,-673239.711459122,0.0017551418859511614,1.57542003E9,,,,0,,1,,1.57542003E9
Raw,2065441121,1695291000000,,,-1311985616708770249,0.0,7.908037424909401,,,0,21,0.0,16431,176111915515410,27,30.568344116210938,473.0365489222595,0.14092821182078275,4,547944.945047326,3.4028234663852886E38,1.57542003E9,,,,0,,1,,1.57542003E9
Raw,2065441122,1695291000000,,,-1311985616708770249,0.0,7.908037424909401,,,0,22,0.0,16431,176111922639318,59,23.951187133789062,164.22171562353128,0.2963911268679904,4,10733.91566313807,3.4028234663852886E38,1.57542003E9,,,,0,,1,,1.57542003E9
Raw,2065441122,1695291000000,,,-1311985616708770249,0.0,7.908037424909401,,,0,24,0.0,16,1695016693797,1000000000,21.454919815063477,-378.7304258060997,2.99792458E8,2,-524294.0556372902,3.4028234663852886E38,1.57542003E9,,,,0,,1,,1.57542003E9
Raw,2065441122,1695291000000,,,-1311985616708770249,0.0,7.908037424909401,,,0,30,0.0,16431,176111921028182,19,33.78079605102539,489.80903701398233,0.09561574397103884,1,157491.80807027855,0.0018591992557048798,1.57542003E9,,,,0,,1,,1.57542003E9
Raw,2065441123,1695291000000,,,-1311985616708770249,0.0,7.908037424909401,,,0,10,0.0,16,1695002034244,1000000000,7.0,-843.6368433020384,2.99792458E8,2,-524289.6752227274,3.4028234663852886E38,1.59806246E9,,,,0,,3,,1.59806246E9
Raw,2065441123,1695291000000,,,-1311985616708770249,0.0,7.908037424909401,,,0,2,0.0,99,1920000035,48,31.88817596435547,9.985185215942245,0.12226168473485827,4,217.49439535889738,3.4028234663852886E38,1.59975002E9,,,,0,,3,,1.59975002E9
Raw,2065441123,1695291000000,,,-1311985616708770249,0.0,7.908037424909401,,,0,18,0.0,32995,14093927864713,44,32.61568069458008,379.7808811985892,0.11054474194472691,4,12143.425430769681,3.4028234663852886E38,1.60031245E9,,,,0,,3,,1.60031245E9
Raw,2065441124,1695291000000,,,-1311985616708770249,0.0,7.908037424909401,,,0,9,0.0,32995,14093933216026,33,44.572669982910156,-356.41970894170277,0.03237724365716682,4,-621972.9524917898,3.4028234663852886E38,1.59862502E9,,,,0,,3,,1.59862502E9
Raw,2065441124,1695291000000,,,-1311985616708770249,0.0,7.908037424909401,,,0,16,0.0,32995,14093932474788,33,36.586631774902344,403.9639178120667,0.07133098686815575,1,18451.206814920697,0.0013240990228950977,1.60143744E9,,,,0,,3,,1.60143744E9
Raw,2065441128,1695291000000,,,-1311985616708770249,0.0,7.908037424909401,,,0,3,0.0,32995,14093922561719,33,35.33008575439453,-490.8015863128396,0.08030143783530358,4,-784831.057170166,3.4028234663852886E38,1.60481254E9,,,,0,,3,,1.60481254E9
Raw,2065441128,1695291000000,,,-1311985616708770249,0.0,7.908037424909401,,,0,193,0.0,1,387243,32,29.147977828979492,-180.44941268896525,0.16472655335702668,1,-33961.661696778225,0.002988068386912346,1.57542003E9,,,,0,,4,,1.57542003E9
Raw,2065441129,1695291000000,,,-1311985616708770249,0.0,7.908037424909401,,,0,194,0.0,35,15820294,8,40.722599029541016,-145.47563176317033,0.04575962951290494,1,-80267.81871607213,8.360568317584693E-4,1.57542003E9,,,,0,,4,,1.57542003E9
Raw,2065441129,1695291000000,,,-1311985616708770249,0.0,7.908037424909401,,,0,195,0.0,35,7925103,61,23.77075958251953,-122.49554397327955,0.30355313573228226,4,-11280.773737568219,3.4028234663852886E38,1.57542003E9,,,,0,,4,,1.57542003E9
Raw,2065441129,1695291000000,,,-1311985616708770249,0.0,7.908037424909401,,,0,7,0.0,16431,176097879760169,12,31.384716033935547,-95.80518884263086,0.1292999117087123,1,-174548.50178654338,0.002330879447981715,1.56109798E9,,,,0,,5,,1.56109798E9
Raw,2065441130,1695291000000,,,-1311985616708770249,0.0,7.908037424909401,,,0,8,0.0,16431,176097878115031,6,38.553016662597656,-200.04791582818996,0.058349057395192305,1,-358668.8562984503,0.001083131181076169,1.56109798E9,,,,0,,5,,1.56109798E9
Raw,2065441130,1695291000000,,,-1311985616708770249,0.0,7.908037424909401,,,0,10,0.0,16431,176097880372408,7,36.48748016357422,-161.05946010120363,0.07354472396425221,4,-250406.3361343774,3.4028234663852886E38,1.56109798E9,,,,0,,5,,1.56109798E9
Raw,2065441130,1695291000000,,,-1311985616708770249,0.0,7.908037424909401,,,0,30,0.0,16431,176097924544938,6,43.179141998291016,-311.9957489660021,0.03315985873670696,4,-170357.23332897492,3.4028234663852886E38,1.56109798E9,,,,0,,5,,1.56109798E9
Raw,2065441130,1695291000000,,,-1311985616708770249,0.0,7.908037424909401,,,0,32,0.0,16431,176097913424749,16,29.185712814331055,-649.985096883343,0.1643878256616823,4,-343692.8538480849,3.4028234663852886E38,1.56109798E9,,,,0,,5,,1.56109798E9
Raw,2065441131,1695291000000,,,-1311985616708770249,0.0,7.908037424909401,,,0,33,0.0,16431,176097910801477,21,26.981094360351562,37.9756486680333,0.21071560290167446,4,4789.216224494397,3.4028234663852886E38,1.56109798E9,,,,0,,5,,1.56109798E9
Raw,2065441131,1695291000000,,,-1311985616708770249,0.0,7.908037424909401,,,0,36,0.0,16431,176097920818588,6,41.42784881591797,-310.90821186081575,0.04331201653656272,4,-213911.10295261437,3.4028234663852886E38,1.56109798E9,,,,0,,5,,1.56109798E9
Fix,gps,34.486378,109.464221,357.098785,0.383136,2.000000,1627952093999
Fix,gps,34.486378,109.464220,357.101654,0.264456,2.000000,1627952094999
Raw,2065442142,1696291000000,,,-1311985616708770636,0.0,8.314981574672734,,,0,1,0.0,16431,176112925057484,14,36.15502166748047,503.84252256970603,0.07351649942994426,4,550925.6094171851,3.4028234663852886E38,1.57542003E9,,,,0,,1,,1.57542003E9
Raw,2065442143,1696291000000,,,-1311985616708770636,0.0,8.314981574672734,,,0,2,0.0,16,1696014645916,1000000000,7.0,-690.2548143983913,2.99792458E8,2,-9.649440221968645,3.4028234663852886E38,1.57542003E9,,,,0,,1,,1.57542003E9
Raw,2065442143,1696291000000,,,-1311985616708770636,0.0,8.314981574672734,,,0,3,0.0,16431,176112926039876,30,29.73642349243164,-163.8919678566731,0.1531086959898137,4,-10771.869827810533,3.4028234663852886E38,1.57542003E9,,,,0,,1,,1.57542003E9
Raw,2065442144,1696291000000,,,-1311985616708770636,0.0,8.314981574672734,,,0,6,0.0,16431,176112924763386,6,45.674781799316406,-635.2414351810535,0.030856815369798687,1,-655311.9034616282,4.983166581951082E-4,1.57542003E9,,,,0,,1,,1.57542003E9
Raw,2065442144,1696291000000,,,-1311985616708770636,0.0,8.314981574672734,,,0,14,0.0,16431,176112932476887,10,39.42465591430664,-57.76925256931577,0.05207482745974809,1,-248332.6290875703,9.708072175271809E-4,1.57542003E9,,,,0,,1,,1.57542003E9
Raw,2065442145,1696291000000,,,-1311985616708770636,0.0,8.314981574672734,,,0,17,0.0,16431,176112929549145,18,34.100990295410156,-184.92766002255166,0.0936945701491958,1,-102191.4401662528,0.0017919099191203713,1.57542003E9,,,,0,,1,,1.57542003E9
Raw,2065442145,1696291000000,,,-1311985616708770636,0.0,8.314981574672734,,,0,19,0.0,16431,176112927788082,166,29.230878829956055,-435.41435662990307,0.16253384320615316,4,-673674.2212717051,3.4028234663852886E38,1.57542003E9,,,,1,,1,,1.57542003E9
Raw,2065442145,1696291000000,,,-1311985616708770636,0.0,8.314981574672734,,,0,21,0.0,16431,176112915513813,22,32.41377258300781,473.0658257524126,0.11448711527441413,4,548418.0038857781,3.4028234663852886E38,1.57542003E9,,,,0,,1,,1.57542003E9
Raw,2065442146,1696291000000,,,-1311985616708770636,0.0,8.314981574672734,,,0,22,0.0,16431,176112922638819,49,25.602092742919922,164.15174434028995,0.24516888919923963,4,10898.07827549547,3.4028234663852886E38,1.57542003E9,,,,0,,1,,1.57542003E9
Raw,2065442146,1696291000000,,,-1311985616708770636,0.0,8.314981574672734,,,0,24,0.0,16,1696016694999,1000000000,13.879007339477539,-378.5447786654199,2.99792458E8,2,-524294.0497087883,3.4028234663852886E38,1.57542003E9,,,,0,,1,,1.57542003E9
Raw,2065442147,1696291000000,,,-1311985616708770636,0.0,8.314981574672734,,,0,30,0.0,16431,176112921026576,22,32.45111846923828,489.6298314575854,0.11140197896520859,1,157981.3700537906,0.002166754798963666,1.57542003E9,,,,0,,1,,1.57542003E9
Raw,2065442147,1696291000000,,,-1311985616708770636,0.0,8.314981574672734,,,0,10,0.0,16,1696002037057,1000000000,7.0,-843.5454341536442,2.99792458E8,2,-524289.7146597434,3.4028234663852886E38,1.59806246E9,,,,0,,3,,1.59806246E9
Raw,2065442147,1696291000000,,,-1311985616708770636,0.0,8.314981574672734,,,0,2,0.0,99,920000020,49,31.587366104125977,10.112577982887146,0.1264432510077107,4,227.543670783701,3.4028234663852886E38,1.59975002E9,,,,0,,3,,1.59975002E9
Raw,2065442148,1696291000000,,,-1311985616708770636,0.0,8.314981574672734,,,0,18,0.0,32995,14094927863267,41,33.22793960571289,379.82723333946024,0.10311686329263797,4,12523.224523276747,3.4028234663852886E38,1.60031245E9,,,,0,,3,,1.60031245E9
Raw,2065442148,1696291000000,,,-1311985616708770636,0.0,8.314981574672734,,,0,9,0.0,32995,14094933217238,33,44.11493682861328,-356.26398619785004,0.03237746208111304,4,-622329.3109571224,3.4028234663852886E38,1.59862502E9,,,,0,,3,,1.59862502E9
Raw,2065442149,1696291000000,,,-1311985616708770636,0.0,8.314981574672734,,,0,16,0.0,32995,14094932473432,35,34.59379959106445,404.0734247448745,0.08914741627629791,1,18855.167870066914,0.0016655671643093228,1.60143744E9,,,,0,,3,,1.60143744E9
Raw,2065442149,1696291000000,,,-1311985616708770636,0.0,8.314981574672734,,,0,3,0.0,32995,14094922563371,33,35.885101318359375,-490.66477933235706,0.0753596230950041,1,-785321.7788516337,0.001432460849173367,1.60481254E9,,,,0,,3,,1.60481254E9
Raw,2065442149,1696291000000,,,-1311985616708770636,0.0,8.314981574672734,,,0,193,0.0,1,387842,32,29.366762161254883,-180.37214776002804,0.1606801935871135,1,-34142.056444702044,0.0029137434903532267,1.57542003E9,,,,0,,4,,1.57542003E9
Raw,2065442150,1696291000000,,,-1311985616708770636,0.0,8.314981574672734,,,0,194,0.0,35,15820768,9,39.563594818115234,-145.49134377562734,0.051885559990004965,1,-80413.32237883913,9.55401745159179E-4,1.57542003E9,,,,0,,4,,1.57542003E9
Raw,2065442150,1696291000000,,,-1311985616708770636,0.0,8.314981574672734,,,0,195,0.0,35,7925531,46,26.0488338470459,-123.27276883243985,0.23385264825879393,4,-11404.092405307803,3.4028234663852886E38,1.57542003E9,,,,0,,4,,1.57542003E9
Raw,2065442151,1696291000000,,,-1311985616708770636,0.0,8.314981574672734,,,0,7,0.0,16431,176098879760509,15,29.612525939941406,-95.79400979689137,0.15776071831963467,1,-174644.30996646808,0.002858441323041916,1.56109798E9,,,,0,,5,,1.56109798E9
Raw,2065442151,1696291000000,,,-1311985616708770636,0.0,8.314981574672734,,,0,8,0.0,16431,176098878115704,6,38.136474609375,-200.04510402552683,0.061055484025754614,1,-358868.94256449124,0.0011363396188244224,1.56109798E9,,,,0,,5,,1.56109798E9
Raw,2065442151,1696291000000,,,-1311985616708770636,0.0,8.314981574672734,,,0,10,0.0,16431,176098880372935,6,37.312957763671875,-161.02991061139835,0.06720946429800562,4,-250567.36704036445,3.4028234663852886E38,1.56109798E9,,,,0,,5,,1.56109798E9
Raw,2065442152,1696291000000,,,-1311985616708770636,0.0,8.314981574672734,,,0,30,0.0,16431,176098924545975,6,43.71102523803711,-311.9705961130883,0.031238967825879982,1,-170669.24918653845,6.304628332145512E-4,1.56109798E9,,,,0,,5,,1.56109798E9
Raw,2065442152,1696291000000,,,-1311985616708770636,0.0,8.314981574672734,,,0,32,0.0,16431,176098913426903,16,29.096803665161133,-649.9438571109504,0.16605468744282548,4,-344342.78013417736,3.4028234663852886E38,1.56109798E9,,,,0,,5,,1.56109798E9
Raw,2065442153,1696291000000,,,-1311985616708770636,0.0,8.314981574672734,,,0,33,0.0,16431,176098910801396,23,26.0019588470459,38.08159824444152,0.23562771518266723,4,4827.256625548227,3.4028234663852886E38,1.56109798E9,,,,0,,5,,1.56109798E9
Raw,2065442153,1696291000000,,,-1311985616708770636,0.0,8.314981574672734,,,0,36,0.0,16431,176098920819630,6,41.64759826660156,-310.88278634824974,0.042323720987891944,1,-214222.0160797977,7.995227351784706E-4,1.56109798E9,,,,0,,5,,1.56109798E9
Fix,gps,34.486378,109.464220,357.113586,0.000000,2.000000,1627952095999
Raw,2065443168,1697291000000,,,-1311985616708771023,0.0,8.113302853431318,,,0,1,0.0,16431,176113925055812,14,36.041709899902344,503.95727820081834,0.07446961832213306,1,551429.4989662563,0.0014331121928989887,1.57542003E9,,,,0,,1,,1.57542003E9
Raw,2065443168,1697291000000,,,-1311985616708771023,0.0,8.113302853431318,,,0,2,0.0,16,1697014648219,1000000000,7.0,-690.2548143983913,2.99792458E8,2,-9.644042334724794,3.4028234663852886E38,1.57542003E9,,,,0,,1,,1.57542003E9
Raw,2065443168,1697291000000,,,-1311985616708771023,0.0,8.113302853431318,,,0,3,0.0,16431,176113926040443,28,30.43280792236328,-163.72182823371122,0.14139631305958822,4,-10935.685158832572,3.4028234663852886E38,1.57542003E9,,,,0,,1,,1.57542003E9
Raw,2065443169,1697291000000,,,-1311985616708771023,0.0,8.113302853431318,,,0,6,0.0,16431,176113924765495,6,45.06731033325195,-635.1214649340932,0.03085719397130547,1,-655947.0693474445,5.344154196791351E-4,1.57542003E9,,,,0,,1,,1.57542003E9
Raw,2065443169,1697291000000,,,-1311985616708771023,0.0,8.113302853431318,,,0,14,0.0,16431,176113932477084,10,39.259605407714844,-57.62268096503942,0.05303079210392195,1,-248390.32170240942,9.894308168441057E-4,1.57542003E9,,,,0,,1,,1.57542003E9
Raw,2065443169,1697291000000,,,-1311985616708771023,0.0,8.113302853431318,,,0,17,0.0,16431,176113929549771,17,34.54902648925781,-184.90501223019226,0.08907060593543803,1,-102376.35553455564,0.001701823086477816,1.57542003E9,,,,0,,1,,1.57542003E9
Raw,2065443170,1697291000000,,,-1311985616708771023,0.0,8.113302853431318,,,0,19,0.0,16431,176113927789545,166,28.221487045288086,-435.0813710296752,0.1823909180940374,4,-674109.0364356395,3.4028234663852886E38,1.57542003E9,,,,1,,1,,1.57542003E9
Raw,2065443170,1697291000000,,,-1311985616708771023,0.0,8.113302853431318,,,0,21,0.0,16431,176113915512204,19,33.49215316772461,473.0234271764982,0.1014456163907459,1,548891.04751384,0.001922020805068314,1.57542003E9,,,,0,,1,,1.57542003E9
Raw,2065443170,1697291000000,,,-1311985616708771023,0.0,8.113302853431318,,,0,22,0.0,16431,176113922638301,46,26.108259201049805,164.31864612988215,0.23131690018003725,1,11062.395680858965,0.004240103531628847,1.57542003E9,,,,0,,1,,1.57542003E9
Raw,2065443171,1697291000000,,,-1311985616708771023,0.0,8.113302853431318,,,0,24,0.0,16,1697016696262,1000000000,21.22106170654297,-378.5447786654199,2.99792458E8,2,-524294.0467485164,3.4028234663852886E38,1.57542003E9,,,,0,,1,,1.57542003E9
Raw,2065443171,1697291000000,,,-1311985616708771023,0.0,8.113302853431318,,,0,30,0.0,16431,176113921024935,20,33.11836242675781,489.73869082371925,0.10317798039301884,1,158471.06546763523,0.0020065391436219215,1.57542003E9,,,,0,,1,,1.57542003E9
Raw,2065443172,1697291000000,,,-1311985616708771023,0.0,8.113302853431318,,,0,10,0.0,16,1697002039871,1000000000,7.0,-843.453956840337,2.99792458E8,2,-524289.7012690116,3.4028234663852886E38,1.59806246E9,,,,0,,3,,1.59806246E9
Raw,2065443172,1697291000000,,,-1311985616708771023,0.0,8.113302853431318,,,0,2,0.0,99,1919999998,53,30.991941452026367,10.35748919007623,0.13515976437520932,4,237.75754558035038,3.4028234663852886E38,1.59975002E9,,,,0,,3,,1.59975002E9
Raw,2065443172,1697291000000,,,-1311985616708771023,0.0,8.113302853431318,,,0,18,0.0,32995,14095927862001,48,31.766990661621094,379.7505137298274,0.12174557183244522,1,12903.039553644472,0.002175862668082118,1.60031245E9,,,,0,,3,,1.60031245E9
Raw,2065443173,1697291000000,,,-1311985616708771023,0.0,8.113302853431318,,,0,9,0.0,32995,14095933218412,33,44.258827209472656,-356.1061162592364,0.03237767218414703,1,-622685.4744973516,5.772208096459508E-4,1.59862502E9,,,,0,,3,,1.59862502E9
Raw,2065443173,1697291000000,,,-1311985616708771023,0.0,8.113302853431318,,,0,16,0.0,32995,14095932472037,35,34.59265899658203,404.252016817054,0.08915857461960774,1,19259.318537770127,0.001665785675868392,1.60143744E9,,,,0,,3,,1.60143744E9
Raw,2065443173,1697291000000,,,-1311985616708771023,0.0,8.113302853431318,,,0,3,0.0,32995,14095922564958,33,35.55223846435547,-490.5830836840719,0.0782859048686928,1,-785812.389386044,0.0014884211122989655,1.60481254E9,,,,0,,3,,1.60481254E9
Raw,2065443174,1697291000000,,,-1311985616708771023,0.0,8.113302853431318,,,0,193,0.0,1,388416,32,29.133752822875977,-180.31337256375446,0.16499337172881878,1,-34322.40648139391,0.002992965979501605,1.57542003E9,,,,0,,4,,1.57542003E9
Raw,2065443174,1697291000000,,,-1311985616708771023,0.0,8.113302853431318,,,0,194,0.0,35,15821256,10,39.212120056152344,-145.41482866073363,0.0539107493752668,1,-80558.75939075428,9.94854955933988E-4,1.57542003E9,,,,0,,4,,1.57542003E9
Raw,2065443174,1697291000000,,,-1311985616708771023,0.0,8.113302853431318,,,0,195,0.0,35,7925968,40,27.370813369750977,-123.33171444099605,0.20103816562630872,4,-11527.403333892375,3.4028234663852886E38,1.57542003E9,,,,0,,4,,1.57542003E9
Raw,2065443174,1697291000000,,,-1311985616708771023,0.0,8.113302853431318,,,0,7,0.0,16431,176099879760799,17,28.756128311157227,-95.65036076326186,0.17373973220851158,1,-174740.05400926303,0.003154636127874255,1.56109798E9,,,,0,,5,,1.56109798E9
Raw,2065443175,1697291000000,,,-1311985616708771023,0.0,8.113302853431318,,,0,8,0.0,16431,176099878116360,6,38.27674865722656,-200.02743227181975,0.060129707651176645,1,-359068.9552691494,0.001118135522119701,1.56109798E9,,,,0,,5,,1.56109798E9
Raw,2065443175,1697291000000,,,-1311985616708771023,0.0,8.113302853431318,,,0,10,0.0,16431,176099880373481,6,37.80741500854492,-160.995010175919,0.0636932048839759,4,-250728.34719339898,3.4028234663852886E38,1.56109798E9,,,,0,,5,,1.56109798E9
Raw,2065443175,1697291000000,,,-1311985616708771023,0.0,8.113302853431318,,,0,30,0.0,16431,176099924547005,6,43.69886016845703,-311.94138744784823,0.031281789320479716,1,-170981.18715735222,6.313463672995567E-4,1.56109798E9,,,,0,,5,,1.56109798E9
Raw,2065443176,1697291000000,,,-1311985616708771023,0.0,8.113302853431318,,,0,32,0.0,16431,176099913429084,16,29.305944442749023,-649.8227962253814,0.162161981638281,4,-344992.65796269255,3.4028234663852886E38,1.56109798E9,,,,0,,5,,1.56109798E9
Raw,2065443176,1697291000000,,,-1311985616708771023,0.0,8.113302853431318,,,0,33,0.0,16431,176099910801298,23,25.90335464477539,38.2971570010271,0.2382956492732211,4,4865.4134628067695,3.4028234663852886E38,1.56109798E9,,,,0,,5,,1.56109798E9
Raw,2065443176,1697291000000,,,-1311985616708771023,0.0,8.113302853431318,,,0,36,0.0,16431,176099920820664,6,41.78614044189453,-310.7540909924196,0.041713444482148726,1,-214532.78896779742,7.868710672482848E-4,1.56109798E9,,,,0,,5,,1.56109798E9
Fix,gps,34.486378,109.464220,357.158264,0.000000,3.000000,1627952096999
Raw,2065444151,1698291000000,,,-1311985616708771408,0.0,8.05437190083876,,,0,1,0.0,16431,176114925054108,14,36.25048828125,503.96402652720985,0.07272226003600901,1,551933.452334544,0.0013990759616717696,1.57542003E9,,,,0,,1,,1.57542003E9
Raw,2065444151,1698291000000,,,-1311985616708771408,0.0,8.05437190083876,,,0,2,0.0,16,1698014650460,1000000000,19.941425323486328,-690.2548143983913,2.99792458E8,2,-9.660235996280313,3.4028234663852886E38,1.57542003E9,,,,0,,1,,1.57542003E9
Raw,2065444152,1698291000000,,,-1311985616708771408,0.0,8.05437190083876,,,0,3,0.0,16431,176114926041016,31,29.401161193847656,-163.5811188119568,0.15909143188822694,1,-11099.331839447017,0.0029022269882261753,1.57542003E9,,,,0,,1,,1.57542003E9
Raw,2065444152,1698291000000,,,-1311985616708771408,0.0,8.05437190083876,,,0,6,0.0,16431,176114924767625,6,45.120689392089844,-635.0678873124393,0.030857578813496434,1,-656582.1774818625,5.311413551680744E-4,1.57542003E9,,,,0,,1,,1.57542003E9
Raw,2065444152,1698291000000,,,-1311985616708771408,0.0,8.05437190083876,,,0,14,0.0,16431,176114932477266,9,39.743492126464844,-57.56305796765983,0.05027890832980883,1,-248447.8935208049,9.358173701912165E-4,1.57542003E9,,,,0,,1,,1.57542003E9
Raw,2065444153,1698291000000,,,-1311985616708771408,0.0,8.05437190083876,,,0,17,0.0,16431,176114929550389,16,35.12413787841797,-184.8835743650394,0.08347423495492606,1,-102561.21696510265,0.001592791173607111,1.57542003E9,,,,0,,1,,1.57542003E9
Raw,2065444153,1698291000000,,,-1311985616708771408,0.0,8.05437190083876,,,0,19,0.0,16431,176114927790847,50,25.46761703491211,-434.49031306865663,0.24991345671496068,4,-674543.8077330266,3.4028234663852886E38,1.57542003E9,,,,0,,1,,1.57542003E9
Raw,2065444154,1698291000000,,,-1311985616708771408,0.0,8.05437190083876,,,0,21,0.0,16431,176114915510619,18,34.19805908203125,473.0585321067167,0.093744745249985,1,549364.1287437207,0.0017719959141686559,1.57542003E9,,,,0,,1,,1.57542003E9
Raw,2065444154,1698291000000,,,-1311985616708771408,0.0,8.05437190083876,,,0,22,0.0,16431,176114922637698,38,27.82285499572754,164.40848748527628,0.18996416308290698,1,11226.85086808037,0.003480540821328759,1.57542003E9,,,,0,,1,,1.57542003E9
Raw,2065444154,1698291000000,,,-1311985616708771408,0.0,8.05437190083876,,,0,24,0.0,16,1698016697585,1000000000,18.598541259765625,-378.3591315247402,2.99792458E8,2,-524294.0526596503,3.4028234663852886E38,1.57542003E9,,,,0,,1,,1.57542003E9
Raw,2065444155,1698291000000,,,-1311985616708771408,0.0,8.05437190083876,,,0,30,0.0,16431,176114921023326,20,33.360694885253906,489.6262527996505,0.10034389432691626,1,158960.7159820816,0.001951330923475325,1.57542003E9,,,,0,,1,,1.57542003E9
Raw,2065444155,1698291000000,,,-1311985616708771408,0.0,8.05437190083876,,,0,10,0.0,16,1698002042684,1000000000,7.0,-843.3625476919428,2.99792458E8,2,-524289.6878813893,3.4028234663852886E38,1.59806246E9,,,,0,,3,,1.59806246E9
Raw,2065444156,1698291000000,,,-1311985616708771408,0.0,8.05437190083876,,,0,2,0.0,99,920000021,58,30.145414352416992,10.491310760382746,0.14862746870456967,1,248.15592204797815,0.0026233908720314503,1.59975002E9,,,,0,,3,,1.59975002E9
Raw,2065444156,1698291000000,,,-1311985616708771408,0.0,8.05437190083876,,,0,18,0.0,32995,14096927860910,55,30.646053314208984,379.9117919140933,0.13832103703138354,1,13282.921760055651,0.0024755883496254683,1.60031245E9,,,,0,,3,,1.60031245E9
Raw,2065444156,1698291000000,,,-1311985616708771408,0.0,8.05437190083876,,,0,9,0.0,32995,14096933219576,33,44.32282638549805,-355.9057454973388,0.03237788228718101,1,-623041.4489814966,5.729835829697549E-4,1.59862502E9,,,,0,,3,,1.59862502E9
Raw,2065444157,1698291000000,,,-1311985616708771408,0.0,8.05437190083876,,,0,16,0.0,32995,14096932470677,44,32.613136291503906,404.3567181234921,0.11140519083733208,1,19663.582941049026,0.0020921616815030575,1.60143744E9,,,,0,,3,,1.60143744E9
Raw,2065444157,1698291000000,,,-1311985616708771408,0.0,8.05437190083876,,,0,3,0.0,32995,14096922566630,33,35.95698165893555,-490.4247025086104,0.0747429436472945,1,-786302.8552467779,0.0014206552878022194,1.60481254E9,,,,0,,3,,1.60481254E9
Raw,2065444158,1698291000000,,,-1311985616708771408,0.0,8.05437190083876,,,0,193,0.0,1,389011,40,27.291898727416992,-180.32366546562434,0.20348293285066588,1,-34502.74322177598,0.003699938766658306,1.57542003E9,,,,0,,4,,1.57542003E9
Raw,2065444158,1698291000000,,,-1311985616708771408,0.0,8.05437190083876,,,0,194,0.0,35,15821729,11,38.45470428466797,-145.4004969877658,0.058563649561328784,1,-80704.16521010522,0.0010855017462745309,1.57542003E9,,,,0,,4,,1.57542003E9
Raw,2065444158,1698291000000,,,-1311985616708771408,0.0,8.05437190083876,,,0,195,0.0,35,7926347,35,28.572772979736328,-123.35552103687724,0.17524174007641502,4,-11650.714282124862,3.4028234663852886E38,1.57542003E9,,,,0,,4,,1.57542003E9
Raw,2065444159,1698291000000,,,-1311985616708771408,0.0,8.05437190083876,,,0,7,0.0,16431,176100879761146,20,27.362180709838867,-95.72952578915022,0.2033655247790016,1,-174835.77951722714,0.003703792579472065,1.56109798E9,,,,0,,5,,1.56109798E9
Raw,2065444159,1698291000000,,,-1311985616708771408,0.0,8.05437190083876,,,0,8,0.0,16431,176100878117033,6,37.81305694580078,-199.98591983977497,0.06324834811350452,1,-359268.9286102628,0.0011794485617429018,1.56109798E9,,,,0,,5,,1.56109798E9
Raw,2065444159,1698291000000,,,-1311985616708771408,0.0,8.05437190083876,,,0,10,0.0,16431,176100880374014,6,38.539283752441406,-160.9513846315698,0.05884257069996962,1,-250889.30199578503,0.0010848450474441051,1.56109798E9,,,,0,,5,,1.56109798E9
Raw,2065444160,1698291000000,,,-1311985616708771408,0.0,8.05437190083876,,,0,30,0.0,16431,176100924548049,6,44.175323486328125,-311.86265697328054,0.030818085683791505,1,-171293.08614391685,5.976465181447566E-4,1.56109798E9,,,,0,,5,,1.56109798E9
Raw,2065444160,1698291000000,,,-1311985616708771408,0.0,8.05437190083876,,,0,32,0.0,16431,176100913431228,15,29.802661895751953,-649.9165229808191,0.15328331865401967,1,-345642.54874955723,0.0027965500485152006,1.56109798E9,,,,0,,5,,1.56109798E9
Raw,2065444160,1698291000000,,,-1311985616708771408,0.0,8.05437190083876,,,0,33,0.0,16431,176100910801163,24,25.668621063232422,38.29559346833412,0.24477010115936848,4,4903.677911116175,3.4028234663852886E38,1.56109798E9,,,,0,,5,,1.56109798E9
Raw,2065444160,1698291000000,,,-1311985616708771408,0.0,8.05437190083876,,,0,36,0.0,16431,176100920821708,6,42.039031982421875,-310.57962289747934,0.04062412473800836,1,-214843.43389072927,7.64291500672698E-4,1.56109798E9,,,,0,,5,,1.56109798E9
Fix,gps,34.486378,109.464220,357.187164,0.000000,3.000000,1627952097999
Raw,2065445152,1699291000000,,,-1311985616708771794,0.0,8.040750365960616,,,0,1,0.0,16431,176115925052409,13,36.75764083862305,503.990372266102,0.06864897379409685,1,552437.4951815419,0.001319725764915347,1.57542003E9,,,,0,,1,,1.57542003E9
Raw,2065445152,1699291000000,,,-1311985616708771794,0.0,8.040750365960616,,,0,2,0.0,16,1699014652823,1000000000,7.0,-690.2548143983913,2.99792458E8,2,-9.654838109200883,3.4028234663852886E38,1.57542003E9,,,,0,,1,,1.57542003E9
Raw,2065445153,1699291000000,,,-1311985616708771794,0.0,8.040750365960616,,,0,3,0.0,16431,176115926041469,25,31.32246208190918,-163.38879150979858,0.12773673681495457,1,-11262.809526170971,0.002326303394511342,1.57542003E9,,,,0,,1,,1.57542003E9
Raw,2065445154,1699291000000,,,-1311985616708771794,0.0,8.040750365960616,,,0,6,0.0,16431,176115924769733,6,44.920536041259766,-634.9052458299125,0.030857957415003218,1,-657217.1740818846,5.435227649286389E-4,1.57542003E9,,,,0,,1,,1.57542003E9
Raw,2065445154,1699291000000,,,-1311985616708771794,0.0,8.040750365960616,,,0,14,0.0,16431,176115932477481,11,37.9244384765625,-57.33114389225037,0.0614695908650541,1,-248505.29705762537,0.001153835328295827,1.57542003E9,,,,0,,1,,1.57542003E9
Raw,2065445155,1699291000000,,,-1311985616708771794,0.0,8.040750365960616,,,0,17,0.0,16431,176115929550969,19,33.5971794128418,-184.78234946916666,0.09918761204154852,1,-102745.98992700827,0.0018989206291735172,1.57542003E9,,,,0,,1,,1.57542003E9
Raw,2065445155,1699291000000,,,-1311985616708771794,0.0,8.040750365960616,,,0,19,0.0,16431,176115927792468,28,30.2971248626709,-434.6904793358151,0.1439204617866865,4,-674978.4708436189,3.4028234663852886E38,1.57542003E9,,,,0,,1,,1.57542003E9
Raw,2065445156,1699291000000,,,-1311985616708771794,0.0,8.040750365960616,,,0,21,0.0,16431,176115915509075,23,32.1849479675293,473.13538804617565,0.11746794062781646,1,549837.253395732,0.0022341806907206774,1.57542003E9,,,,0,,1,,1.57542003E9
Raw,2065445157,1699291000000,,,-1311985616708771794,0.0,8.040750365960616,,,0,22,0.0,16431,176115922637175,56,24.482465744018555,163.91839880170653,0.27883326980761347,4,11391.49316848263,3.4028234663852886E38,1.57542003E9,,,,0,,1,,1.57542003E9
Raw,2065445157,1699291000000,,,-1311985616708771794,0.0,8.040750365960616,,,0,24,0.0,16,1699016698786,1000000000,21.752918243408203,-378.3591315247402,2.99792458E8,2,-524294.0497008301,3.4028234663852886E38,1.57542003E9,,,,0,,1,,1.57542003E9
Raw,2065445158,1699291000000,,,-1311985616708771794,0.0,8.040750365960616,,,0,30,0.0,16431,176115921021643,21,32.77153778076172,489.7578792467416,0.10737305982734419,1,159450.44651713502,0.002088280627503991,1.57542003E9,,,,0,,1,,1.57542003E9
Raw,2065445158,1699291000000,,,-1311985616708771794,0.0,8.040750365960616,,,0,10,0.0,16,1699002045497,1000000000,24.303163528442383,-843.3625476919428,2.99792458E8,2,-524289.6746780615,3.4028234663852886E38,1.59806246E9,,,,0,,3,,1.59806246E9
Raw,2065445159,1699291000000,,,-1311985616708771794,0.0,8.040750365960616,,,0,2,0.0,99,1919999855,45,32.402442932128906,10.671781627978092,0.11543980980007884,1,258.7576916273722,0.00202307291328907,1.59975002E9,,,,0,,3,,1.59975002E9
Raw,2065445160,1699291000000,,,-1311985616708771794,0.0,8.040750365960616,,,0,18,0.0,32995,14097927859485,46,32.21166229248047,379.90419152628874,0.11573979532804768,1,13662.840643216201,0.0020672737155109644,1.60031245E9,,,,0,,3,,1.60031245E9
Raw,2065445160,1699291000000,,,-1311985616708771794,0.0,8.040750365960616,,,0,9,0.0,32995,14097933220772,33,44.43383026123047,-355.6837664580057,0.032378098630899174,1,-623397.2219107592,5.657073343172669E-4,1.59862502E9,,,,0,,3,,1.59862502E9
Raw,2065445161,1699291000000,,,-1311985616708771794,0.0,8.040750365960616,,,0,16,0.0,32995,14097932469399,33,36.41618347167969,404.5388206886935,0.07269913622090235,1,20068.034864905803,0.0013503395020961761,1.60143744E9,,,,0,,3,,1.60143744E9
Raw,2065445161,1699291000000,,,-1311985616708771794,0.0,8.040750365960616,,,0,3,0.0,32995,14097922568224,33,35.25602722167969,-490.30047195458474,0.08098627387514656,1,-786793.1560693011,0.0015400552656501532,1.60481254E9,,,,0,,3,,1.60481254E9
Raw,2065445162,1699291000000,,,-1311985616708771794,0.0,8.040750365960616,,,0,193,0.0,1,389592,32,29.27928352355957,-180.24415109455663,0.1622862294998041,1,-34683.044646065864,0.002943237079307437,1.57542003E9,,,,0,,4,,1.57542003E9
Raw,2065445162,1699291000000,,,-1311985616708771794,0.0,8.040750365960616,,,0,194,0.0,35,15822234,9,39.712928771972656,-145.29899943224086,0.05104990325540998,1,-80849.50423524417,9.391160565428436E-4,1.57542003E9,,,,0,,4,,1.57542003E9
Raw,2065445163,1699291000000,,,-1311985616708771794,0.0,8.040750365960616,,,0,195,0.0,35,7926759,45,26.354145050048828,-123.32735188656113,0.22582496496901205,4,-11773.97514961486,3.4028234663852886E38,1.57542003E9,,,,0,,4,,1.57542003E9
Raw,2065445164,1699291000000,,,-1311985616708771794,0.0,8.040750365960616,,,0,7,0.0,16431,176101879761447,14,30.317222595214844,-95.60602800793981,0.1457440396289016,1,-174931.4211170196,0.002635690849274397,1.56109798E9,,,,0,,5,,1.56109798E9
Raw,2065445164,1699291000000,,,-1311985616708771794,0.0,8.040750365960616,,,0,8,0.0,16431,176101878117706,6,38.37810134887695,-199.84987971456417,0.059470187986814776,1,-359468.8126108899,0.0011051642941311002,1.56109798E9,,,,0,,5,,1.56109798E9
Raw,2065445165,1699291000000,,,-1311985616708771794,0.0,8.040750365960616,,,0,10,0.0,16431,176101880374554,6,37.36507034301758,-160.8576408349038,0.06682964793803486,1,-251050.1833429114,0.0012418765109032393,1.56109798E9,,,,0,,5,,1.56109798E9
Raw,2065445165,1699291000000,,,-1311985616708771794,0.0,8.040750365960616,,,0,30,0.0,16431,176101924549093,6,42.9549446105957,-311.79605985323496,0.034006276491052465,1,-171604.8967690289,6.878018612042069E-4,1.56109798E9,,,,0,,5,,1.56109798E9
Raw,2065445166,1699291000000,,,-1311985616708771794,0.0,8.040750365960616,,,0,32,0.0,16431,176101913433414,15,29.524620056152344,-649.7671736563361,0.15819120903512884,1,-346292.38291936956,0.0028875176794826984,1.56109798E9,,,,0,,5,,1.56109798E9
Raw,2065445166,1699291000000,,,-1311985616708771794,0.0,8.040750365960616,,,0,33,0.0,16431,176101910800963,19,27.71686363220215,38.44336647920289,0.1937589983177197,1,4942.121544232501,0.0035555963404476643,1.56109798E9,,,,0,,5,,1.56109798E9
Raw,2065445166,1699291000000,,,-1311985616708771794,0.0,8.040750365960616,,,0,36,0.0,16431,176101920822741,6,41.4814567565918,-310.4278878010398,0.04306930800797737,1,-215153.9399238403,8.149628411047161E-4,1.56109798E9,,,,0,,5,,1.56109798E9
Fix,gps,34.486378,109.464220,357.229889,0.000000,3.000000,1627952098999
Raw,2065446140,1700291000000,,,-1311985616708772179,0.0,7.825837410605047,,,0,1,0.0,16431,176116925050724,13,36.572444915771484,504.11923803421473,0.07010851172594257,1,552941.5913293738,0.0013481663772836328,1.57542003E9,,,,0,,1,,1.57542003E9
Raw,2065446141,1700291000000,,,-1311985616708772179,0.0,7.825837410605047,,,0,2,0.0,16,1700014655125,1000000000,14.682474136352539,-690.069133175255,2.99792458E8,2,-9.646843803538093,3.4028234663852886E38,1.57542003E9,,,,0,,1,,1.57542003E9
Raw,2065446142,1700291000000,,,-1311985616708772179,0.0,7.825837410605047,,,0,3,0.0,16431,176116926042014,26,30.998313903808594,-163.2861181095236,0.13255258126489788,1,-11426.150686935105,0.0024147590156644583,1.57542003E9,,,,0,,1,,1.57542003E9
Raw,2065446142,1700291000000,,,-1311985616708772179,0.0,7.825837410605047,,,0,6,0.0,16431,176116924771863,6,44.91413116455078,-634.8659828399982,0.03085834017696612,1,-657852.080377657,5.439235828816891E-4,1.57542003E9,,,,0,,1,,1.57542003E9
Raw,2065446142,1700291000000,,,-1311985616708772179,0.0,7.825837410605047,,,0,14,0.0,16431,176116932477647,10,38.670021057128906,-57.26072953707424,0.056597892291719826,1,-248562.59056221286,0.001058923895470798,1.57542003E9,,,,0,,1,,1.57542003E9
Raw,2065446142,1700291000000,,,-1311985616708772179,0.0,7.825837410605047,,,0,17,0.0,16431,176116929551615,19,33.654624938964844,-184.75290222673095,0.09854526257958773,1,-102930.73321084761,0.0018864028388634324,1.57542003E9,,,,0,,1,,1.57542003E9
Raw,2065446143,1700291000000,,,-1311985616708772179,0.0,7.825837410605047,,,0,19,0.0,16431,176116927793884,37,27.896747589111328,-434.31867381760776,0.18928645806485112,4,-675412.9794092166,3.4028234663852886E38,1.57542003E9,,,,0,,1,,1.57542003E9
Raw,2065446143,1700291000000,,,-1311985616708772179,0.0,7.825837410605047,,,0,21,0.0,16431,176116915507464,23,32.19890213012695,473.09462542817437,0.11728354921264422,1,550310.350744185,0.0022305946331471205,1.57542003E9,,,,0,,1,,1.57542003E9
Raw,2065446143,1700291000000,,,-1311985616708772179,0.0,7.825837410605047,,,0,22,0.0,16431,176116922636560,66,23.086387634277344,164.5072925267359,0.3273698165590966,4,11556.22873010365,3.4028234663852886E38,1.57542003E9,,,,0,,1,,1.57542003E9
Raw,2065446144,1700291000000,,,-1311985616708772179,0.0,7.825837410605047,,,0,24,0.0,16,1700016700108,1000000000,24.70685386657715,-378.17348438406043,2.99792458E8,2,-524294.0437747439,3.4028234663852886E38,1.57542003E9,,,,0,,1,,1.57542003E9
Raw,2065446144,1700291000000,,,-1311985616708772179,0.0,7.825837410605047,,,0,30,0.0,16431,176116921020034,19,33.69170379638672,489.74165599743674,0.09659817743703863,1,159940.21489890618,0.0018783672712743282,1.57542003E9,,,,0,,1,,1.57542003E9
Raw,2065446144,1700291000000,,,-1311985616708772179,0.0,7.825837410605047,,,0,10,0.0,16,1700002048310,1000000000,7.0,-843.2710703786356,2.99792458E8,2,-524289.7141020708,3.4028234663852886E38,1.59806246E9,,,,0,,3,,1.59806246E9
Raw,2065446145,1700291000000,,,-1311985616708772179,0.0,7.825837410605047,,,0,2,0.0,99,919999801,43,32.713191986083984,10.796675724829164,0.11150921888211923,1,269.49406944473907,0.0019519744673743844,1.59975002E9,,,,0,,3,,1.59975002E9
Raw,2065446145,1700291000000,,,-1311985616708772179,0.0,7.825837410605047,,,0,18,0.0,32995,14098927858307,40,33.330322265625,379.9685392042038,0.10192423526261896,1,14042.784791231637,0.0019277080427855253,1.60031245E9,,,,0,,3,,1.60031245E9
Raw,2065446145,1700291000000,,,-1311985616708772179,0.0,7.825837410605047,,,0,9,0.0,32995,14098933221976,33,44.34012222290039,-355.5353714423054,0.03237831497461734,1,-623752.8369472325,5.718435277231038E-4,1.59862502E9,,,,0,,3,,1.59862502E9
Raw,2065446146,1700291000000,,,-1311985616708772179,0.0,7.825837410605047,,,0,16,0.0,32995,14098932468056,34,34.68831253051758,404.66697072521924,0.08820594666124093,1,20472.64896169404,0.0016475417651236057,1.60143744E9,,,,0,,3,,1.60143744E9
Raw,2065446146,1700291000000,,,-1311985616708772179,0.0,7.825837410605047,,,0,3,0.0,32995,14098922569926,33,35.55945587158203,-490.1446128809059,0.07822216668095727,1,-787283.36855432,0.0014871848979964852,1.60481254E9,,,,0,,3,,1.60481254E9
Raw,2065446146,1700291000000,,,-1311985616708772179,0.0,7.825837410605047,,,0,193,0.0,1,390206,34,28.70616340637207,-180.2108695757621,0.1732158808577181,1,-34863.32025468368,0.0031439904123544693,1.57542003E9,,,,0,,4,,1.57542003E9
Raw,2065446146,1700291000000,,,-1311985616708772179,0.0,7.825837410605047,,,0,194,0.0,35,15822704,9,40.00636291503906,-145.28828049966444,0.049448714274097444,1,-80994.81445252254,9.079202427528799E-4,1.57542003E9,,,,0,,4,,1.57542003E9
Raw,2065446147,1700291000000,,,-1311985616708772179,0.0,7.825837410605047,,,0,195,0.0,35,7927208,51,25.257511138916016,-123.27161002891808,0.25602265383755207,1,-11897.236550386087,0.0046764244325459,1.57542003E9,,,,0,,4,,1.57542003E9
Raw,2065446147,1700291000000,,,-1311985616708772179,0.0,7.825837410605047,,,0,7,0.0,16431,176102879761769,13,30.5902156829834,-95.5774669093737,0.1413446069109474,1,-175027.03707449057,0.002554141217842698,1.56109798E9,,,,0,,5,,1.56109798E9
Raw,2065446147,1700291000000,,,-1311985616708772179,0.0,7.825837410605047,,,0,8,0.0,16431,176102878118359,6,38.01375198364258,-199.8110086728999,0.06187837648097802,1,-359668.65528947,0.0011525090085342526,1.56109798E9,,,,0,,5,,1.56109798E9
Raw,2065446148,1700291000000,,,-1311985616708772179,0.0,7.825837410605047,,,0,10,0.0,16431,176102880375090,6,37.215450286865234,-160.88434443958943,0.06792721786665823,1,-251211.0490955258,0.0012634539743885398,1.56109798E9,,,,0,,5,,1.56109798E9
Raw,2065446148,1700291000000,,,-1311985616708772179,0.0,7.825837410605047,,,0,30,0.0,16431,176102924550141,6,43.442073822021484,-311.7330413911243,0.032196419833116205,1,-171916.65617957566,6.50289875920862E-4,1.56109798E9,,,,0,,5,,1.56109798E9
Raw,2065446148,1700291000000,,,-1311985616708772179,0.0,7.825837410605047,,,0,32,0.0,16431,176102913435595,17,28.752010345458984,-649.856606022252,0.1726826934433947,1,-346942.219308992,0.0031561320647597313,1.56109798E9,,,,0,,5,,1.56109798E9
Raw,2065446148,1700291000000,,,-1311985616708772179,0.0,7.825837410605047,,,0,33,0.0,16431,176102910800803,166,27.57692527770996,38.55521658089663,0.19687434785925784,1,4980.638299485103,0.003613344393670559,1.56109798E9,,,,1,,5,,1.56109798E9
Raw,2065446149,1700291000000,,,-1311985616708772179,0.0,7.825837410605047,,,0,36,0.0,16431,176102920823783,6,40.80757141113281,-310.3521225001896,0.04624185550023274,1,-215464.34618665554,8.807082776911557E-4,1.56109798E9,,,,0,,5,,1.56109798E9
Fix,gps,34.486378,109.464220,357.270844,0.000000,3.000000,1627952099999
Raw,2065447141,1701291000000,,,-1311985616708772565,0.0,8.145580833119503,,,0,1,0.0,16431,176117925049064,14,36.32209777832031,504.1309623992586,0.07213174985728482,1,553445.6997242934,0.0013875890290364623,1.57542003E9,,,,0,,1,,1.57542003E9
Raw,2065447142,1701291000000,,,-1311985616708772565,0.0,8.145580833119503,,,0,2,0.0,16,1701014657366,1000000000,7.0,-690.069133175255,2.99792458E8,2,-9.641447368717747,3.4028234663852886E38,1.57542003E9,,,,0,,1,,1.57542003E9
Raw,2065447142,1701291000000,,,-1311985616708772565,0.0,8.145580833119503,,,0,3,0.0,16431,176117926042579,28,30.464563369750977,-163.13762084645373,0.1408846768079587,1,-11589.353927682143,0.0025678006932139397,1.57542003E9,,,,0,,1,,1.57542003E9
Raw,2065447143,1701291000000,,,-1311985616708772565,0.0,8.145580833119503,,,0,6,0.0,16431,176117924773972,6,46.01871871948242,-634.831355064171,0.030858718778472904,1,-658486.9025673752,4.7897014883346856E-4,1.57542003E9,,,,0,,1,,1.57542003E9
Raw,2065447143,1701291000000,,,-1311985616708772565,0.0,8.145580833119503,,,0,14,0.0,16431,176117932477854,8,40.58209228515625,-57.157212596000335,0.04585824480428191,1,-248619.75197180032,8.496909867972136E-4,1.57542003E9,,,,0,,1,,1.57542003E9
Raw,2065447144,1701291000000,,,-1311985616708772565,0.0,8.145580833119503,,,0,17,0.0,16431,176117929552215,15,35.55400848388672,-184.76636479705746,0.07952687739880887,1,-103115.48921665625,0.0015158818569034338,1.57542003E9,,,,0,,1,,1.57542003E9
Raw,2065447144,1701291000000,,,-1311985616708772565,0.0,8.145580833119503,,,0,19,0.0,16431,176117927795269,35,28.606948852539062,-434.75329330318664,0.17453561082215752,4,-675847.5188425778,3.4028234663852886E38,1.57542003E9,,,,0,,1,,1.57542003E9
Raw,2065447145,1701291000000,,,-1311985616708772565,0.0,8.145580833119503,,,0,21,0.0,16431,176117915505878,19,33.57750701904297,473.05931600321674,0.10047976650283447,1,550783.4197105753,0.0019032261334359646,1.57542003E9,,,,0,,1,,1.57542003E9
Raw,2065447145,1701291000000,,,-1311985616708772565,0.0,8.145580833119503,,,0,22,0.0,16431,176117922636055,42,26.8378849029541,164.9795731267725,0.21271753117677772,4,11721.080523741904,3.4028234663852886E38,1.57542003E9,,,,0,,1,,1.57542003E9
Raw,2065447146,1701291000000,,,-1311985616708772565,0.0,8.145580833119503,,,0,24,0.0,16,1701016701370,1000000000,21.53496551513672,-378.17348438406043,2.99792458E8,2,-524294.0408173756,3.4028234663852886E38,1.57542003E9,,,,0,,1,,1.57542003E9
Raw,2065447146,1701291000000,,,-1311985616708772565,0.0,8.145580833119503,,,0,30,0.0,16431,176117921018447,23,32.06001281738281,489.6258097277157,0.11652284309502414,1,160430.07369965783,0.0022665488068014383,1.57542003E9,,,,0,,1,,1.57542003E9
Raw,2065447146,1701291000000,,,-1311985616708772565,0.0,8.145580833119503,,,0,10,0.0,16,1701002051123,1000000000,17.909088134765625,-843.1796612302414,2.99792458E8,2,-524289.7007157573,3.4028234663852886E38,1.59806246E9,,,,0,,3,,1.59806246E9
Raw,2065447147,1701291000000,,,-1311985616708772565,0.0,8.145580833119503,,,0,2,0.0,99,1919999909,54,30.75328826904297,10.827994307143328,0.13882466024452883,1,280.3360932768793,0.002446072408929467,1.59975002E9,,,,0,,3,,1.59975002E9
Raw,2065447147,1701291000000,,,-1311985616708772565,0.0,8.145580833119503,,,0,18,0.0,32995,14099927857091,38,33.77454376220703,379.9728335937257,0.09691280777054462,1,14422.709633578843,0.0018315981142222881,1.60031245E9,,,,0,,3,,1.60031245E9
Raw,2065447147,1701291000000,,,-1311985616708772565,0.0,8.145580833119503,,,0,9,0.0,32995,14099933223140,33,43.176753997802734,-355.4222517691062,0.03472974236595579,1,-624108.3064567528,6.538010784424841E-4,1.59862502E9,,,,0,,3,,1.59862502E9
Raw,2065447148,1701291000000,,,-1311985616708772565,0.0,8.145580833119503,,,0,16,0.0,32995,14099932466691,45,32.37579345703125,404.68162618152405,0.11442846948496765,1,20877.423235971903,0.0021501185838133097,1.60143744E9,,,,0,,3,,1.60143744E9
Raw,2065447148,1701291000000,,,-1311985616708772565,0.0,8.145580833119503,,,0,3,0.0,32995,14099922571474,33,36.484161376953125,-490.0114186408148,0.07036949713825652,1,-787773.4444327236,0.0013369949301704764,1.60481254E9,,,,0,,3,,1.60481254E9
Raw,2065447149,1701291000000,,,-1311985616708772565,0.0,8.145580833119503,,,0,193,0.0,1,390833,56,24.515609741210938,-180.46520990756358,0.27934770188575464,4,-35043.51478519751,3.4028234663852886E38,1.57542003E9,,,,0,,4,,1.57542003E9
Raw,2065447149,1701291000000,,,-1311985616708772565,0.0,8.145580833119503,,,0,194,0.0,35,15823173,10,38.67124938964844,-145.24809728342404,0.05719198878361817,1,-81140.04503603288,0.001058773836120963,1.57542003E9,,,,0,,4,,1.57542003E9
Raw,2065447149,1701291000000,,,-1311985616708772565,0.0,8.145580833119503,,,0,195,0.0,35,7927618,48,25.712203979492188,-123.27035749864086,0.24303780372439343,1,-12020.492530050502,0.004437918309122324,1.57542003E9,,,,0,,4,,1.57542003E9
Raw,2065447150,1701291000000,,,-1311985616708772565,0.0,8.145580833119503,,,0,7,0.0,16431,176103879762097,17,28.818531036376953,-95.60482660134738,0.17252171707525743,1,-175122.6131068075,0.0031320529524236917,1.56109798E9,,,,0,,5,,1.56109798E9
Raw,2065447150,1701291000000,,,-1311985616708772565,0.0,8.145580833119503,,,0,8,0.0,16431,176103878119028,7,36.21342849731445,-199.85187353827075,0.07537937694065477,1,-359868.46079449577,0.0014179483987390995,1.56109798E9,,,,0,,5,,1.56109798E9
Raw,2065447151,1701291000000,,,-1311985616708772565,0.0,8.145580833119503,,,0,10,0.0,16431,176103880375624,6,37.35614776611328,-160.8923538168723,0.06689477155765786,1,-251371.8939825132,0.001243152772076428,1.56109798E9,,,,0,,5,,1.56109798E9
Raw,2065447151,1701291000000,,,-1311985616708772565,0.0,8.145580833119503,,,0,30,0.0,16431,176103924551185,6,43.74846267700195,-311.7575466773642,0.031109061744035715,1,-172228.4070083074,6.277509965002537E-4,1.56109798E9,,,,0,,5,,1.56109798E9
Raw,2065447151,1701291000000,,,-1311985616708772565,0.0,8.145580833119503,,,0,32,0.0,16431,176103913437731,17,28.546680450439453,-649.7829879161627,0.17675601296895582,1,-347591.97930173326,0.0032316294964402914,1.56109798E9,,,,0,,5,,1.56109798E9
Raw,2065447152,1701291000000,,,-1311985616708772565,0.0,8.145580833119503,,,0,33,0.0,16431,176103910800799,21,26.987272262573242,38.6726689863813,0.21056705797641928,1,5019.2464426369625,0.003867159364745021,1.56109798E9,,,,0,,5,,1.56109798E9
Raw,2065447152,1701291000000,,,-1311985616708772565,0.0,8.145580833119503,,,0,36,0.0,16431,176103920824804,6,42.364837646484375,-310.31889210507984,0.03926697979169522,1,-215774.66137624343,7.361542666330934E-4,1.56109798E9,,,,0,,5,,1.56109798E9
Fix,gps,34.486378,109.464220,357.276031,0.000000,3.000000,1627952100999
Raw,2065448178,1702291000000,,,-1311985616708772950,0.0,8.316862408978363,,,0,1,0.0,16431,176118925047421,17,34.72216796875,504.4328307166811,0.0865367550246714,1,553949.9374810527,0.0016682352870702744,1.57542003E9,,,,0,,1,,1.57542003E9
Raw,2065448179,1702291000000,,,-1311985616708772950,0.0,8.316862408978363,,,0,2,0.0,16,1702014659729,1000000000,7.0,-690.069133175255,2.99792458E8,2,-9.657636672975823,3.4028234663852886E38,1.57542003E9,,,,0,,1,,1.57542003E9
Raw,2065448193,1702291000000,,,-1311985616708772950,0.0,8.316862408978363,,,0,3,0.0,16431,176118926043110,23,31.997028350830078,-162.76305464926804,0.11827334668597378,1,-11752.365090056519,0.002152474829927087,1.57542003E9,,,,0,,1,,1.57542003E9
Raw,2065448194,1702291000000,,,-1311985616708772950,0.0,8.316862408978363,,,0,6,0.0,16431,176118924776095,6,46.061920166015625,-634.913493784391,0.030859101540435807,1,-659121.718838891,4.765937919728458E-4,1.57542003E9,,,,0,,1,,1.57542003E9
Raw,2065448195,1702291000000,,,-1311985616708772950,0.0,8.316862408978363,,,0,14,0.0,16431,176118932478056,8,40.82919692993164,-56.944917234626814,0.04463499581723068,1,-248676.7876271915,8.258590241894126E-4,1.57542003E9,,,,0,,1,,1.57542003E9
Raw,2065448195,1702291000000,,,-1311985616708772950,0.0,8.316862408978363,,,0,17,0.0,16431,176118929552831,16,35.38206481933594,-184.73722429673046,0.08108263003885119,1,-103300.16899034694,0.0015461883740499616,1.57542003E9,,,,0,,1,,1.57542003E9
Raw,2065448196,1702291000000,,,-1311985616708772950,0.0,8.316862408978363,,,0,19,0.0,16431,176118927796724,43,26.798320770263672,-434.78335402983976,0.21461478237593934,4,-676282.2663401503,3.4028234663852886E38,1.57542003E9,,,,0,,1,,1.57542003E9
Raw,2065448197,1702291000000,,,-1311985616708772950,0.0,8.316862408978363,,,0,21,0.0,16431,176118915504363,23,31.888582229614258,473.4057641737711,0.12144747515155419,1,551256.6066573545,0.002179517410695553,1.57542003E9,,,,0,,1,,1.57542003E9
Raw,2065448197,1702291000000,,,-1311985616708772950,0.0,8.316862408978363,,,0,22,0.0,16431,176118922635488,47,25.972766876220703,165.03713839583952,0.2349455002301789,4,11886.10986218287,3.4028234663852886E38,1.57542003E9,,,,0,,1,,1.57542003E9
Raw,2065448198,1702291000000,,,-1311985616708772950,0.0,8.316862408978363,,,0,24,0.0,16,1702016702570,1000000000,24.36366844177246,-377.9878372433807,2.99792458E8,2,-524294.0467197986,3.4028234663852886E38,1.57542003E9,,,,0,,1,,1.57542003E9
Raw,2065448199,1702291000000,,,-1311985616708772950,0.0,8.316862408978363,,,0,30,0.0,16431,176118921016760,25,31.351871490478516,489.67130980717366,0.12640482503500017,1,160919.89204238149,0.00231844000518322,1.57542003E9,,,,0,,1,,1.57542003E9
Raw,2065448199,1702291000000,,,-1311985616708772950,0.0,8.316862408978363,,,0,10,0.0,16,1702002053935,1000000000,26.83515739440918,-843.1796612302414,2.99792458E8,2,-524289.6875152937,3.4028234663852886E38,1.59806246E9,,,,0,,3,,1.59806246E9
Raw,2065448200,1702291000000,,,-1311985616708772950,0.0,8.316862408978363,,,0,2,0.0,99,919999889,66,29.06037139892578,11.223227253903033,0.16792481246809443,1,291.4456356900173,0.00297245429828763,1.59975002E9,,,,0,,3,,1.59975002E9
Raw,2065448201,1702291000000,,,-1311985616708772950,0.0,8.316862408978363,,,0,18,0.0,32995,14100927855797,43,32.8448600769043,380.080874980903,0.10770134477783111,1,14802.715362529898,0.001921932096593082,1.60031245E9,,,,0,,3,,1.60031245E9
Raw,2065448201,1702291000000,,,-1311985616708772950,0.0,8.316862408978363,,,0,9,0.0,32995,14100933224332,33,42.59731674194336,-355.3554501543215,0.03696172514235996,1,-624463.619077564,6.989039829932153E-4,1.59862502E9,,,,0,,3,,1.59862502E9
Raw,2065448202,1702291000000,,,-1311985616708772950,0.0,8.316862408978363,,,0,16,0.0,32995,14100932465322,41,33.14385223388672,404.89361906109593,0.10493400906969386,1,21282.32199258863,0.001968155847862363,1.60143744E9,,,,0,,3,,1.60143744E9
Raw,2065448202,1702291000000,,,-1311985616708772950,0.0,8.316862408978363,,,0,3,0.0,32995,14100922573141,33,35.48723602294922,-489.7021544303268,0.07887196335937019,1,-788263.3228029108,0.0014996015233919024,1.60481254E9,,,,0,,3,,1.60481254E9
Raw,2065448203,1702291000000,,,-1311985616708772950,0.0,8.316862408978363,,,0,193,0.0,1,391435,61,22.56440544128418,-180.51599276778256,4.202048963847769,4,-35223.72699543646,3.4028234663852886E38,1.57542003E9,,,,0,,4,,1.57542003E9
Raw,2065448204,1702291000000,,,-1311985616708772950,0.0,8.316862408978363,,,0,194,0.0,35,15823686,11,38.634578704833984,-145.06959041738583,0.057421999600129836,1,-81285.239175745,0.0010632533812895417,1.57542003E9,,,,0,,4,,1.57542003E9
Raw,2065448206,1702291000000,,,-1311985616708772950,0.0,8.316862408978363,,,0,195,0.0,35,7927944,47,26.01963996887207,-123.26255261609714,0.23463559617482355,1,-12143.747265952488,0.004283585585653782,1.57542003E9,,,,0,,4,,1.57542003E9
Raw,2065448207,1702291000000,,,-1311985616708772950,0.0,8.316862408978363,,,0,7,0.0,16431,176104879762392,16,28.866777420043945,-95.3490974094426,0.1715858307923115,1,-175218.12229166031,0.003114704042673111,1.56109798E9,,,,0,,5,,1.56109798E9
Raw,2065448207,1702291000000,,,-1311985616708772950,0.0,8.316862408978363,,,0,8,0.0,16431,176104878119710,8,34.82540512084961,-199.65772282468856,0.0878763802902695,1,-360068.1988444515,0.0016636487562209368,1.56109798E9,,,,0,,5,,1.56109798E9
Raw,2065448208,1702291000000,,,-1311985616708772950,0.0,8.316862408978363,,,0,10,0.0,16431,176104880376168,6,36.65519332885742,-160.780989390184,0.0722090760947034,1,-251532.69842659732,0.0013476350577548146,1.56109798E9,,,,0,,5,,1.56109798E9
Raw,2065448209,1702291000000,,,-1311985616708772950,0.0,8.316862408978363,,,0,30,0.0,16431,176104924552222,6,43.33196258544922,-311.90737315623846,0.03259711128166157,1,-172540.14047715336,6.585860974155366E-4,1.56109798E9,,,,0,,5,,1.56109798E9
Raw,2065448210,1702291000000,,,-1311985616708772950,0.0,8.316862408978363,,,0,32,0.0,16431,176104913439873,15,29.631601333618164,-649.5198031868936,0.1562855204309589,1,-348241.7369786573,0.002852171426638961,1.56109798E9,,,,0,,5,,1.56109798E9
Raw,2065448210,1702291000000,,,-1311985616708772950,0.0,8.316862408978363,,,0,33,0.0,16431,176104910800619,20,27.14183807373047,38.922467830851105,0.20688736752514236,1,5058.020722975027,0.003798951394855976,1.56109798E9,,,,0,,5,,1.56109798E9
Raw,2065448211,1702291000000,,,-1311985616708772950,0.0,8.316862408978363,,,0,36,0.0,16431,176104920825843,6,43.09267044067383,-310.3557011581245,0.03641197495222878,1,-216084.90711833496,6.76981988362968E-4,1.56109798E9,,,,0,,5,,1.56109798E9
Fix,gps,34.486378,109.464220,357.270966,0.000000,3.000000,1627952101999
Raw,2065449141,1703291000000,,,-1311985616708773336,0.0,8.454071060951234,,,0,1,0.0,16431,176119925045702,15,35.50151443481445,504.76878149062645,0.07918794168065857,1,554454.6131688124,0.0015250708675011992,1.57542003E9,,,,0,,1,,1.57542003E9
Raw,2065449141,1703291000000,,,-1311985616708773336,0.0,8.454071060951234,,,0,2,0.0,16,1703014662031,1000000000,7.0,-690.069133175255,2.99792458E8,2,-9.652240238319312,3.4028234663852886E38,1.57542003E9,,,,0,,1,,1.57542003E9
Raw,2065449142,1703291000000,,,-1311985616708773336,0.0,8.454071060951234,,,0,3,0.0,16431,176119926043657,23,32.17538070678711,-162.17036073033637,0.11589170190184661,1,-11914.74503486762,0.002108727116137743,1.57542003E9,,,,0,,1,,1.57542003E9
Raw,2065449142,1703291000000,,,-1311985616708773336,0.0,8.454071060951234,,,0,6,0.0,16431,176119924778204,6,44.54244613647461,-635.1787916259645,0.03085948014194259,1,-659756.8734961513,5.677042645402253E-4,1.57542003E9,,,,0,,1,,1.57542003E9
Raw,2065449142,1703291000000,,,-1311985616708773336,0.0,8.454071060951234,,,0,14,0.0,16431,176119932478210,9,39.8712043762207,-56.63006776157616,0.04957797548524334,1,-248733.68311107313,9.221583604812622E-4,1.57542003E9,,,,0,,1,,1.57542003E9
Raw,2065449142,1703291000000,,,-1311985616708773336,0.0,8.454071060951234,,,0,17,0.0,16431,176119929553456,13,36.83203887939453,-184.77147716553588,0.06888085681586184,1,-103484.88950409045,0.001308470033109188,1.57542003E9,,,,0,,1,,1.57542003E9
Raw,2065449143,1703291000000,,,-1311985616708773336,0.0,8.454071060951234,,,0,19,0.0,16431,176119927798180,14,36.094852447509766,-435.00417426565105,0.07451421009081122,4,-676717.1663013869,3.4028234663852886E38,1.57542003E9,,,,0,,1,,1.57542003E9
Raw,2065449143,1703291000000,,,-1311985616708773336,0.0,8.454071060951234,,,0,21,0.0,16431,176119915502795,23,31.992813110351562,473.85575484724177,0.12003181338993424,4,551730.2465275967,3.4028234663852886E38,1.57542003E9,,,,0,,1,,1.57542003E9
Raw,2065449143,1703291000000,,,-1311985616708773336,0.0,8.454071060951234,,,0,22,0.0,16431,176119922634966,44,26.58938217163086,165.53963309358357,0.21887730280394568,4,12051.571759877725,3.4028234663852886E38,1.57542003E9,,,,0,,1,,1.57542003E9
Raw,2065449144,1703291000000,,,-1311985616708773336,0.0,8.454071060951234,,,0,24,0.0,16,1703016703891,1000000000,29.80613899230957,-377.9878372433807,2.99792458E8,2,-524294.043763882,3.4028234663852886E38,1.57542003E9,,,,0,,1,,1.57542003E9
Raw,2065449144,1703291000000,,,-1311985616708773336,0.0,8.454071060951234,,,0,30,0.0,16431,176119921015118,16,35.40365219116211,489.89990084307215,0.07934989159552758,1,161409.47965914433,0.0015423507429659367,1.57542003E9,,,,0,,1,,1.57542003E9
Raw,2065449144,1703291000000,,,-1311985616708773336,0.0,8.454071060951234,,,0,10,0.0,16,1703002056747,1000000000,24.052227020263672,-843.0882520818473,2.99792458E8,2,-524289.6741332745,3.4028234663852886E38,1.59806246E9,,,,0,,3,,1.59806246E9
Raw,2065449145,1703291000000,,,-1311985616708773336,0.0,8.454071060951234,,,0,2,0.0,99,1919999777,80,27.415502548217773,11.774631341834088,0.2021856027819685,4,302.97876397325524,3.4028234663852886E38,1.59975002E9,,,,0,,3,,1.59975002E9
Raw,2065449145,1703291000000,,,-1311985616708773336,0.0,8.454071060951234,,,0,18,0.0,32995,14101927854573,35,34.413822174072266,380.14116684649184,0.090136073784651,1,15183.077776190514,0.0017016343772411346,1.60031245E9,,,,0,,3,,1.60031245E9
Raw,2065449145,1703291000000,,,-1311985616708773336,0.0,8.454071060951234,,,0,9,0.0,32995,14101933225554,33,43.207881927490234,-355.443621469346,0.034614451966455836,1,-624819.0282125412,6.514621782116592E-4,1.59862502E9,,,,0,,3,,1.59862502E9
Raw,2065449145,1703291000000,,,-1311985616708773336,0.0,8.454071060951234,,,0,16,0.0,32995,14101932463990,33,36.018333435058594,405.08294710708014,0.07600041654637657,4,21687.22113701716,3.4028234663852886E38,1.60143744E9,,,,0,,3,,1.60143744E9
Raw,2065449146,1703291000000,,,-1311985616708773336,0.0,8.454071060951234,,,0,3,0.0,32995,14101922574752,33,35.74858474731445,-488.8579319822568,0.07654814891529027,1,-788752.4893651365,0.001455152640119195,1.60481254E9,,,,0,,3,,1.60481254E9
Raw,2065449146,1703291000000,,,-1311985616708773336,0.0,8.454071060951234,,,0,193,0.0,1,391993,57,24.26382827758789,-179.43174461965066,0.2875036936422313,4,-35403.48109856589,3.4028234663852886E38,1.57542003E9,,,,0,,4,,1.57542003E9
Raw,2065449147,1703291000000,,,-1311985616708773336,0.0,8.454071060951234,,,0,194,0.0,35,15824158,10,39.47161102294922,-144.64865503810086,0.052408267215365845,1,-81430.20008275959,9.655730682425201E-4,1.57542003E9,,,,0,,4,,1.57542003E9
Raw,2065449147,1703291000000,,,-1311985616708773336,0.0,8.454071060951234,,,0,195,0.0,35,7928421,38,27.698165893554688,-122.9900718968114,0.1936556359459115,4,-12266.817799744918,3.4028234663852886E38,1.57542003E9,,,,0,,4,,1.57542003E9
Raw,2065449147,1703291000000,,,-1311985616708773336,0.0,8.454071060951234,,,0,7,0.0,16431,176105879762723,15,29.822397232055664,-95.0326673624707,0.15407979637334668,1,-175313.45189761478,0.0027902028523385525,1.56109798E9,,,,0,,5,,1.56109798E9
Raw,2065449148,1703291000000,,,-1311985616708773336,0.0,8.454071060951234,,,0,8,0.0,16431,176105878120363,7,35.72444534301758,-199.50257948259673,0.07955618365170763,1,-360267.98773231544,0.0015000636922195554,1.56109798E9,,,,0,,5,,1.56109798E9
Raw,2065449148,1703291000000,,,-1311985616708773336,0.0,8.454071060951234,,,0,10,0.0,16431,176105880376705,7,35.93027877807617,-160.60519207943935,0.07817526169867722,1,-251693.47655105215,0.0014649337390437722,1.56109798E9,,,,0,,5,,1.56109798E9
Raw,2065449148,1703291000000,,,-1311985616708773336,0.0,8.454071060951234,,,0,30,0.0,16431,176105924553258,6,43.49707794189453,-312.10082517946194,0.031998914660258435,1,-172852.16437511978,6.461849552579224E-4,1.56109798E9,,,,0,,5,,1.56109798E9
Raw,2065449149,1703291000000,,,-1311985616708773336,0.0,8.454071060951234,,,0,32,0.0,16431,176105913442037,13,30.766063690185547,-649.1117680174025,0.13744633441611637,1,-348891.1800591024,0.0025029517710208893,1.56109798E9,,,,0,,5,,1.56109798E9
Raw,2065449149,1703291000000,,,-1311985616708773336,0.0,8.454071060951234,,,0,33,0.0,16431,176105910800483,16,29.12144660949707,39.38250430838187,0.16511866802528374,4,5097.412740402924,3.4028234663852886E38,1.56109798E9,,,,0,,5,,1.56109798E9
