# 
# Header Description:
# 
# Version: v2.0.0.1 Platform: 10 Manufacturer: HUAWEI Model: BLA-AL00
# 
# Raw,ElapsedRealtimeMillis,TimeNanos,LeapSecond,TimeUncertaintyNanos,FullBiasNanos,BiasNanos,BiasUncertaintyNanos,DriftNanosPerSecond,DriftUncertaintyNanosPerSecond,HardwareClockDiscontinuityCount,Svid,TimeOffsetNanos,State,ReceivedSvTimeNanos,ReceivedSvTimeUncertaintyNanos,Cn0DbHz,PseudorangeRateMetersPerSecond,PseudorangeRateUncertaintyMetersPerSecond,AccumulatedDeltaRangeState,AccumulatedDeltaRangeMeters,AccumulatedDeltaRangeUncertaintyMeters,CarrierFrequencyHz,CarrierCycles,CarrierPhase,CarrierPhaseUncertainty,MultipathIndicator,SnrInDb,ConstellationType,AgcDb,CarrierFrequencyHz
# 
# Fix,Provider,Latitude,Longitude,Altitude,Speed,Accuracy,(UTC)TimeInMs
# 
# Nav,Svid,Type,Status,MessageId,Sub-messageId,Data(Bytes)
# 
Raw,1933906460,1907824000000,,,-1311853870175923635,0.0,9.844130085742481,,,0,10,0.0,16431,44577931868855,6,43.39625930786133,-320.35433509839527,0.033678815310877006,4,-757716.4426734797,3.4028234663852886E38,1.57542003E9,,,,0,,1,,1.57542003E9
Raw,1933906460,1907824000000,,,-1311853870175923635,0.0,9.844130085742481,,,0,12,0.0,16431,44577924068348,13,36.5932502746582,-448.99730619285174,0.06976624764289746,4,-953499.9896867962,3.4028234663852886E38,1.57542003E9,,,,0,,1,,1.57542003E9
Raw,1933906461,1907824000000,,,-1311853870175923635,0.0,9.844130085742481,,,0,15,0.0,16,1907015929585,1000000000,22.87649917602539,415.4895821343855,2.99792458E8,2,524294.2319626808,3.4028234663852886E38,1.57542003E9,,,,0,,1,,1.57542003E9
Raw,1933906461,1907824000000,,,-1311853870175923635,0.0,9.844130085742481,,,0,18,0.0,16431,44577920597346,20,33.29399871826172,566.495757076284,0.10463687761462231,4,1163415.9075946868,3.4028234663852886E38,1.57542003E9,,,,0,,1,,1.57542003E9
Raw,1933906461,1907824000000,,,-1311853870175923635,0.0,9.844130085742481,,,0,23,0.0,16431,44577931211529,8,41.145111083984375,141.93644983354278,0.04289309604953412,1,94745.67298283089,7.963614771142602E-4,1.57542003E9,,,,0,,1,,1.57542003E9
Raw,1933906462,1907824000000,,,-1311853870175923635,0.0,9.844130085742481,,,0,24,0.0,16431,44577925598402,11,38.35906219482422,475.33138888485337,0.057341627908832515,4,597389.4416475,3.4028234663852886E38,1.57542003E9,,,,0,,1,,1.57542003E9
Raw,1933906462,1907824000000,,,-1311853870175923635,0.0,9.844130085742481,,,0,25,0.0,16431,44577923545557,17,34.76835632324219,-693.523526473668,0.08581246953991273,4,-1125882.4161511161,3.4028234663852886E38,1.57542003E9,,,,0,,1,,1.57542003E9
Raw,1933906462,1907824000000,,,-1311853870175923635,0.0,9.844130085742481,,,0,31,0.0,16431,44577918753512,76,19.68552017211914,-821.0054786866749,4.20337338680671,4,-32097.48324387504,3.4028234663852886E38,1.57542003E9,,,,0,,1,,1.57542003E9
Raw,1933906463,1907824000000,,,-1311853870175923635,0.0,9.844130085742481,,,0,32,0.0,16431,44577927391359,11,38.47675704956055,-391.0415885038997,0.056905928302277975,4,-540365.6239858697,3.4028234663852886E38,1.57542003E9,,,,0,,1,,1.57542003E9
Raw,1933906463,1907824000000,,,-1311853870175923635,0.0,9.844130085742481,,,0,10,0.0,32995,55359931137350,37,33.965248107910156,-748.8638246139726,0.0954289478122301,4,-1555409.2786340946,3.4028234663852886E38,1.59806246E9,,,,0,,3,,1.59806246E9
Raw,1933906463,1907824000000,,,-1311853870175923635,0.0,9.844130085742481,,,0,9,0.0,32995,55359933723601,33,42.06480407714844,-56.31035301785687,0.039238085423952185,4,-408637.56839025253,3.4028234663852886E38,1.59862502E9,,,,0,,3,,1.59862502E9
Raw,1933906464,1907824000000,,,-1311853870175923635,0.0,9.844130085742481,,,0,16,0.0,17,356629,99,15.190590858459473,561.7673274705919,4.20078365264936,4,524851.8085126497,3.4028234663852886E38,1.60143744E9,,,,0,,3,,1.60143744E9
Raw,1933906464,1907824000000,,,-1311853870175923635,0.0,9.844130085742481,,,0,23,0.0,32961,55359924492519,33,38.08763885498047,37.56753255270797,0.05893088470199717,4,-3765.6260900586303,3.4028234663852886E38,1.60368755E9,,,,0,,3,,1.60368755E9
Raw,1933906464,1907824000000,,,-1311853870175923635,0.0,9.844130085742481,,,0,7,0.0,32961,55359932966700,33,36.124168395996094,-157.77662084769827,0.07519755668736378,1,-543589.8677526735,0.0013935720780864358,1.60481254E9,,,,0,,3,,1.60481254E9
Raw,1933906465,1907824000000,,,-1311853870175923635,0.0,9.844130085742481,,,0,8,0.0,32961,55359927957459,37,34.121395111083984,-559.4831553168897,0.09319246966298989,4,-593161.0351393365,3.4028234663852886E38,1.60537498E9,,,,0,,3,,1.60537498E9
Raw,1933906465,1907824000000,,,-1311853870175923635,0.0,9.844130085742481,,,0,193,0.0,35,9553607,11,38.493988037109375,-257.23427318482436,0.057184724627235256,1,-471966.9877030679,0.001080603338778019,1.57542003E9,,,,0,,4,,1.57542003E9
Raw,1933906465,1907824000000,,,-1311853870175923635,0.0,9.844130085742481,,,0,194,0.0,35,12465663,8,41.382083892822266,-99.64749161995815,0.04201854737114333,4,-91017.67836901962,3.4028234663852886E38,1.57542003E9,,,,0,,4,,1.57542003E9
Raw,1933906466,1907824000000,,,-1311853870175923635,0.0,9.844130085742481,,,0,6,0.0,16431,44563878650614,8,34.74957275390625,-80.29736438264342,0.08871389674874947,4,-127664.61963072447,3.4028234663852886E38,1.56109798E9,,,,0,,5,,1.56109798E9
Raw,1933906466,1907824000000,,,-1311853870175923635,0.0,9.844130085742481,,,0,14,0.0,16431,44563924302380,9,33.943729400634766,143.89323443050102,0.09443124547227538,1,180931.23695354283,0.0018413886427879333,1.56109798E9,,,,0,,5,,1.56109798E9
Raw,1933906466,1907824000000,,,-1311853870175923635,0.0,9.844130085742481,,,0,16,0.0,16431,44563878007365,8,34.79457473754883,-78.18803523090321,0.08815706130184847,4,-126084.14507053824,3.4028234663852886E38,1.56109798E9,,,,0,,5,,1.56109798E9
Raw,1933906467,1907824000000,,,-1311853870175923635,0.0,9.844130085742481,,,0,24,0.0,16431,44563924133844,6,40.541534423828125,53.38717314711553,0.044561501359897254,1,-69544.27432420643,9.081005118787289E-4,1.56109798E9,,,,0,,5,,1.56109798E9
Raw,1933906467,1907824000000,,,-1311853870175923635,0.0,9.844130085742481,,,0,25,0.0,16431,44563923401615,7,36.23196029663086,-562.1766577734309,0.07257836650069432,1,-845246.8280580476,0.001414926373399794,1.56109798E9,,,,0,,5,,1.56109798E9
Raw,1933906467,1907824000000,,,-1311853870175923635,0.0,9.844130085742481,,,0,26,0.0,16431,44563914852786,6,38.26165771484375,441.7603055397112,0.059641561334792204,4,710272.2751876523,3.4028234663852886E38,1.56109798E9,,,,0,,5,,1.56109798E9
Raw,1933906468,1907824000000,,,-1311853870175923635,0.0,9.844130085742481,,,0,27,0.0,16431,44563913041396,13,31.033489227294922,139.99767781485684,0.13328030328641044,4,121552.38446376508,3.4028234663852886E38,1.56109798E9,,,,0,,5,,1.56109798E9
Raw,1933906468,1907824000000,,,-1311853870175923635,0.0,9.844130085742481,,,0,33,0.0,16431,44563926099441,8,34.75911331176758,-99.84123334406206,0.08636251512242832,4,-260125.28224213675,3.4028234663852886E38,1.56109798E9,,,,0,,5,,1.56109798E9
Fix,gps,34.486319,109.463916,358.625031,0.507807,4.000000,1627820559999
Fix,gps,34.486320,109.463920,358.614777,0.353615,3.000000,1627820560999
Raw,1933907494,1908824000000,,,-1311853870175924023,0.0,10.358607855224884,,,0,10,0.0,16431,44578931869918,6,42.99671173095703,-320.2138131301517,0.03516390884443066,4,-758036.6930872871,3.4028234663852886E38,1.57542003E9,,,,0,,1,,1.57542003E9
Raw,1933907494,1908824000000,,,-1311853870175924023,0.0,10.358607855224884,,,0,12,0.0,16431,44578924069852,10,38.794837951660156,-448.923006437632,0.05431005331169664,4,-953948.9872966872,3.4028234663852886E38,1.57542003E9,,,,0,,1,,1.57542003E9
Raw,1933907495,1908824000000,,,-1311853870175924023,0.0,10.358607855224884,,,0,15,0.0,16,1908015928183,1000000000,7.0,415.4895821343855,2.99792458E8,2,524294.2287134955,3.4028234663852886E38,1.57542003E9,,,,0,,1,,1.57542003E9
Raw,1933907495,1908824000000,,,-1311853870175924023,0.0,10.358607855224884,,,0,18,0.0,16431,44578920595462,20,33.362632751464844,566.483112484914,0.10384211400321613,4,1163982.368993742,3.4028234663852886E38,1.57542003E9,,,,0,,1,,1.57542003E9
Raw,1933907496,1908824000000,,,-1311853870175924023,0.0,10.358607855224884,,,0,23,0.0,16431,44578931211036,7,41.99372863769531,142.0214855625672,0.03908824659684415,1,94887.59365174225,7.613039342686534E-4,1.57542003E9,,,,0,,1,,1.57542003E9
Raw,1933907497,1908824000000,,,-1311853870175924023,0.0,10.358607855224884,,,0,24,0.0,16431,44578925596812,9,39.716522216796875,475.47180860572735,0.04919065782289092,1,597864.8619039701,9.387275786139071E-4,1.57542003E9,,,,0,,1,,1.57542003E9
Raw,1933907497,1908824000000,,,-1311853870175924023,0.0,10.358607855224884,,,0,25,0.0,16431,44578923547883,14,36.10826110839844,-693.4435690306655,0.07363690303001386,4,-1126575.932904065,3.4028234663852886E38,1.57542003E9,,,,0,,1,,1.57542003E9
Raw,1933907498,1908824000000,,,-1311853870175924023,0.0,10.358607855224884,,,0,31,0.0,16431,44578918756249,73,20.389541625976562,-821.0312450238062,4.203373919345093,4,-32918.753226950634,3.4028234663852886E38,1.57542003E9,,,,0,,1,,1.57542003E9
Raw,1933907498,1908824000000,,,-1311853870175924023,0.0,10.358607855224884,,,0,32,0.0,16431,44578927392696,12,37.27302551269531,-391.10774255201045,0.06516744586774442,4,-540756.7805644387,3.4028234663852886E38,1.57542003E9,,,,0,,1,,1.57542003E9
Raw,1933907498,1908824000000,,,-1311853870175924023,0.0,10.358607855224884,,,0,10,0.0,32995,55360931139881,38,33.82634735107422,-748.7064999946633,0.09693545729365377,4,-1554660.6752336351,3.4028234663852886E38,1.59806246E9,,,,0,,3,,1.59806246E9
Raw,1933907499,1908824000000,,,-1311853870175924023,0.0,10.358607855224884,,,0,9,0.0,32995,55360933723773,33,42.19178771972656,-56.141252909818945,0.038704481964016935,4,-408693.8065397411,3.4028234663852886E38,1.59862502E9,,,,0,,3,,1.59862502E9
Raw,1933907499,1908824000000,,,-1311853870175924023,0.0,10.358607855224884,,,0,16,0.0,16,4354754,1000000000,18.735992431640625,561.4186980228201,2.99792458E8,6,524739.1655237688,3.4028234663852886E38,1.60143744E9,,,,0,,3,,1.60143744E9
Raw,1933907500,1908824000000,,,-1311853870175924023,0.0,10.358607855224884,,,0,23,0.0,32961,55360924492372,33,36.81293487548828,36.930680551043935,0.06811839914621587,4,-3728.6856057724367,3.4028234663852886E38,1.60368755E9,,,,0,,3,,1.60368755E9
Raw,1933907500,1908824000000,,,-1311853870175924023,0.0,10.358607855224884,,,0,7,0.0,32961,55360932967208,33,37.4305534362793,-157.72687750240323,0.06502283673397735,1,-543747.5982713461,0.0011989749036729336,1.60481254E9,,,,0,,3,,1.60481254E9
Raw,1933907500,1908824000000,,,-1311853870175924023,0.0,10.358607855224884,,,0,8,0.0,32961,55360927959374,35,34.48946762084961,-559.4564005885193,0.08938557742634573,4,-593720.4686139653,3.4028234663852886E38,1.60537498E9,,,,0,,3,,1.60537498E9
Raw,1933907501,1908824000000,,,-1311853870175924023,0.0,10.358607855224884,,,0,193,0.0,35,9554470,12,37.496070861816406,-257.1740665253768,0.0639378813083053,1,-472224.1619046853,0.001212166273035109,1.57542003E9,,,,0,,4,,1.57542003E9
Raw,1933907501,1908824000000,,,-1311853870175924023,0.0,10.358607855224884,,,0,194,0.0,35,12465967,7,41.78591537475586,-99.67347949305679,0.040211623834770616,4,-91117.3640924449,3.4028234663852886E38,1.57542003E9,,,,0,,4,,1.57542003E9
Raw,1933907502,1908824000000,,,-1311853870175924023,0.0,10.358607855224884,,,0,6,0.0,16431,44564878650893,8,34.880699157714844,-80.11569636876271,0.08743499750065709,1,-127744.82873314695,0.0016530915163457394,1.56109798E9,,,,0,,5,,1.56109798E9
Raw,1933907502,1908824000000,,,-1311853870175924023,0.0,10.358607855224884,,,0,14,0.0,16431,44564924301902,11,32.505706787109375,143.78205745732362,0.11129437292815952,1,181075.13664387164,0.002172933891415596,1.56109798E9,,,,0,,5,,1.56109798E9
Raw,1933907503,1908824000000,,,-1311853870175924023,0.0,10.358607855224884,,,0,16,0.0,16431,44564878007610,8,35.098323822021484,-78.24337661968212,0.08523882585029297,4,-126162.2844982109,3.4028234663852886E38,1.56109798E9,,,,0,,5,,1.56109798E9
Raw,1933907503,1908824000000,,,-1311853870175924023,0.0,10.358607855224884,,,0,24,0.0,16431,44564924133665,6,41.1451416015625,53.490647485118785,0.0416198300590262,1,-69490.85254302964,8.47136601805687E-4,1.56109798E9,,,,0,,5,,1.56109798E9
Raw,1933907503,1908824000000,,,-1311853870175924023,0.0,10.358607855224884,,,0,25,0.0,16431,44564923403486,8,34.876556396484375,-562.0251271717304,0.08473247337793394,1,-845809.0044711789,0.0016538802301511168,1.56109798E9,,,,0,,5,,1.56109798E9
Raw,1933907504,1908824000000,,,-1311853870175924023,0.0,10.358607855224884,,,0,26,0.0,16431,44564914851318,6,39.6486930847168,441.80099999279946,0.05123308397785173,1,710714.0054282013,9.54766699578613E-4,1.56109798E9,,,,0,,5,,1.56109798E9
Raw,1933907504,1908824000000,,,-1311853870175924023,0.0,10.358607855224884,,,0,27,0.0,16431,44564913040879,166,30.70197296142578,139.88487340438047,0.13837419933966583,4,121692.06324332378,3.4028234663852886E38,1.56109798E9,,,,1,,5,,1.56109798E9
Raw,1933907505,1908824000000,,,-1311853870175924023,0.0,10.358607855224884,,,0,33,0.0,16431,44564926099782,14,30.5177059173584,-100.06893823609096,0.1400422510112589,4,-260225.14926072443,3.4028234663852886E38,1.56109798E9,,,,0,,5,,1.56109798E9
Fix,gps,34.486320,109.463924,358.584229,0.335512,3.000000,1627820561999
Raw,1933908531,1909824000000,,,-1311853870175924409,0.0,10.36690499869661,,,0,10,0.0,16431,44579931871002,8,40.857666015625,-320.1090777412571,0.04438707839758496,1,-758356.8390300644,8.676830329932272E-4,1.57542003E9,,,,0,,1,,1.57542003E9
Raw,1933908531,1909824000000,,,-1311853870175924409,0.0,10.36690499869661,,,0,12,0.0,16431,44579924071371,12,37.67284393310547,-448.9586907696114,0.061698137201012054,4,-954397.9007114774,3.4028234663852886E38,1.57542003E9,,,,0,,1,,1.57542003E9
Raw,1933908532,1909824000000,,,-1311853870175924409,0.0,10.36690499869661,,,0,15,0.0,16,1909015926858,1000000000,21.274978637695312,415.4895821343855,2.99792458E8,2,524294.2254643103,3.4028234663852886E38,1.57542003E9,,,,0,,1,,1.57542003E9
Raw,1933908532,1909824000000,,,-1311853870175924409,0.0,10.36690499869661,,,0,18,0.0,16431,44579920593491,166,29.95952796936035,566.375548252128,0.1518714262656431,4,1164548.8218687389,3.4028234663852886E38,1.57542003E9,,,,1,,1,,1.57542003E9
Raw,1933908532,1909824000000,,,-1311853870175924409,0.0,10.36690499869661,,,0,23,0.0,16431,44579931210578,7,42.13954162597656,142.01350174712672,0.038471022129383026,1,95029.60496330212,7.486303802579641E-4,1.57542003E9,,,,0,,1,,1.57542003E9
Raw,1933908532,1909824000000,,,-1311853870175924409,0.0,10.36690499869661,,,0,24,0.0,16431,44579925595216,9,39.910552978515625,475.4616861161401,0.04812593885577929,1,598340.2849076042,9.179902845062315E-4,1.57542003E9,,,,0,,1,,1.57542003E9
Raw,1933908532,1909824000000,,,-1311853870175924409,0.0,10.36690499869661,,,0,25,0.0,16431,44579923550200,10,39.04443359375,-693.5827617831046,0.05269890003798028,4,-1127269.428840273,3.4028234663852886E38,1.57542003E9,,,,0,,1,,1.57542003E9
Raw,1933908532,1909824000000,,,-1311853870175924409,0.0,10.36690499869661,,,0,31,0.0,16431,44579918758868,63,22.322975158691406,-821.2606199562047,4.203374185614285,4,-33740.41474969917,3.4028234663852886E38,1.57542003E9,,,,0,,1,,1.57542003E9
Raw,1933908533,1909824000000,,,-1311853870175924409,0.0,10.36690499869661,,,0,32,0.0,16431,44579927393976,14,36.225425720214844,-391.0288075827036,0.07335066364906057,4,-541147.846717003,3.4028234663852886E38,1.57542003E9,,,,0,,1,,1.57542003E9
Raw,1933908533,1909824000000,,,-1311853870175924409,0.0,10.36690499869661,,,0,10,0.0,32995,55361931142330,47,31.963558197021484,-748.6873456540975,0.11964299380292304,4,-1553911.5507374625,3.4028234663852886E38,1.59806246E9,,,,0,,3,,1.59806246E9
Raw,1933908533,1909824000000,,,-1311853870175924409,0.0,10.36690499869661,,,0,9,0.0,32995,55361933723955,33,42.63610076904297,-56.08171511858066,0.036897520983539156,1,-408749.8930150367,6.95790455210954E-4,1.59862502E9,,,,0,,3,,1.59862502E9
Raw,1933908533,1909824000000,,,-1311853870175924409,0.0,10.36690499869661,,,0,16,0.0,16,4352955,1000000000,20.406631469726562,561.6811329380457,2.99792458E8,4,524290.2350974763,3.4028234663852886E38,1.60143744E9,,,,0,,3,,1.60143744E9
Raw,1933908533,1909824000000,,,-1311853870175924409,0.0,10.36690499869661,,,0,23,0.0,32961,55361924492287,33,36.16304397583008,37.25512849591283,0.07334783453889998,4,-3691.5071484020154,3.4028234663852886E38,1.60368755E9,,,,0,,3,,1.60368755E9
Raw,1933908533,1909824000000,,,-1311853870175924409,0.0,10.36690499869661,,,0,7,0.0,32961,55361932967772,33,41.8784294128418,-157.6737770351407,0.03989962290953153,1,-543905.2731324031,7.573473849333823E-4,1.60481254E9,,,,0,,3,,1.60481254E9
Raw,1933908534,1909824000000,,,-1311853870175924409,0.0,10.36690499869661,,,0,8,0.0,32961,55361927961138,41,33.23231887817383,-559.3641052962555,0.10308318856081478,4,-594279.8477700705,3.4028234663852886E38,1.60537498E9,,,,0,,3,,1.60537498E9
Raw,1933908534,1909824000000,,,-1311853870175924409,0.0,10.36690499869661,,,0,193,0.0,35,9555308,16,35.27915573120117,-257.3045000864896,0.08202895074574235,1,-472481.3209920997,0.0015646166866645217,1.57542003E9,,,,0,,4,,1.57542003E9
Raw,1933908534,1909824000000,,,-1311853870175924409,0.0,10.36690499869661,,,0,194,0.0,35,12466311,7,42.202484130859375,-99.73655759946638,0.03843368619617554,4,-91217.03256474866,3.4028234663852886E38,1.57542003E9,,,,0,,4,,1.57542003E9
Raw,1933908535,1909824000000,,,-1311853870175924409,0.0,10.36690499869661,,,0,6,0.0,16431,44565878651165,8,34.57891845703125,-80.26761039809901,0.09040765171824267,1,-127825.06607840676,0.0017115356167778373,1.56109798E9,,,,0,,5,,1.56109798E9
Raw,1933908535,1909824000000,,,-1311853870175924409,0.0,10.36690499869661,,,0,14,0.0,16431,44565924301434,12,31.3753662109375,143.87997635491365,0.12665469370856547,1,181219.1232318091,0.0023333902936428785,1.56109798E9,,,,0,,5,,1.56109798E9
Raw,1933908535,1909824000000,,,-1311853870175924409,0.0,10.36690499869661,,,0,16,0.0,16431,44565878007857,8,34.57781219482422,-78.1465142782443,0.09030302456777445,1,-126240.4204563933,0.0017117534298449755,1.56109798E9,,,,0,,5,,1.56109798E9
Raw,1933908535,1909824000000,,,-1311853870175924409,0.0,10.36690499869661,,,0,24,0.0,16431,44565924133470,6,43.87824249267578,53.52878575396781,0.030743513668323383,1,-69437.33492736581,6.184414960443974E-4,1.56109798E9,,,,0,,5,,1.56109798E9
Raw,1933908535,1909824000000,,,-1311853870175924409,0.0,10.36690499869661,,,0,25,0.0,16431,44565923405366,9,33.60552978515625,-562.1326914045164,0.0979885519463703,1,-846371.0791927554,0.0019145000260323286,1.56109798E9,,,,0,,5,,1.56109798E9
Raw,1933908535,1909824000000,,,-1311853870175924409,0.0,10.36690499869661,,,0,26,0.0,16431,44565914849860,6,39.28861618041992,441.75628380984153,0.053288270251728,1,711155.7385736298,9.951787069439888E-4,1.56109798E9,,,,0,,5,,1.56109798E9
Raw,1933908536,1909824000000,,,-1311853870175924409,0.0,10.36690499869661,,,0,27,0.0,16431,44565913040420,10,33.02426528930664,139.37864667764717,0.10646109616707966,4,121831.60445216078,3.4028234663852886E38,1.56109798E9,,,,0,,5,,1.56109798E9
Raw,1933908536,1909824000000,,,-1311853870175924409,0.0,10.36690499869661,,,0,33,0.0,16431,44565926100087,6,36.91719436645508,-100.0143892644262,0.06760444968098445,4,-260325.0321603858,3.4028234663852886E38,1.56109798E9,,,,0,,5,,1.56109798E9
Fix,gps,34.486321,109.463928,358.558472,0.323422,3.000000,1627820562999
Raw,1933909539,1910824000000,,,-1311853870175924797,0.0,10.46782667067065,,,0,10,0.0,16431,44580931872048,9,40.20937728881836,-319.9899254732534,0.04766149465790198,1,-758676.896342647,9.349222527816892E-4,1.57542003E9,,,,0,,1,,1.57542003E9
Raw,1933909540,1910824000000,,,-1311853870175924797,0.0,10.46782667067065,,,0,12,0.0,16431,44580924072834,14,36.114070892333984,-448.8249512102159,0.0736825265918094,1,-954846.7467692276,0.0014212229289114475,1.57542003E9,,,,0,,1,,1.57542003E9
Raw,1933909540,1910824000000,,,-1311853870175924797,0.0,10.46782667067065,,,0,15,0.0,16,1910015925473,1000000000,22.78014373779297,415.4895821343855,2.99792458E8,2,524294.2222151251,3.4028234663852886E38,1.57542003E9,,,,0,,1,,1.57542003E9
Raw,1933909540,1910824000000,,,-1311853870175924797,0.0,10.46782667067065,,,0,18,0.0,16431,44580920591421,166,25.242191314697266,565.8180615107844,0.25875004916695166,4,1165115.2180068912,3.4028234663852886E38,1.57542003E9,,,,1,,1,,1.57542003E9
Raw,1933909541,1910824000000,,,-1311853870175924797,0.0,10.46782667067065,,,0,23,0.0,16431,44580931210107,8,41.026832580566406,142.1686024861479,0.04345327650315439,1,95171.70378374045,8.509477484039962E-4,1.57542003E9,,,,0,,1,,1.57542003E9
Raw,1933909541,1910824000000,,,-1311853870175924797,0.0,10.46782667067065,,,0,24,0.0,16431,44580925593651,8,40.901451110839844,475.4781479426406,0.0430454852362428,1,598815.7596700253,8.190174703486264E-4,1.57542003E9,,,,0,,1,,1.57542003E9
Raw,1933909541,1910824000000,,,-1311853870175924797,0.0,10.46782667067065,,,0,25,0.0,16431,44580923552491,8,41.34347915649414,-693.4482724096656,0.04059247198785876,1,-1127962.887417959,7.783802575431764E-4,1.57542003E9,,,,0,,1,,1.57542003E9
Raw,1933909542,1910824000000,,,-1311853870175924797,0.0,10.46782667067065,,,0,31,0.0,16431,44580918761697,60,23.91412925720215,-821.6011718617806,0.3005563425482971,4,-34562.037093760046,3.4028234663852886E38,1.57542003E9,,,,0,,1,,1.57542003E9
Raw,1933909542,1910824000000,,,-1311853870175924797,0.0,10.46782667067065,,,0,32,0.0,16431,44580927395309,12,37.334068298339844,-390.97223070487576,0.0647208458661594,4,-541538.8860565375,3.4028234663852886E38,1.57542003E9,,,,0,,1,,1.57542003E9
Raw,1933909542,1910824000000,,,-1311853870175924797,0.0,10.46782667067065,,,0,10,0.0,32995,55362931144853,36,34.376590728759766,-748.5584458035282,0.09110903805252507,1,-1553161.9807122785,0.0017113498179242015,1.59806246E9,,,,0,,3,,1.59806246E9
Raw,1933909543,1910824000000,,,-1311853870175924797,0.0,10.46782667067065,,,0,9,0.0,32995,55362933724182,33,40.047607421875,-55.739966066719376,0.04885049477018566,1,-408805.78500872356,9.37352713663131E-4,1.59862502E9,,,,0,,3,,1.59862502E9
Raw,1933909543,1910824000000,,,-1311853870175924797,0.0,10.46782667067065,,,0,16,0.0,17,350843,72,20.413915634155273,560.9313529770004,4.2007825875725935,4,524851.529345597,3.4028234663852886E38,1.60143744E9,,,,0,,3,,1.60143744E9
Raw,1933909543,1910824000000,,,-1311853870175924797,0.0,10.46782667067065,,,0,23,0.0,32961,55362924492187,33,36.01683807373047,37.43604243544297,0.07457918809447006,4,-3654.2069268169203,3.4028234663852886E38,1.60368755E9,,,,0,,3,,1.60368755E9
Raw,1933909544,1910824000000,,,-1311853870175924797,0.0,10.46782667067065,,,0,7,0.0,32961,55362932968285,33,46.33464431762695,-157.59947727992096,0.03233267893145343,1,-544062.9131802478,4.534029576461762E-4,1.60481254E9,,,,0,,3,,1.60481254E9
Raw,1933909544,1910824000000,,,-1311853870175924797,0.0,10.46782667067065,,,0,8,0.0,32961,55362927963003,33,35.50067138671875,-559.3389865257982,0.07972028036193379,1,-594839.2264339481,0.0014967595925554633,1.60537498E9,,,,0,,3,,1.60537498E9
Raw,1933909544,1910824000000,,,-1311853870175924797,0.0,10.46782667067065,,,0,193,0.0,35,9556185,16,35.08285903930664,-257.22628084876976,0.08386473536620914,1,-472738.52084714867,0.0016003785422071815,1.57542003E9,,,,0,,4,,1.57542003E9
Raw,1933909545,1910824000000,,,-1311853870175924797,0.0,10.46782667067065,,,0,194,0.0,35,12466667,10,39.13339614868164,-99.7233250857214,0.05377225611199393,1,-91316.73667223664,0.0010039126500487328,1.57542003E9,,,,0,,4,,1.57542003E9
Raw,1933909545,1910824000000,,,-1311853870175924797,0.0,10.46782667067065,,,0,6,0.0,16431,44566878651431,11,32.572120666503906,-80.21296769967881,0.11303364328758919,1,-127905.28712677678,0.0021563824266195297,1.56109798E9,,,,0,,5,,1.56109798E9
Raw,1933909545,1910824000000,,,-1311853870175924797,0.0,10.46782667067065,,,0,14,0.0,16431,44566924300925,10,32.942481994628906,143.98588758855828,0.1058740308460216,1,181363.11160728964,0.0019481913186609745,1.56109798E9,,,,0,,5,,1.56109798E9
Raw,1933909546,1910824000000,,,-1311853870175924797,0.0,10.46782667067065,,,0,16,0.0,16431,44566878008164,9,33.71207046508789,-78.10121017291135,0.09942811136793495,1,-126318.5389013946,0.0018911603838205338,1.56109798E9,,,,0,,5,,1.56109798E9
Raw,1933909546,1910824000000,,,-1311853870175924797,0.0,10.46782667067065,,,0,24,0.0,16431,44566924133301,6,44.117637634277344,53.61279900929654,0.030743484545130553,1,-69383.74233401538,6.016290280967951E-4,1.56109798E9,,,,0,,5,,1.56109798E9
Raw,1933909546,1910824000000,,,-1311853870175924797,0.0,10.46782667067065,,,0,25,0.0,16431,44566923407206,12,31.494199752807617,-561.929525881184,0.12478337047193439,1,-846933.1043985344,0.0023016836494207382,1.56109798E9,,,,0,,5,,1.56109798E9
Raw,1933909547,1910824000000,,,-1311853870175924797,0.0,10.46782667067065,,,0,26,0.0,16431,44566914848369,6,39.063995361328125,441.79902321032114,0.05461406616118819,1,711597.5268035472,0.0010212501510977745,1.56109798E9,,,,0,,5,,1.56109798E9
Raw,1933909548,1910824000000,,,-1311853870175924797,0.0,10.46782667067065,,,0,27,0.0,16431,44566913040015,13,30.75777244567871,139.7810326799696,0.13750296654480149,4,121971.27732914234,3.4028234663852886E38,1.56109798E9,,,,0,,5,,1.56109798E9
Raw,1933909548,1910824000000,,,-1311853870175924797,0.0,10.46782667067065,,,0,33,0.0,16431,44566926100433,6,42.3306999206543,-99.88367452304709,0.03675831212181391,4,-260424.95588024947,3.4028234663852886E38,1.56109798E9,,,,0,,5,,1.56109798E9
Fix,gps,34.486321,109.463931,358.489410,0.306124,3.000000,1627820563999
Raw,1933910500,1911824000000,,,-1311853870175925185,0.0,10.667291335799222,,,0,10,0.0,16431,44581931873152,11,38.03827667236328,-319.88004363342384,0.06058972512374386,1,-758996.8504857211,0.0011388115817680955,1.57542003E9,,,,0,,1,,1.57542003E9
Raw,1933910500,1911824000000,,,-1311853870175925185,0.0,10.667291335799222,,,0,12,0.0,16431,44581924074342,16,35.06147003173828,-448.86540708610846,0.08308123826997188,1,-955295.6686566767,0.0016043247887864709,1.57542003E9,,,,0,,1,,1.57542003E9
Raw,1933910500,1911824000000,,,-1311853870175925185,0.0,10.667291335799222,,,0,15,0.0,16,1911015924025,1000000000,24.48963165283203,415.4895821343855,2.99792458E8,2,524294.2319626808,3.4028234663852886E38,1.57542003E9,,,,0,,1,,1.57542003E9
Raw,1933910500,1911824000000,,,-1311853870175925185,0.0,10.667291335799222,,,0,18,0.0,16431,44581920589990,68,21.413311004638672,565.6994886445416,4.203703560604275,4,1165680.8994854563,3.4028234663852886E38,1.57542003E9,,,,0,,1,,1.57542003E9
Raw,1933910501,1911824000000,,,-1311853870175925185,0.0,10.667291335799222,,,0,23,0.0,16431,44581931209624,7,41.604461669921875,142.18670879117565,0.04078718133420489,1,95313.81444630957,7.961986120790243E-4,1.57542003E9,,,,0,,1,,1.57542003E9
Raw,1933910501,1911824000000,,,-1311853870175925185,0.0,10.667291335799222,,,0,24,0.0,16431,44581925592088,7,41.47454071044922,475.54968701888197,0.04036100917216173,1,599291.2246566201,7.66723183915019E-4,1.57542003E9,,,,0,,1,,1.57542003E9
Raw,1933910501,1911824000000,,,-1311853870175925185,0.0,10.667291335799222,,,0,25,0.0,16431,44581923554855,8,40.473670959472656,-693.5531782108428,0.044801035460464184,1,-1128656.453166312,9.069032385013998E-4,1.57542003E9,,,,0,,1,,1.57542003E9
Raw,1933910501,1911824000000,,,-1311853870175925185,0.0,10.667291335799222,,,0,31,0.0,16431,44581918764491,61,22.739253997802734,-821.1218361932438,4.203375250691051,4,-35383.50105503729,3.4028234663852886E38,1.57542003E9,,,,0,,1,,1.57542003E9
Raw,1933910501,1911824000000,,,-1311853870175925185,0.0,10.667291335799222,,,0,32,0.0,16431,44581927396569,10,39.30009841918945,-390.7705988920868,0.05188072137953914,4,-541929.7682357179,3.4028234663852886E38,1.57542003E9,,,,0,,1,,1.57542003E9
Raw,1933910501,1911824000000,,,-1311853870175925185,0.0,10.667291335799222,,,0,10,0.0,32995,55363931147316,33,35.8746337890625,-748.4718763639603,0.0769939833929495,4,-1552413.908735215,3.4028234663852886E38,1.59806246E9,,,,0,,3,,1.59806246E9
Raw,1933910502,1911824000000,,,-1311853870175925185,0.0,10.667291335799222,,,0,9,0.0,32995,55363933724313,33,37.457130432128906,-55.6744638455896,0.06496750682805733,1,-408861.6289655614,0.0011982519645243883,1.59862502E9,,,,0,,3,,1.59862502E9
Raw,1933910502,1911824000000,,,-1311853870175925185,0.0,10.667291335799222,,,0,16,0.0,17,349201,67,21.393871307373047,560.9457698561096,4.200782321303402,4,525412.8685143996,3.4028234663852886E38,1.60143744E9,,,,0,,3,,1.60143744E9
Raw,1933910502,1911824000000,,,-1311853870175925185,0.0,10.667291335799222,,,0,23,0.0,32961,55363924492055,33,36.45329666137695,37.837738268020814,0.07096380997387303,4,-3616.5645932382276,3.4028234663852886E38,1.60368755E9,,,,0,,3,,1.60368755E9
Raw,1933910502,1911824000000,,,-1311853870175925185,0.0,10.667291335799222,,,0,7,0.0,32961,55363932968818,33,46.53374481201172,-157.56253189705023,0.03233277462194416,1,-544220.5174070798,4.4312799582257867E-4,1.60481254E9,,,,0,,3,,1.60481254E9
Raw,1933910502,1911824000000,,,-1311853870175925185,0.0,10.667291335799222,,,0,8,0.0,32961,55363927964926,33,37.18454360961914,-559.2612444424697,0.06592400817107047,1,-595398.4781931238,0.0012329868040978909,1.60537498E9,,,,0,,3,,1.60537498E9
Raw,1933910502,1911824000000,,,-1311853870175925185,0.0,10.667291335799222,,,0,193,0.0,35,9557024,13,36.76933670043945,-257.2782736361953,0.06936810031326857,1,-472995.82717394107,0.0013179497327655554,1.57542003E9,,,,0,,4,,1.57542003E9
Raw,1933910503,1911824000000,,,-1311853870175925185,0.0,10.667291335799222,,,0,194,0.0,35,12466991,18,34.0092887878418,-99.7471913259015,0.09519559614945527,1,-91416.48415314192,0.0018109283410012722,1.57542003E9,,,,0,,4,,1.57542003E9
Raw,1933910503,1911824000000,,,-1311853870175925185,0.0,10.667291335799222,,,0,6,0.0,16431,44567878651698,9,33.79322814941406,-80.10422762214279,0.09864930726619936,1,-127985.47324515376,0.0018735724734142423,1.56109798E9,,,,0,,5,,1.56109798E9
Raw,1933910503,1911824000000,,,-1311853870175925185,0.0,10.667291335799222,,,0,14,0.0,16431,44567924300462,7,36.12150192260742,143.89815934546857,0.07366108360097462,1,181507.0225154797,0.0014330351259559393,1.56109798E9,,,,0,,5,,1.56109798E9
Raw,1933910503,1911824000000,,,-1311853870175925185,0.0,10.667291335799222,,,0,16,0.0,16431,44567878008388,7,36.19444274902344,-78.0503250653228,0.07551727941915881,1,-126396.64729208156,0.0014210512163117528,1.56109798E9,,,,0,,5,,1.56109798E9
Raw,1933910503,1911824000000,,,-1311853870175925185,0.0,10.667291335799222,,,0,24,0.0,16431,44567924133134,6,41.80023956298828,53.67421559595064,0.038650192172126535,1,-69330.11038305616,7.855947478674352E-4,1.56109798E9,,,,0,,5,,1.56109798E9
Raw,1933910503,1911824000000,,,-1311853870175925185,0.0,10.667291335799222,,,0,25,0.0,16431,44567923409101,14,30.356225967407227,-561.816815197463,0.1421655647540757,1,-847495.1058671678,0.00262388214468956,1.56109798E9,,,,0,,5,,1.56109798E9
Raw,1933910503,1911824000000,,,-1311853870175925185,0.0,10.667291335799222,,,0,26,0.0,16431,44567914846888,6,39.33191680908203,441.8233240018219,0.053036038439087385,1,712039.3141941227,9.902298916131258E-4,1.56109798E9,,,,0,,5,,1.56109798E9
Raw,1933910504,1911824000000,,,-1311853870175925185,0.0,10.667291335799222,,,0,27,0.0,16431,44567913039516,10,32.65680694580078,140.06626023799487,0.110960063637213,4,122111.17146677345,3.4028234663852886E38,1.56109798E9,,,,0,,5,,1.56109798E9
Raw,1933910504,1911824000000,,,-1311853870175925185,0.0,10.667291335799222,,,0,33,0.0,16431,44567926100768,6,43.0461311340332,-99.86642880004655,0.03393880013349446,4,-260524.8691551674,3.4028234663852886E38,1.56109798E9,,,,0,,5,,1.56109798E9
Fix,gps,34.486321,109.463935,358.440887,0.293497,3.000000,1627820564999
Raw,1933911507,1912824000000,,,-1311853870175925574,0.0,11.143232281625028,,,0,10,0.0,16431,44582931874181,12,37.72117614746094,-319.51396396791233,0.06276337206468238,1,-759316.6454586891,0.0011811550939455628,1.57542003E9,,,,0,,1,,1.57542003E9
Raw,1933911508,1912824000000,,,-1311853870175925574,0.0,11.143232281625028,,,0,12,0.0,16431,44582924075800,21,33.01288986206055,-448.8247126330202,0.10498499129897004,1,-955744.6848879823,0.002031052717939019,1.57542003E9,,,,0,,1,,1.57542003E9
Raw,1933911508,1912824000000,,,-1311853870175925574,0.0,11.143232281625028,,,0,15,0.0,16,1912015922640,1000000000,18.72429656982422,415.4895821343855,2.99792458E8,2,524294.2287134955,3.4028234663852886E38,1.57542003E9,,,,0,,1,,1.57542003E9
Raw,1933911509,1912824000000,,,-1311853870175925574,0.0,11.143232281625028,,,0,18,0.0,16431,44582920587908,166,24.878925323486328,566.0734754399664,0.26964230634527253,4,1166245.6687511946,3.4028234663852886E38,1.57542003E9,,,,1,,1,,1.57542003E9
Raw,1933911509,1912824000000,,,-1311853870175925574,0.0,11.143232281625028,,,0,23,0.0,16431,44582931209156,9,40.266822814941406,142.20319617951856,0.047242141483437056,1,95455.97266281591,8.810986764729023E-4,1.57542003E9,,,,0,,1,,1.57542003E9
Raw,1933911509,1912824000000,,,-1311853870175925574,0.0,11.143232281625028,,,0,24,0.0,16431,44582925590474,8,41.11936569213867,475.30119182837416,0.04200335338539854,1,599766.4522272986,8.419303921982646E-4,1.57542003E9,,,,0,,1,,1.57542003E9
Raw,1933911510,1912824000000,,,-1311853870175925574,0.0,11.143232281625028,,,0,25,0.0,16431,44582923557140,7,41.92490005493164,-693.6644915138463,0.038006419834173216,1,-1129350.044170835,7.673604995943606E-4,1.57542003E9,,,,0,,1,,1.57542003E9
Raw,1933911511,1912824000000,,,-1311853870175925574,0.0,11.143232281625028,,,0,31,0.0,16431,44582918767241,62,22.54280662536621,-821.4333498458623,4.2033757832294345,4,-36204.86446577063,3.4028234663852886E38,1.57542003E9,,,,0,,1,,1.57542003E9
Raw,1933911511,1912824000000,,,-1311853870175925574,0.0,11.143232281625028,,,0,32,0.0,16431,44582927397906,10,38.80082702636719,-390.578885074146,0.05487177313408076,1,-542320.4282216002,0.0010430963011458516,1.57542003E9,,,,0,,1,,1.57542003E9
Raw,1933911511,1912824000000,,,-1311853870175925574,0.0,11.143232281625028,,,0,10,0.0,32995,55364931149839,33,35.703468322753906,-748.28162809165,0.07848682993647998,4,-1551665.6221575646,3.4028234663852886E38,1.59806246E9,,,,0,,3,,1.59806246E9
Raw,1933911512,1912824000000,,,-1311853870175925574,0.0,11.143232281625028,,,0,9,0.0,32995,55364933724560,33,37.25909423828125,-55.45583766791697,0.06640886772712129,1,-408917.4438782356,0.0012258854694664478,1.59862502E9,,,,0,,3,,1.59862502E9
Raw,1933911512,1912824000000,,,-1311853870175925574,0.0,11.143232281625028,,,0,16,0.0,17,347420,64,22.101959228515625,560.8446131251499,4.20078205503421,4,525973.9471951805,3.4028234663852886E38,1.60143744E9,,,,0,,3,,1.60143744E9
Raw,1933911512,1912824000000,,,-1311853870175925574,0.0,11.143232281625028,,,0,23,0.0,32961,55364924491931,33,36.5654411315918,38.17132031123782,0.07006382010631756,1,-3578.5320605541697,0.0013254708610475063,1.60368755E9,,,,0,,3,,1.60368755E9
Raw,1933911513,1912824000000,,,-1311853870175925574,0.0,11.143232281625028,,,0,7,0.0,32961,55364932969365,33,46.81281280517578,-157.64528410148762,0.032332874472891,1,-544378.2284376982,4.291172663215548E-4,1.60481254E9,,,,0,,3,,1.60481254E9
Raw,1933911513,1912824000000,,,-1311853870175925574,0.0,11.143232281625028,,,0,8,0.0,32961,55364927966767,33,37.66624450683594,-559.045025338289,0.062445159578458365,1,-595957.5917837957,0.0011664694175124168,1.60537498E9,,,,0,,3,,1.60537498E9
Raw,1933911513,1912824000000,,,-1311853870175925574,0.0,11.143232281625028,,,0,193,0.0,35,9557876,12,37.64440155029297,-257.4855460955388,0.06288496139474575,1,-473253.3217077831,0.0011916416697204113,1.57542003E9,,,,0,,4,,1.57542003E9
Raw,1933911514,1912824000000,,,-1311853870175925574,0.0,11.143232281625028,,,0,194,0.0,35,12467325,28,30.32480812072754,-99.81896897933854,0.14430785017679293,4,-91516.35897932007,3.4028234663852886E38,1.57542003E9,,,,0,,4,,1.57542003E9
Raw,1933911514,1912824000000,,,-1311853870175925574,0.0,11.143232281625028,,,0,6,0.0,16431,44568878651973,8,35.062339782714844,-80.0690119239406,0.08569513635645859,1,-128065.68029744946,0.0016188811277970672,1.56109798E9,,,,0,,5,,1.56109798E9
Raw,1933911514,1912824000000,,,-1311853870175925574,0.0,11.143232281625028,,,0,14,0.0,16431,44568924299971,6,38.98387908935547,143.75908588162724,0.05319799251441251,1,181650.75757304943,0.0010307134361937642,1.56109798E9,,,,0,,5,,1.56109798E9
Raw,1933911515,1912824000000,,,-1311853870175925574,0.0,11.143232281625028,,,0,16,0.0,16431,44568878008651,6,36.84083938598633,-78.1092451120366,0.07033373385746183,1,-126474.73584558108,0.0013191370526328683,1.56109798E9,,,,0,,5,,1.56109798E9
Raw,1933911515,1912824000000,,,-1311853870175925574,0.0,11.143232281625028,,,0,24,0.0,16431,44568924132952,6,42.30030059814453,53.57278194503169,0.036529432949366475,1,-69276.58900459924,7.416442385874689E-4,1.56109798E9,,,,0,,5,,1.56109798E9
Raw,1933911515,1912824000000,,,-1311853870175925574,0.0,11.143232281625028,,,0,25,0.0,16431,44568923410986,17,28.50492286682129,-561.9516453954673,0.1757926177501543,4,-848056.9084176457,3.4028234663852886E38,1.56109798E9,,,,0,,5,,1.56109798E9
Raw,1933911516,1912824000000,,,-1311853870175925574,0.0,11.143232281625028,,,0,26,0.0,16431,44568914845409,6,40.25111770629883,441.6353251716421,0.04797808040578366,1,712480.8158246877,8.907914161682129E-4,1.56109798E9,,,,0,,5,,1.56109798E9
Raw,1933911516,1912824000000,,,-1311853870175925574,0.0,11.143232281625028,,,0,27,0.0,16431,44568913039044,13,30.599365234375,141.0549070955803,0.13999031187707545,4,122251.84917546317,3.4028234663852886E38,1.56109798E9,,,,0,,5,,1.56109798E9
Raw,1933911516,1912824000000,,,-1311853870175925574,0.0,11.143232281625028,,,0,33,0.0,16431,44568926101099,6,42.40022277832031,-99.86802215488899,0.0364741363270954,4,-260624.82820904,3.4028234663852886E38,1.56109798E9,,,,0,,5,,1.56109798E9
Fix,gps,34.486322,109.463938,358.369263,0.355062,3.000000,1627820565999
Raw,1933912478,1913824000000,,,-1311853870175925962,0.0,11.011467312875002,,,0,10,0.0,16431,44583931875272,10,39.24824905395508,-319.5321639996955,0.05298898368038707,4,-759636.3160070158,3.4028234663852886E38,1.57542003E9,,,,0,,1,,1.57542003E9
Raw,1933912478,1913824000000,,,-1311853870175925962,0.0,11.011467312875002,,,0,12,0.0,16431,44583924077357,26,30.964277267456055,-448.98490017867744,0.13271535495007836,4,-956193.9624900048,3.4028234663852886E38,1.57542003E9,,,,0,,1,,1.57542003E9
Raw,1933912478,1913824000000,,,-1311853870175925962,0.0,11.011467312875002,,,0,15,0.0,16,1913015921315,1000000000,26.631000518798828,415.4895821343855,2.99792458E8,2,524294.2254643103,3.4028234663852886E38,1.57542003E9,,,,0,,1,,1.57542003E9
Raw,1933912478,1913824000000,,,-1311853870175925962,0.0,11.011467312875002,,,0,18,0.0,16431,44583920586026,39,27.631101608276367,566.49432561311,0.19742239642283654,4,1166812.222278897,3.4028234663852886E38,1.57542003E9,,,,0,,1,,1.57542003E9
Raw,1933912479,1913824000000,,,-1311853870175925962,0.0,11.011467312875002,,,0,23,0.0,16431,44583931208678,10,39.13518142700195,142.18155381962657,0.05353538470334285,4,95598.0827411462,3.4028234663852886E38,1.57542003E9,,,,0,,1,,1.57542003E9
Raw,1933912479,1913824000000,,,-1311853870175925962,0.0,11.011467312875002,,,0,24,0.0,16431,44583925588909,8,41.28834533691406,474.8603693357081,0.041213170436178836,1,600241.5647567876,8.257091976702213E-4,1.57542003E9,,,,0,,1,,1.57542003E9
Raw,1933912479,1913824000000,,,-1311853870175925962,0.0,11.011467312875002,,,0,25,0.0,16431,44583923559446,7,41.86003112792969,-693.9905924578566,0.03828695522978803,1,-1130043.87339161,7.73112871684134E-4,1.57542003E9,,,,0,,1,,1.57542003E9
Raw,1933912479,1913824000000,,,-1311853870175925962,0.0,11.011467312875002,,,0,31,0.0,16431,44583918769886,57,24.229984283447266,-821.9279544549213,0.2899451491435181,4,-37026.30135390606,3.4028234663852886E38,1.57542003E9,,,,0,,1,,1.57542003E9
Raw,1933912479,1913824000000,,,-1311853870175925962,0.0,11.011467312875002,,,0,32,0.0,16431,44583927399189,11,37.96282958984375,-390.1512184096978,0.0602949276845548,1,-542710.7616737805,0.001148746581748128,1.57542003E9,,,,0,,1,,1.57542003E9
Raw,1933912479,1913824000000,,,-1311853870175925962,0.0,11.011467312875002,,,0,10,0.0,32995,55365931152289,35,34.400699615478516,-748.5444719963539,0.09086338808146394,4,-1550916.9613092118,3.4028234663852886E38,1.59806246E9,,,,0,,3,,1.59806246E9
Raw,1933912479,1913824000000,,,-1311853870175925962,0.0,11.011467312875002,,,0,9,0.0,32995,55365933724727,33,38.230934143066406,-55.950301686842835,0.05964051289985034,1,-408973.2538568677,0.0010961196385324001,1.59862502E9,,,,0,,3,,1.59862502E9
Raw,1933912479,1913824000000,,,-1311853870175925962,0.0,11.011467312875002,,,0,16,0.0,17,345512,128,23.33072280883789,560.9283537208264,0.31860975985786166,4,526534.908933662,3.4028234663852886E38,1.60143744E9,,,,0,,3,,1.60143744E9
Raw,1933912479,1913824000000,,,-1311853870175925962,0.0,11.011467312875002,,,0,23,0.0,32961,55365924491773,33,36.471702575683594,38.50008820747098,0.07081525672770561,4,-3539.9532489114035,3.4028234663852886E38,1.60368755E9,,,,0,,3,,1.60368755E9
Raw,1933912480,1913824000000,,,-1311853870175925962,0.0,11.011467312875002,,,0,7,0.0,32961,55365932969876,33,46.36788558959961,-157.90408923509358,0.03233296600292561,1,-544535.9486684157,4.516711342148483E-4,1.60481254E9,,,,0,,3,,1.60481254E9
Raw,1933912480,1913824000000,,,-1311853870175925962,0.0,11.011467312875002,,,0,8,0.0,32961,55365927968627,33,38.74799346923828,-558.7322165523226,0.05530109892186175,1,-596516.427066882,0.0010298783890902996,1.60537498E9,,,,0,,3,,1.60537498E9
Raw,1933912480,1913824000000,,,-1311853870175925962,0.0,11.011467312875002,,,0,193,0.0,35,9558744,8,40.632591247558594,-257.90803222659554,0.045080331040155686,1,-473511.0102086704,8.447655709460378E-4,1.57542003E9,,,,0,,4,,1.57542003E9
Raw,1933912480,1913824000000,,,-1311853870175925962,0.0,11.011467312875002,,,0,194,0.0,35,12467652,33,28.9078426361084,-100.14455016588681,0.16948108932560768,4,-91616.52953631185,3.4028234663852886E38,1.57542003E9,,,,0,,4,,1.57542003E9
Raw,1933912480,1913824000000,,,-1311853870175925962,0.0,11.011467312875002,,,0,6,0.0,16431,44569878652224,8,34.706451416015625,-80.14423190548644,0.08913900383402629,1,-128145.82024710314,0.0016865889774635434,1.56109798E9,,,,0,,5,,1.56109798E9
Raw,1933912481,1913824000000,,,-1311853870175925962,0.0,11.011467312875002,,,0,14,0.0,16431,44569924299504,6,38.93154525756836,143.32090477934173,0.05351471971780222,1,181794.3137482611,0.0010369422379881144,1.56109798E9,,,,0,,5,,1.56109798E9
Raw,1933912481,1913824000000,,,-1311853870175925962,0.0,11.011467312875002,,,0,16,0.0,16431,44569878008914,7,35.631744384765625,-78.08024094153569,0.0803547665618306,1,-126552.72401829182,0.00151615880895406,1.56109798E9,,,,0,,5,,1.56109798E9
Raw,1933912481,1913824000000,,,-1311853870175925962,0.0,11.011467312875002,,,0,24,0.0,16431,44569924132772,6,42.40668487548828,53.15820294388823,0.036093762466004764,1,-69223.15295946307,7.326161721721292E-4,1.56109798E9,,,,0,,5,,1.56109798E9
Raw,1933912481,1913824000000,,,-1311853870175925962,0.0,11.011467312875002,,,0,25,0.0,16431,44569923412855,16,28.91590118408203,-561.5429285768457,0.16769726880206104,4,-848618.6358757501,3.4028234663852886E38,1.56109798E9,,,,0,,5,,1.56109798E9
Raw,1933912481,1913824000000,,,-1311853870175925962,0.0,11.011467312875002,,,0,26,0.0,16431,44569914843948,6,39.213966369628906,441.0391889246016,0.053724094671966094,1,712922.1759218792,0.0010037684114649892,1.56109798E9,,,,0,,5,,1.56109798E9
Raw,1933912481,1913824000000,,,-1311853870175925962,0.0,11.011467312875002,,,0,27,0.0,16431,44569913038565,15,29.760005950927734,141.15227215325183,0.15395538209357884,4,122392.4275011391,3.4028234663852886E38,1.56109798E9,,,,0,,5,,1.56109798E9
Raw,1933912485,1913824000000,,,-1311853870175925962,0.0,11.011467312875002,,,0,33,0.0,16431,44569926101419,6,42.993690490722656,-100.25773800399907,0.034137790589186534,1,-260724.8094873621,6.847407785244286E-4,1.56109798E9,,,,0,,5,,1.56109798E9
Fix,gps,34.486322,109.463945,358.349274,0.590921,3.000000,1627820566999
Raw,1933913529,1914824000000,,,-1311853870175926349,0.0,11.188045445383116,,,0,10,0.0,16431,44584931876323,11,38.41794967651367,-319.7803183656381,0.05809022293869162,4,-759955.9097380352,3.4028234663852886E38,1.57542003E9,,,,0,,1,,1.57542003E9
Raw,1933913529,1914824000000,,,-1311853870175926349,0.0,11.188045445383116,,,0,12,0.0,16431,44584924078802,18,34.17847442626953,-449.2769868310779,0.09189373336012446,4,-956643.534548392,3.4028234663852886E38,1.57542003E9,,,,0,,1,,1.57542003E9
Raw,1933913530,1914824000000,,,-1311853870175926349,0.0,11.188045445383116,,,0,15,0.0,16,1914015919871,1000000000,34.512577056884766,414.3756652078505,2.99792458E8,2,524294.2055334472,3.4028234663852886E38,1.57542003E9,,,,0,,1,,1.57542003E9
Raw,1933913530,1914824000000,,,-1311853870175926349,0.0,11.188045445383116,,,0,18,0.0,16431,44584920584191,56,24.518848419189453,566.9503147989287,0.28089798768645724,4,1167378.8996493819,3.4028234663852886E38,1.57542003E9,,,,0,,1,,1.57542003E9
Raw,1933913530,1914824000000,,,-1311853870175926349,0.0,11.188045445383116,,,0,23,0.0,16431,44584931208195,7,41.95547103881836,142.14957595479405,0.039251378081250815,4,95740.24390620433,3.4028234663852886E38,1.57542003E9,,,,0,,1,,1.57542003E9
Raw,1933913531,1914824000000,,,-1311853870175926349,0.0,11.188045445383116,,,0,24,0.0,16431,44584925587306,7,41.45928955078125,475.3399776638971,0.040429307219803146,1,600716.7398025988,8.096178062260151E-4,1.57542003E9,,,,0,,1,,1.57542003E9
Raw,1933913531,1914824000000,,,-1311853870175926349,0.0,11.188045445383116,,,0,25,0.0,16431,44584923561769,8,40.76521301269531,-693.7518107674578,0.04334459706842675,1,-1130737.690629117,8.76968028023839E-4,1.57542003E9,,,,0,,1,,1.57542003E9
Raw,1933913531,1914824000000,,,-1311853870175926349,0.0,11.188045445383116,,,0,31,0.0,16431,44584918772529,63,22.216594696044922,-821.5088084046038,4.203376848306201,4,-37847.46151492504,3.4028234663852886E38,1.57542003E9,,,,0,,1,,1.57542003E9
Raw,1933913532,1914824000000,,,-1311853870175926349,0.0,11.188045445383116,,,0,32,0.0,16431,44584927400506,16,35.395687103271484,-390.34017154866024,0.08057107699634403,1,-543101.0358218409,0.0015437658876180649,1.57542003E9,,,,0,,1,,1.57542003E9
Raw,1933913532,1914824000000,,,-1311853870175926349,0.0,11.188045445383116,,,0,10,0.0,32995,55366931154820,33,36.292259216308594,-748.1313244583844,0.07347509457065288,4,-1550167.8563096425,3.4028234663852886E38,1.59806246E9,,,,0,,3,,1.59806246E9
Raw,1933913532,1914824000000,,,-1311853870175926349,0.0,11.188045445383116,,,0,9,0.0,32995,55366933724896,33,39.51216506958008,-55.79184382585416,0.05179979218712194,4,-409028.8315377768,3.4028234663852886E38,1.59862502E9,,,,0,,3,,1.59862502E9
Raw,1933913533,1914824000000,,,-1311853870175926349,0.0,11.188045445383116,,,0,16,0.0,17,343677,53,30.875036239624023,561.2869352459029,0.1341262737917232,4,527096.1336284281,3.4028234663852886E38,1.60143744E9,,,,0,,3,,1.60143744E9
Raw,1933913533,1914824000000,,,-1311853870175926349,0.0,11.188045445383116,,,0,23,0.0,32961,55366924491651,35,34.553253173828125,38.80936093857309,0.08811830249264846,4,-3501.1806431774435,3.4028234663852886E38,1.60368755E9,,,,0,,3,,1.60368755E9
Raw,1933913533,1914824000000,,,-1311853870175926349,0.0,11.188045445383116,,,0,7,0.0,32961,55366932970412,33,45.50125503540039,-157.3819971248489,0.032333061693416335,1,-544693.588340504,4.990610759705305E-4,1.60481254E9,,,,0,,3,,1.60481254E9
Raw,1933913534,1914824000000,,,-1311853870175926349,0.0,11.188045445383116,,,0,8,0.0,32961,55366927970523,33,37.22624969482422,-558.6740377990382,0.06561609281373976,1,-597075.1991851032,0.0012270805891603231,1.60537498E9,,,,0,,3,,1.60537498E9
Raw,1933913534,1914824000000,,,-1311853870175926349,0.0,11.188045445383116,,,0,193,0.0,35,9559615,10,38.718055725097656,-257.58794683616156,0.055773256605382765,1,-473768.7140825856,0.0010530836880207062,1.57542003E9,,,,0,,4,,1.57542003E9
Raw,1933913534,1914824000000,,,-1311853870175926349,0.0,11.188045445383116,,,0,194,0.0,35,12467998,22,32.44671630859375,-100.35396129937709,0.11351639765284405,4,-91716.76280938048,3.4028234663852886E38,1.57542003E9,,,,0,,4,,1.57542003E9
Raw,1933913535,1914824000000,,,-1311853870175926349,0.0,11.188045445383116,,,0,6,0.0,16431,44570878652492,9,34.11451721191406,-79.99750693015574,0.09518889781510448,1,-128225.96411124319,0.0018055352848023176,1.56109798E9,,,,0,,5,,1.56109798E9
Raw,1933913535,1914824000000,,,-1311853870175926349,0.0,11.188045445383116,,,0,14,0.0,16431,44570924299012,6,37.234920501708984,143.72314593122394,0.0648916533921047,1,181937.87618905527,0.0012606247328221798,1.56109798E9,,,,0,,5,,1.56109798E9
Raw,1933913536,1914824000000,,,-1311853870175926349,0.0,11.188045445383116,,,0,16,0.0,16431,44570878009178,8,35.29808807373047,-77.86390254875715,0.08337472516548361,1,-126630.68379479829,0.0015755330678075552,1.56109798E9,,,,0,,5,,1.56109798E9
Raw,1933913536,1914824000000,,,-1311853870175926349,0.0,11.188045445383116,,,0,24,0.0,16431,44570924132584,6,44.11235809326172,53.66077432715946,0.03074335557099088,1,-69169.60265266807,6.019948050379753E-4,1.56109798E9,,,,0,,5,,1.56109798E9
Raw,1933913536,1914824000000,,,-1311853870175926349,0.0,11.188045445383116,,,0,25,0.0,16431,44570923414720,10,33.415199279785156,-561.6575478781319,0.10014752079812272,4,-849180.3531804312,3.4028234663852886E38,1.56109798E9,,,,0,,5,,1.56109798E9
Raw,1933913537,1914824000000,,,-1311853870175926349,0.0,11.188045445383116,,,0,26,0.0,16431,44570914842478,6,39.93577575683594,441.59595993435823,0.049652680635307256,1,713363.6048235183,9.237260092049837E-4,1.56109798E9,,,,0,,5,,1.56109798E9
Raw,1933913538,1914824000000,,,-1311853870175926349,0.0,11.188045445383116,,,0,27,0.0,16431,44570913038103,14,30.49244499206543,140.72412833441228,0.14169496724159913,4,122532.48919642484,3.4028234663852886E38,1.56109798E9,,,,0,,5,,1.56109798E9
Raw,1933913538,1914824000000,,,-1311853870175926349,0.0,11.188045445383116,,,0,33,0.0,16431,44570926101753,6,41.967166900634766,-99.63517933253928,0.03828274900865222,1,-260824.73143968201,7.706412579864264E-4,1.56109798E9,,,,0,,5,,1.56109798E9
Fix,gps,34.486322,109.463954,358.352417,0.811831,3.000000,1627820567999
Raw,1933914544,1915824000000,,,-1311853870175926737,0.0,11.300389706419205,,,0,10,0.0,16431,44585931877403,11,38.35307693481445,-319.7776258515728,0.05850990062873379,4,-760275.3917859825,3.4028234663852886E38,1.57542003E9,,,,0,,1,,1.57542003E9
Raw,1933914544,1915824000000,,,-1311853870175926737,0.0,11.300389706419205,,,0,12,0.0,16431,44585924080307,19,33.765838623046875,-449.32995096851437,0.09632922059080162,4,-957092.4656539352,3.4028234663852886E38,1.57542003E9,,,,0,,1,,1.57542003E9
Raw,1933914545,1915824000000,,,-1311853870175926737,0.0,11.300389706419205,,,0,15,0.0,17,918466,21,32.66448974609375,414.49065941615845,0.11138187564124397,4,524625.7227307159,3.4028234663852886E38,1.57542003E9,,,,0,,1,,1.57542003E9
Raw,1933914545,1915824000000,,,-1311853870175926737,0.0,11.300389706419205,,,0,18,0.0,16,1915020582395,1000000000,19.0937557220459,566.4247974018035,2.99792458E8,2,1048587.3130273803,3.4028234663852886E38,1.57542003E9,,,,0,,1,,1.57542003E9
Raw,1933914546,1915824000000,,,-1311853870175926737,0.0,11.300389706419205,,,0,23,0.0,16431,44585931207741,8,41.22330093383789,142.193968354415,0.042526102215320605,4,95882.49917221266,3.4028234663852886E38,1.57542003E9,,,,0,,1,,1.57542003E9
Raw,1933914546,1915824000000,,,-1311853870175926737,0.0,11.300389706419205,,,0,24,0.0,16431,44585925585735,7,41.99883270263672,475.39413468731186,0.03805461871830612,1,601191.8139655489,7.608564919792116E-4,1.57542003E9,,,,0,,1,,1.57542003E9
Raw,1933914547,1915824000000,,,-1311853870175926737,0.0,11.300389706419205,,,0,25,0.0,16431,44585923564074,8,41.335540771484375,-693.7393365883704,0.04063108518109462,1,-1131431.4553165562,8.212350658141077E-4,1.57542003E9,,,,0,,1,,1.57542003E9
Raw,1933914547,1915824000000,,,-1311853870175926737,0.0,11.300389706419205,,,0,31,0.0,16431,44585918775269,69,21.086769104003906,-821.2019299660724,4.203377114575392,4,-38667.73053863581,3.4028234663852886E38,1.57542003E9,,,,0,,1,,1.57542003E9
Raw,1933914547,1915824000000,,,-1311853870175926737,0.0,11.300389706419205,,,0,32,0.0,16431,44585927401793,15,35.7939338684082,-390.33976255918196,0.07702019426649609,1,-543491.218608861,0.0014745823573321104,1.57542003E9,,,,0,,1,,1.57542003E9
Raw,1933914548,1915824000000,,,-1311853870175926737,0.0,11.300389706419205,,,0,10,0.0,32995,55367931157325,33,37.43148422241211,-748.3038498533028,0.06469057438744114,4,-1549419.717357743,3.4028234663852886E38,1.59806246E9,,,,0,,3,,1.59806246E9
Raw,1933914548,1915824000000,,,-1311853870175926737,0.0,11.300389706419205,,,0,9,0.0,32995,55367933725101,33,37.805320739746094,-55.363214332009164,0.0625118225668452,4,-409084.11263578,3.4028234663852886E38,1.59862502E9,,,,0,,3,,1.59862502E9
Raw,1933914548,1915824000000,,,-1311853870175926737,0.0,11.300389706419205,,,0,16,0.0,99,1924341805,33,36.45240783691406,561.3038401443382,0.07094395627727551,4,527657.2821128276,3.4028234663852886E38,1.60143744E9,,,,0,,3,,1.60143744E9
Raw,1933914549,1915824000000,,,-1311853870175926737,0.0,11.300389706419205,,,0,23,0.0,32961,55367924491489,33,34.92465591430664,38.99479506389957,0.08446363302446824,4,-3462.151549909794,3.4028234663852886E38,1.60368755E9,,,,0,,3,,1.60368755E9
Raw,1933914549,1915824000000,,,-1311853870175926737,0.0,11.300389706419205,,,0,7,0.0,32961,55367932970927,33,45.134437561035156,-157.65750266215105,0.032333155303679,1,-544851.2700812826,5.205884808674455E-4,1.60481254E9,,,,0,,3,,1.60481254E9
Raw,1933914549,1915824000000,,,-1311853870175926737,0.0,11.300389706419205,,,0,8,0.0,32961,55367927972377,33,37.12336730957031,-558.853175190522,0.0663811757311965,1,-597633.9501099937,0.0012417015386745334,1.60537498E9,,,,0,,3,,1.60537498E9
Raw,1933914550,1915824000000,,,-1311853870175926737,0.0,11.300389706419205,,,0,193,0.0,35,9560469,11,38.589324951171875,-257.7244641157637,0.05658048494331999,1,-474026.50763228064,0.001068807439878583,1.57542003E9,,,,0,,4,,1.57542003E9
Raw,1933914550,1915824000000,,,-1311853870175926737,0.0,11.300389706419205,,,0,194,0.0,35,12468313,23,31.890296936035156,-100.81409150366329,0.12087795031349174,4,-91816.83403687384,3.4028234663852886E38,1.57542003E9,,,,0,,4,,1.57542003E9
Raw,1933914550,1915824000000,,,-1311853870175926737,0.0,11.300389706419205,,,0,6,0.0,16431,44571878652774,10,33.05976867675781,-79.5814368215394,0.10704593148365821,4,-128306.11104007317,3.4028234663852886E38,1.56109798E9,,,,0,,5,,1.56109798E9
Raw,1933914551,1915824000000,,,-1311853870175926737,0.0,11.300389706419205,,,0,14,0.0,16431,44571924298531,6,36.7310791015625,143.71651689343025,0.06872084983400017,1,182081.4270524007,0.001335912267677486,1.56109798E9,,,,0,,5,,1.56109798E9
Raw,1933914551,1915824000000,,,-1311853870175926737,0.0,11.300389706419205,,,0,16,0.0,16431,44571878009439,8,35.010498046875,-78.09431699607961,0.08607248972640719,1,-126708.6720925274,0.0016285721212625504,1.56109798E9,,,,0,,5,,1.56109798E9
Raw,1933914551,1915824000000,,,-1311853870175926737,0.0,11.300389706419205,,,0,24,0.0,16431,44571924132412,6,43.135963439941406,53.672298457771234,0.03324683723232047,1,-69116.0555403551,6.736161885783076E-4,1.56109798E9,,,,0,,5,,1.56109798E9
Raw,1933914552,1915824000000,,,-1311853870175926737,0.0,11.300389706419205,,,0,25,0.0,16431,44571923416596,8,34.594200134277344,-561.8753347753127,0.0875142874733636,4,-849741.9010000085,3.4028234663852886E38,1.56109798E9,,,,0,,5,,1.56109798E9
Raw,1933914552,1915824000000,,,-1311853870175926737,0.0,11.300389706419205,,,0,26,0.0,16431,44571914841000,6,39.675689697265625,441.52874933009525,0.05108052421244219,1,713804.8953215056,9.518038714304566E-4,1.56109798E9,,,,0,,5,,1.56109798E9
Raw,1933914552,1915824000000,,,-1311853870175926737,0.0,11.300389706419205,,,0,27,0.0,16431,44571913037602,17,28.585927963256836,140.2333068780273,0.17589811027549518,4,122673.94485217253,3.4028234663852886E38,1.56109798E9,,,,0,,5,,1.56109798E9
Raw,1933914553,1915824000000,,,-1311853870175926737,0.0,11.300389706419205,,,0,33,0.0,16431,44571926102091,6,42.061439514160156,-99.94716161893496,0.037881406448724314,1,-260924.66512559756,7.623224519193172E-4,1.56109798E9,,,,0,,5,,1.56109798E9
Fix,gps,34.486323,109.463964,358.359406,0.780122,4.000000,1627820568999
Raw,1933915492,1916824000000,,,-1311853870175927125,0.0,11.358860192600366,,,0,10,0.0,16431,44586931878457,9,39.54457092285156,-319.05858826631106,0.0512839497143566,4,-760594.4372274537,3.4028234663852886E38,1.57542003E9,,,,0,,1,,1.57542003E9
Raw,1933915492,1916824000000,,,-1311853870175927125,0.0,11.358860192600366,,,0,12,0.0,16431,44586924081836,18,33.93134307861328,-448.7399154811915,0.09452523017599246,4,-957541.9617443682,3.4028234663852886E38,1.57542003E9,,,,0,,1,,1.57542003E9
Raw,1933915492,1916824000000,,,-1311853870175927125,0.0,11.358860192600366,,,0,15,0.0,5,915917070,18,34.180755615234375,414.72930477673117,0.09399921538801737,4,525040.1807197352,3.4028234663852886E38,1.57542003E9,,,,0,,1,,1.57542003E9
Raw,1933915493,1916824000000,,,-1311853870175927125,0.0,11.358860192600366,,,0,18,0.0,16,1916020580505,1000000000,24.187217712402344,566.4247974018035,2.99792458E8,2,1048587.3263159387,3.4028234663852886E38,1.57542003E9,,,,0,,1,,1.57542003E9
Raw,1933915493,1916824000000,,,-1311853870175927125,0.0,11.358860192600366,,,0,23,0.0,16431,44586931207263,7,42.460060119628906,142.30227388063037,0.03714972367298694,4,96024.91801966327,3.4028234663852886E38,1.57542003E9,,,,0,,1,,1.57542003E9
Raw,1933915493,1916824000000,,,-1311853870175927125,0.0,11.358860192600366,,,0,24,0.0,16431,44586925584135,7,41.44920349121094,474.99185945297313,0.04047455634054803,1,601666.943185014,8.105584420263767E-4,1.57542003E9,,,,0,,1,,1.57542003E9
Raw,1933915495,1916824000000,,,-1311853870175927125,0.0,11.358860192600366,,,0,25,0.0,16431,44586923566410,8,40.88042068481445,-693.9221548851588,0.04278275243235907,1,-1132125.170398972,8.65412934217602E-4,1.57542003E9,,,,0,,1,,1.57542003E9
Raw,1933915495,1916824000000,,,-1311853870175927125,0.0,11.358860192600366,,,0,31,0.0,16431,44586918777993,70,20.837142944335938,-821.3861797260347,4.203377647113776,4,-39487.99101590595,3.4028234663852886E38,1.57542003E9,,,,0,,1,,1.57542003E9
Raw,1933915495,1916824000000,,,-1311853870175927125,0.0,11.358860192600366,,,0,32,0.0,16431,44586927403096,16,35.17203140258789,-389.89672470684195,0.08263841596254246,1,-543881.2734942603,0.0015840326668694615,1.57542003E9,,,,0,,1,,1.57542003E9
Raw,1933915496,1916824000000,,,-1311853870175927125,0.0,11.358860192600366,,,0,10,0.0,32995,55368931159792,33,37.77412796020508,-747.9835429269015,0.06226639726041447,1,-1548671.389001308,0.0011573424562811852,1.59806246E9,,,,0,,3,,1.59806246E9
Raw,1933915496,1916824000000,,,-1311853870175927125,0.0,11.358860192600366,,,0,9,0.0,32995,55368933725260,33,40.12416076660156,-55.1911192281043,0.04844370201274251,4,-409139.4304774075,3.4028234663852886E38,1.59862502E9,,,,0,,3,,1.59862502E9
Raw,1933915496,1916824000000,,,-1311853870175927125,0.0,11.358860192600366,,,0,16,0.0,99,924339890,33,38.796043395996094,560.9499960807184,0.054351225185445384,4,528218.5400098206,3.4028234663852886E38,1.60143744E9,,,,0,,3,,1.60143744E9
Raw,1933915497,1916824000000,,,-1311853870175927125,0.0,11.358860192600366,,,0,23,0.0,32961,55368924491422,33,34.93028259277344,39.622095457123095,0.08440943060215633,4,-3422.900822901707,3.4028234663852886E38,1.60368755E9,,,,0,,3,,1.60368755E9
Raw,1933915497,1916824000000,,,-1311853870175927125,0.0,11.358860192600366,,,0,7,0.0,32961,55368932971464,33,44.91754150390625,-157.6304582329002,0.03233325099416973,1,-545008.8464407858,5.337519687600434E-4,1.60481254E9,,,,0,,3,,1.60481254E9
Raw,1933915497,1916824000000,,,-1311853870175927125,0.0,11.358860192600366,,,0,8,0.0,32961,55368927974223,33,35.42414093017578,-558.4705996160535,0.08041514310102238,1,-598192.6085057866,0.0015100054442882538,1.60537498E9,,,,0,,3,,1.60537498E9
Raw,1933915498,1916824000000,,,-1311853870175927125,0.0,11.358860192600366,,,0,193,0.0,35,9561317,10,38.882728576660156,-257.498599676387,0.054758417346675914,4,-474284.2863267069,3.4028234663852886E38,1.57542003E9,,,,0,,4,,1.57542003E9
