# 
# Header Description:
# 
# Version: v2.0.0.1 Platform: 10 Manufacturer: HUAWEI Model: BLA-AL00
# 
# Raw,ElapsedRealtimeMillis,TimeNanos,LeapSecond,TimeUncertaintyNanos,FullBiasNanos,BiasNanos,BiasUncertaintyNanos,DriftNanosPerSecond,DriftUncertaintyNanosPerSecond,HardwareClockDiscontinuityCount,Svid,TimeOffsetNanos,State,ReceivedSvTimeNanos,ReceivedSvTimeUncertaintyNanos,Cn0DbHz,PseudorangeRateMetersPerSecond,PseudorangeRateUncertaintyMetersPerSecond,AccumulatedDeltaRangeState,AccumulatedDeltaRangeMeters,AccumulatedDeltaRangeUncertaintyMeters,CarrierFrequencyHz,CarrierCycles,CarrierPhase,CarrierPhaseUncertainty,MultipathIndicator,SnrInDb,ConstellationType,AgcDb,CarrierFrequencyHz
# 
# Fix,Provider,Latitude,Longitude,Altitude,Speed,Accuracy,(UTC)TimeInMs
# 
# Nav,Svid,Type,Status,MessageId,Sub-messageId,Data(Bytes)
# 
Fix,gps,34.486428,109.463900,357.549957,0.588386,3.000000,1627951849999
Raw,2065197178,1451291000000,,,-1311985616708675857,0.0,8.049400613208956,,,0,1,0.0,16,1451005465271,1000000000,25.688209533691406,493.09220005082466,2.99792458E8,2,524290.4548869613,3.4028234663852886E38,1.57542003E9,,,,0,,1,,1.57542003E9
Raw,2065197179,1451291000000,,,-1311985616708675857,0.0,8.049400613208956,,,0,3,0.0,16431,175867925893034,6,45.364173889160156,-195.68871851523772,0.031060012046626576,1,-2356.9213649114345,5.164588219486177E-4,1.57542003E9,,,,0,,1,,1.57542003E9
Raw,2065197179,1451291000000,,,-1311985616708675857,0.0,8.049400613208956,,,0,6,0.0,16431,175867924237400,27,30.77566146850586,-652.5584586806413,0.13564149526825903,4,-587182.4184733942,3.4028234663852886E38,1.57542003E9,,,,0,,1,,1.57542003E9
Raw,2065197180,1451291000000,,,-1311985616708675857,0.0,8.049400613208956,,,0,14,0.0,16431,175867932418587,9,40.35060119628906,-85.3185708104806,0.047025577261100404,1,-230851.72195558393,8.726413361728191E-4,1.57542003E9,,,,0,,1,,1.57542003E9
Raw,2065197180,1451291000000,,,-1311985616708675857,0.0,8.049400613208956,,,0,17,0.0,16431,175867929395230,11,38.559288024902344,-192.23263813522692,0.0567408164407589,4,-56053.76532779528,3.4028234663852886E38,1.57542003E9,,,,0,,1,,1.57542003E9
Raw,2065197181,1451291000000,,,-1311985616708675857,0.0,8.049400613208956,,,0,19,0.0,16431,175867927429236,19,33.54644775390625,-443.8272701979936,0.09937692943676507,4,-566102.3495214452,3.4028234663852886E38,1.57542003E9,,,,0,,1,,1.57542003E9
Raw,2065197182,1451291000000,,,-1311985616708675857,0.0,8.049400613208956,,,0,21,0.0,16,1451015901591,1000000000,18.274871826171875,475.08395025049776,2.99792458E8,2,524295.1207150446,3.4028234663852886E38,1.57542003E9,,,,0,,1,,1.57542003E9
Raw,2065197182,1451291000000,,,-1311985616708675857,0.0,8.049400613208956,,,0,22,0.0,16431,175867922761962,16,35.27226638793945,136.97276607170198,0.08087072968782338,4,1633.7041378782299,3.4028234663852886E38,1.57542003E9,,,,0,,1,,1.57542003E9
Raw,2065197183,1451291000000,,,-1311985616708675857,0.0,8.049400613208956,,,0,24,0.0,16431,175867916375409,32,29.38262367248535,-404.27192097166335,0.16128793637508054,4,-535248.5454531402,3.4028234663852886E38,1.57542003E9,,,,0,,1,,1.57542003E9
Raw,2065197183,1451291000000,,,-1311985616708675857,0.0,8.049400613208956,,,0,30,0.0,16431,175867921424595,22,32.290157318115234,483.56540363865565,0.11355377519061272,4,38658.14941406402,3.4028234663852886E38,1.57542003E9,,,,0,,1,,1.57542003E9
Raw,2065197184,1451291000000,,,-1311985616708675857,0.0,8.049400613208956,,,0,10,0.0,99,1921341781,71,28.432300567626953,-858.6246035579443,0.1768912277928073,4,-525147.6120138508,3.4028234663852886E38,1.59806246E9,,,,0,,3,,1.59806246E9
Raw,2065197185,1451291000000,,,-1311985616708675857,0.0,8.049400613208956,,,0,2,0.0,17,993644,75,20.052383422851562,-25.977292626046122,4.203596520389258,4,-26.29681764259924,3.4028234663852886E38,1.59975002E9,,,,0,,3,,1.59975002E9
Raw,2065197185,1451291000000,,,-1311985616708675857,0.0,8.049400613208956,,,0,18,0.0,99,1928172567,114,24.37384796142578,376.19152137234596,0.2833317213811881,4,3391.0019791269947,3.4028234663852886E38,1.60031245E9,,,,0,,3,,1.60031245E9
Raw,2065197186,1451291000000,,,-1311985616708675857,0.0,8.049400613208956,,,0,9,0.0,99,1932910029,33,41.671566009521484,-395.9218554534009,0.040794670155218204,4,-530247.5713839064,3.4028234663852886E38,1.59862502E9,,,,0,,3,,1.59862502E9
Raw,2065197186,1451291000000,,,-1311985616708675857,0.0,8.049400613208956,,,0,16,0.0,32995,13849932790610,67,28.871440887451172,371.2608464696475,0.17024158742042184,1,39410.06600988084,0.003034616354852915,1.60143744E9,,,,0,,3,,1.60143744E9
Raw,2065197187,1451291000000,,,-1311985616708675857,0.0,8.049400613208956,,,0,19,0.0,16,1451003166496,1000000000,29.624425888061523,-25.508209386462084,2.99792458E8,2,-0.07621017316127043,3.4028234663852886E38,1.60368755E9,,,,0,,3,,1.60368755E9
Raw,2065197188,1451291000000,,,-1311985616708675857,0.0,8.049400613208956,,,0,3,0.0,32995,13849922151875,33,44.406551361083984,-516.2964907603366,0.030387072831054462,1,-661971.2417303976,5.660944152623415E-4,1.60481254E9,,,,0,,3,,1.60481254E9
Raw,2065197188,1451291000000,,,-1311985616708675857,0.0,8.049400613208956,,,0,193,0.0,35,11240041,14,36.25041198730469,-181.58493789293573,0.07383557313058481,1,-19865.946624394284,0.0013990881852805614,1.57542003E9,,,,0,,4,,1.57542003E9
Raw,2065197189,1451291000000,,,-1311985616708675857,0.0,8.049400613208956,,,0,194,0.0,35,15699500,10,39.044097900390625,-151.67933754068054,0.054886276484109875,1,-44059.12298937657,0.0010142867686226964,1.57542003E9,,,,0,,4,,1.57542003E9
Raw,2065197189,1451291000000,,,-1311985616708675857,0.0,8.049400613208956,,,0,195,0.0,1,826001,11,38.491085052490234,-120.61656110394875,0.056892519152208026,1,-42564.34029466429,0.0010809646919369698,1.57542003E9,,,,0,,4,,1.57542003E9
Raw,2065197190,1451291000000,,,-1311985616708675857,0.0,8.049400613208956,,,0,7,0.0,16431,175853879680074,6,37.94389343261719,-101.37669061348532,0.06263265885435113,1,-150539.0698189789,0.0011618157150223851,1.56109798E9,,,,0,,5,,1.56109798E9
Raw,2065197191,1451291000000,,,-1311985616708675857,0.0,8.049400613208956,,,0,8,0.0,16431,175853877948877,12,31.58578872680664,-208.76182861106167,0.12609660180391669,4,-308853.2399980655,3.4028234663852886E38,1.56109798E9,,,,0,,5,,1.56109798E9
Raw,2065197191,1451291000000,,,-1311985616708675857,0.0,8.049400613208956,,,0,10,0.0,16431,175853880239743,10,33.331398010253906,-165.38820473925273,0.10413886269632477,1,-210629.7373243903,0.0019758862908929586,1.56109798E9,,,,0,,5,,1.56109798E9
Raw,2065197192,1451291000000,,,-1311985616708675857,0.0,8.049400613208956,,,0,30,0.0,16431,175853924287321,8,35.145565032958984,-321.7458877157651,0.08232609884263836,4,-93125.24804293846,3.4028234663852886E38,1.56109798E9,,,,0,,5,,1.56109798E9
Raw,2065197192,1451291000000,,,-1311985616708675857,0.0,8.049400613208956,,,0,32,0.0,16431,175853912895866,11,32.31303024291992,-649.8324074781208,0.11531923146085227,1,-185145.78708916306,0.002094614552333951,1.56109798E9,,,,0,,5,,1.56109798E9
Raw,2065197193,1451291000000,,,-1311985616708675857,0.0,8.049400613208956,,,0,33,0.0,16431,175853910822702,166,16.844409942626953,13.424168983699794,4.201946716478201,4,-1539.1515402948269,3.4028234663852886E38,1.56109798E9,,,,1,,5,,1.56109798E9
Raw,2065197194,1451291000000,,,-1311985616708675857,0.0,8.049400613208956,,,0,36,0.0,16431,175853920555490,6,38.12812423706055,-336.27418237528695,0.061549925112246356,4,-135022.44028500945,3.4028234663852886E38,1.56109798E9,,,,0,,5,,1.56109798E9
Fix,gps,34.486428,109.463899,357.547272,0.410718,3.000000,1627951850999
Raw,2065198196,1452291000000,,,-1311985616708676249,0.0,8.524728399098338,,,0,1,0.0,16,1452005463626,1000000000,25.170907974243164,493.2778471915044,2.99792458E8,2,524290.4519536725,3.4028234663852886E38,1.57542003E9,,,,0,,1,,1.57542003E9
Raw,2065198196,1452291000000,,,-1311985616708676249,0.0,8.524728399098338,,,0,3,0.0,16431,175868925893682,6,45.26150131225586,-195.58928294833242,0.031060128539397894,1,-2552.5989066977777,5.225999630056322E-4,1.57542003E9,,,,0,,1,,1.57542003E9
Raw,2065198197,1452291000000,,,-1311985616708676249,0.0,8.524728399098338,,,0,6,0.0,16431,175868924239570,30,29.746355056762695,-652.6247149761216,0.1526111387216892,4,-587835.0125457313,3.4028234663852886E38,1.57542003E9,,,,0,,1,,1.57542003E9
Raw,2065198198,1452291000000,,,-1311985616708676249,0.0,8.524728399098338,,,0,14,0.0,16431,175868932418856,11,38.511878967285156,-85.22752804849404,0.05758597565712856,1,-230937.10235567743,0.0010783798061311245,1.57542003E9,,,,0,,1,,1.57542003E9
Raw,2065198199,1452291000000,,,-1311985616708676249,0.0,8.524728399098338,,,0,17,0.0,16431,175868929395901,11,38.160499572753906,-192.21455739204157,0.05932735120735419,4,-56246.07375515274,3.4028234663852886E38,1.57542003E9,,,,0,,1,,1.57542003E9
Raw,2065198199,1452291000000,,,-1311985616708676249,0.0,8.524728399098338,,,0,19,0.0,16431,175868927430756,22,32.509151458740234,-443.8135690504714,0.11181330661982092,4,-566546.3292864792,3.4028234663852886E38,1.57542003E9,,,,0,,1,,1.57542003E9
Raw,2065198200,1452291000000,,,-1311985616708676249,0.0,8.524728399098338,,,0,21,0.0,16,1452015900006,1000000000,20.90774917602539,475.08395025049776,2.99792458E8,2,524295.1169998234,3.4028234663852886E38,1.57542003E9,,,,0,,1,,1.57542003E9
Raw,2065198200,1452291000000,,,-1311985616708676249,0.0,8.524728399098338,,,0,22,0.0,16431,175868922761457,22,32.4141960144043,136.90969648590652,0.11218779759595998,1,1770.4147965910583,0.0020515385549515486,1.57542003E9,,,,0,,1,,1.57542003E9
Raw,2065198201,1452291000000,,,-1311985616708676249,0.0,8.524728399098338,,,0,24,0.0,16431,175868916376867,39,27.51356315612793,-404.20706205690044,0.1993045035617268,4,-535652.7841889024,3.4028234663852886E38,1.57542003E9,,,,0,,1,,1.57542003E9
Raw,2065198202,1452291000000,,,-1311985616708676249,0.0,8.524728399098338,,,0,30,0.0,16431,175868921422950,23,32.00586700439453,483.61472095324416,0.11732308186668228,1,39141.800475254975,0.002150285290554166,1.57542003E9,,,,0,,1,,1.57542003E9
Raw,2065198202,1452291000000,,,-1311985616708676249,0.0,8.524728399098338,,,0,10,0.0,99,921344686,77,27.737993240356445,-858.7417790434697,0.19159201642748303,4,-526006.3367788419,3.4028234663852886E38,1.59806246E9,,,,0,,3,,1.59806246E9
Raw,2065198203,1452291000000,,,-1311985616708676249,0.0,8.524728399098338,,,0,2,0.0,17,993845,98,15.489052772521973,-25.848369343787994,4.203596520389258,4,-51.79357415881417,3.4028234663852886E38,1.59975002E9,,,,0,,3,,1.59975002E9
Raw,2065198203,1452291000000,,,-1311985616708676249,0.0,8.524728399098338,,,0,18,0.0,99,928171347,123,23.670848846435547,375.80628736626863,0.3070928185142592,4,3767.1051593770976,3.4028234663852886E38,1.60031245E9,,,,0,,3,,1.60031245E9
Raw,2065198204,1452291000000,,,-1311985616708676249,0.0,8.524728399098338,,,0,9,0.0,99,932911373,33,43.05774688720703,-395.80239644328844,0.035119970267363104,4,-530643.4443228184,3.4028234663852886E38,1.59862502E9,,,,0,,3,,1.59862502E9
Raw,2065198205,1452291000000,,,-1311985616708676249,0.0,8.524728399098338,,,0,16,0.0,32995,13850932789303,80,27.43314552307129,371.38402046752094,0.20048567369559545,1,39781.37065812216,0.003581117605790496,1.60143744E9,,,,0,,3,,1.60143744E9
Raw,2065198205,1452291000000,,,-1311985616708676249,0.0,8.524728399098338,,,0,19,0.0,16,1452003166581,1000000000,30.215255737304688,-25.417106980176612,2.99792458E8,2,-0.07554006893549807,3.4028234663852886E38,1.60368755E9,,,,0,,3,,1.60368755E9
Raw,2065198206,1452291000000,,,-1311985616708676249,0.0,8.524728399098338,,,0,3,0.0,32995,13850922153591,33,45.074951171875,-516.2551146581179,0.03038738278503529,1,-662487.5400086839,5.241662147454917E-4,1.60481254E9,,,,0,,3,,1.60481254E9
Raw,2065198206,1452291000000,,,-1311985616708676249,0.0,8.524728399098338,,,0,193,0.0,35,11240656,14,36.035438537597656,-181.64246907954623,0.07563524499194296,1,-20047.595497157872,0.0014341475907713175,1.57542003E9,,,,0,,4,,1.57542003E9
Raw,2065198207,1452291000000,,,-1311985616708676249,0.0,8.524728399098338,,,0,194,0.0,35,15699994,9,39.86283874511719,-151.7079156804749,0.050203092337961275,1,-44210.84710237766,9.23047075048089E-4,1.57542003E9,,,,0,,4,,1.57542003E9
Raw,2065198208,1452291000000,,,-1311985616708676249,0.0,8.524728399098338,,,0,195,0.0,1,826446,18,34.14115905761719,-120.63438622871018,0.09296031621157719,1,-42684.98016170329,0.0016816341085359454,1.57542003E9,,,,0,,4,,1.57542003E9
Raw,2065198208,1452291000000,,,-1311985616708676249,0.0,8.524728399098338,,,0,7,0.0,16431,175854879680411,6,38.27317810058594,-101.3850919390182,0.06043441113638387,1,-150640.53138249883,0.0011185953626409173,1.56109798E9,,,,0,,5,,1.56109798E9
Raw,2065198209,1452291000000,,,-1311985616708676249,0.0,8.524728399098338,,,0,8,0.0,16431,175854877949561,9,33.83387756347656,-208.78633389730157,0.0980780932829528,4,-309062.0431508445,3.4028234663852886E38,1.56109798E9,,,,0,,5,,1.56109798E9
Raw,2065198209,1452291000000,,,-1311985616708676249,0.0,8.524728399098338,,,0,10,0.0,16431,175854880240296,11,32.529884338378906,-165.44244696880878,0.11385406027142209,1,-210795.29526848174,0.0021668942645192146,1.56109798E9,,,,0,,5,,1.56109798E9
Raw,2065198210,1452291000000,,,-1311985616708676249,0.0,8.524728399098338,,,0,30,0.0,16431,175854924288389,6,38.06651306152344,-321.71367979435104,0.0590356949125346,4,-93446.99996965044,3.4028234663852886E38,1.56109798E9,,,,0,,5,,1.56109798E9
Raw,2065198211,1452291000000,,,-1311985616708676249,0.0,8.524728399098338,,,0,32,0.0,16431,175854912897992,9,33.9561767578125,-649.8739880750786,0.09584325435342328,1,-185795.65646111954,0.0018387514865025878,1.56109798E9,,,,0,,5,,1.56109798E9
Raw,2065198211,1452291000000,,,-1311985616708676249,0.0,8.524728399098338,,,0,33,0.0,16431,175854910822655,166,18.315574645996094,13.401590421330198,4.201946716478201,4,-1525.4613042183216,3.4028234663852886E38,1.56109798E9,,,,1,,5,,1.56109798E9
Raw,2065198212,1452291000000,,,-1311985616708676249,0.0,8.524728399098338,,,0,36,0.0,16431,175854920556603,6,38.71544647216797,-336.16286907228346,0.057767579566701394,4,-135358.68961895577,3.4028234663852886E38,1.56109798E9,,,,0,,5,,1.56109798E9
Raw,2065199093,1453291000000,,,-1311985616708676636,0.0,7.90788234554805,,,0,1,0.0,16,1453005461981,1000000000,26.10784339904785,493.2778471915044,2.99792458E8,2,524290.4635261729,3.4028234663852886E38,1.57542003E9,,,,0,,1,,1.57542003E9
Raw,2065199094,1453291000000,,,-1311985616708676636,0.0,7.90788234554805,,,0,3,0.0,16431,175869925894330,10,39.05988693237305,-195.38397023023902,0.05302800043786643,1,-2748.0648825791322,0.0010124448454007506,1.57542003E9,,,,0,,1,,1.57542003E9
Raw,2065199095,1453291000000,,,-1311985616708676636,0.0,7.90788234554805,,,0,6,0.0,16431,175869924241689,42,26.89813232421875,-652.1892093466731,0.21153927336219203,4,-588487.5225299159,3.4028234663852886E38,1.57542003E9,,,,0,,1,,1.57542003E9
Raw,2065199095,1453291000000,,,-1311985616708676636,0.0,7.90788234554805,,,0,14,0.0,16431,175869932419145,8,41.42338562011719,-85.19952931046055,0.04182148736709024,1,-231022.34746067593,8.12971091363579E-4,1.57542003E9,,,,0,,1,,1.57542003E9
Raw,2065199096,1453291000000,,,-1311985616708676636,0.0,7.90788234554805,,,0,17,0.0,16431,175869929396522,8,40.9515266418457,-192.2987921833377,0.04348786237486754,1,-56438.352067446234,8.143091108649969E-4,1.57542003E9,,,,0,,1,,1.57542003E9
Raw,2065199096,1453291000000,,,-1311985616708676636,0.0,7.90788234554805,,,0,19,0.0,16431,175869927432224,10,38.990150451660156,-443.94901273269306,0.05372355381267069,1,-566990.2945647176,0.0010206063743680716,1.57542003E9,,,,0,,1,,1.57542003E9
Raw,2065199097,1453291000000,,,-1311985616708676636,0.0,7.90788234554805,,,0,21,0.0,16,1453015898421,1000000000,22.245101928710938,475.08395025049776,2.99792458E8,2,524295.1132846021,3.4028234663852886E38,1.57542003E9,,,,0,,1,,1.57542003E9
Raw,2065199098,1453291000000,,,-1311985616708676636,0.0,7.90788234554805,,,0,22,0.0,16431,175869922761035,15,35.532291412353516,136.912857633749,0.07850010179149802,1,1907.2975900352287,0.0015196767635643482,1.57542003E9,,,,0,,1,,1.57542003E9
Raw,2065199098,1453291000000,,,-1311985616708676636,0.0,7.90788234554805,,,0,24,0.0,16431,175869916378081,38,27.70143699645996,-404.13848815437655,0.19510317512231146,4,-536056.9720238217,3.4028234663852886E38,1.57542003E9,,,,0,,1,,1.57542003E9
Raw,2065199099,1453291000000,,,-1311985616708676636,0.0,7.90788234554805,,,0,30,0.0,16431,175869921421332,28,30.340991973876953,483.67818248728963,0.1420565108782974,1,39625.45764952838,0.002604593290016055,1.57542003E9,,,,0,,1,,1.57542003E9
Raw,2065199100,1453291000000,,,-1311985616708676636,0.0,7.90788234554805,,,0,10,0.0,99,1921347336,59,30.065715789794922,-858.6858156498593,0.14660918151600844,4,-526865.0106700374,3.4028234663852886E38,1.59806246E9,,,,0,,3,,1.59806246E9
Raw,2065199101,1453291000000,,,-1311985616708676636,0.0,7.90788234554805,,,0,2,0.0,17,993959,81,18.866594314575195,-25.836110310207445,4.203596520389258,4,-77.305216930564,3.4028234663852886E38,1.59975002E9,,,,0,,3,,1.59975002E9
Raw,2065199101,1453291000000,,,-1311985616708676636,0.0,7.90788234554805,,,0,18,0.0,99,1928169913,118,24.02851104736328,376.3285669300242,0.2947633900161857,4,4143.294143636642,3.4028234663852886E38,1.60031245E9,,,,0,,3,,1.60031245E9
Raw,2065199102,1453291000000,,,-1311985616708676636,0.0,7.90788234554805,,,0,9,0.0,99,1932912741,33,40.52101516723633,-395.635153829131,0.04624423112067641,1,-531039.1963472998,8.876312640495598E-4,1.59862502E9,,,,0,,3,,1.59862502E9
Raw,2065199103,1453291000000,,,-1311985616708676636,0.0,7.90788234554805,,,0,16,0.0,32995,13851932788055,52,31.05999183654785,371.5721897099834,0.1328358167965336,1,40152.80211513958,0.0023587190080434084,1.60143744E9,,,,0,,3,,1.60143744E9
Raw,2065199103,1453291000000,,,-1311985616708676636,0.0,7.90788234554805,,,0,19,0.0,16,1453003166665,1000000000,32.22102737426758,-25.326006704044673,2.99792458E8,2,-0.07645879588202606,3.4028234663852886E38,1.60368755E9,,,,0,,3,,1.60368755E9
Raw,2065199104,1453291000000,,,-1311985616708676636,0.0,7.90788234554805,,,0,3,0.0,32995,13851922155300,33,45.74626159667969,-516.1074353740046,0.03038768857856,1,-663003.7130305606,4.8518070252612233E-4,1.60481254E9,,,,0,,3,,1.60481254E9
Raw,2065199105,1453291000000,,,-1311985616708676636,0.0,7.90788234554805,,,0,193,0.0,35,11241238,15,35.6119270324707,-181.59555457814258,0.07931356249270077,1,-20229.224660679818,0.001505807158537209,1.57542003E9,,,,0,,4,,1.57542003E9
Raw,2065199105,1453291000000,,,-1311985616708676636,0.0,7.90788234554805,,,0,194,0.0,35,15700488,13,36.835025787353516,-151.7256726403233,0.06996346990473917,1,-44362.54570194255,0.0012332131154835224,1.57542003E9,,,,0,,4,,1.57542003E9
Raw,2065199106,1453291000000,,,-1311985616708676636,0.0,7.90788234554805,,,0,195,0.0,1,826850,9,39.78872299194336,-120.67152758570592,0.049192933592387744,1,-42805.673825073005,9.813146898522973E-4,1.57542003E9,,,,0,,4,,1.57542003E9
Raw,2065199106,1453291000000,,,-1311985616708676636,0.0,7.90788234554805,,,0,7,0.0,16431,175855879680759,7,35.800907135009766,-101.32807198925553,0.07916817119318342,1,-150741.92963965665,0.0014869163278490305,1.56109798E9,,,,0,,5,,1.56109798E9
Raw,2065199106,1453291000000,,,-1311985616708676636,0.0,7.90788234554805,,,0,8,0.0,16431,175855877950256,9,33.87257385253906,-208.75869302506158,0.09765655586902566,1,-309270.8213396317,0.001856535323895514,1.56109798E9,,,,0,,5,,1.56109798E9
Raw,2065199107,1453291000000,,,-1311985616708676636,0.0,7.90788234554805,,,0,10,0.0,16431,175855880240838,6,37.15132141113281,-165.5455804822468,0.06837927638667074,1,-210960.82549929002,0.0012728164438158274,1.56109798E9,,,,0,,5,,1.56109798E9
Raw,2065199107,1453291000000,,,-1311985616708676636,0.0,7.90788234554805,,,0,30,0.0,16431,175855924289473,6,37.308692932128906,-321.72567681904707,0.06434765711278542,1,-93768.77956644581,0.0012499633012339473,1.56109798E9,,,,0,,5,,1.56109798E9
Raw,2065199107,1453291000000,,,-1311985616708676636,0.0,7.90788234554805,,,0,32,0.0,16431,175855912900187,11,32.172645568847656,-649.9101154789928,0.11716118187728669,1,-186445.52177093687,0.002257873071357608,1.56109798E9,,,,0,,5,,1.56109798E9
Raw,2065199107,1453291000000,,,-1311985616708676636,0.0,7.90788234554805,,,0,33,0.0,16431,175855910822616,166,15.712631225585938,13.358308896776528,4.201946716478201,4,-1512.5529022444289,3.4028234663852886E38,1.56109798E9,,,,1,,5,,1.56109798E9
Raw,2065199108,1453291000000,,,-1311985616708676636,0.0,7.90788234554805,,,0,36,0.0,16431,175855920557721,8,34.80217361450195,-336.10530380321643,0.08854153737267195,4,-135694.87133049054,3.4028234663852886E38,1.56109798E9,,,,0,,5,,1.56109798E9
Fix,gps,34.486428,109.463898,357.509430,0.285172,3.000000,1627951851999
Fix,gps,34.486428,109.463897,357.452301,0.283658,3.000000,1627951852999
Raw,2065200130,1454291000000,,,-1311985616708677028,0.0,7.974069421694335,,,0,1,0.0,16,1454005460335,1000000000,28.874540328979492,493.2778471915044,2.99792458E8,2,524290.4596686726,3.4028234663852886E38,1.57542003E9,,,,0,,1,,1.57542003E9
Raw,2065200130,1454291000000,,,-1311985616708677028,0.0,7.974069421694335,,,0,3,0.0,16431,175870925895009,9,39.88008117675781,-195.5356882854503,0.048345465322872316,1,-2943.485933097005,9.710474405437708E-4,1.57542003E9,,,,0,,1,,1.57542003E9
Raw,2065200130,1454291000000,,,-1311985616708677028,0.0,7.974069421694335,,,0,6,0.0,16431,175870924243911,30,29.695884704589844,-652.3472837800259,0.15349681662019699,4,-589139.9316834288,3.4028234663852886E38,1.57542003E9,,,,0,,1,,1.57542003E9
Raw,2065200131,1454291000000,,,-1311985616708677028,0.0,7.974069421694335,,,0,14,0.0,16431,175870932419439,6,43.54913330078125,-85.14651404933932,0.033227536876386715,1,-231107.51597657404,6.364845321513712E-4,1.57542003E9,,,,0,,1,,1.57542003E9
Raw,2065200131,1454291000000,,,-1311985616708677028,0.0,7.974069421694335,,,0,17,0.0,16431,175870929397175,7,42.066688537597656,-192.2788369050436,0.03845188403123789,1,-56630.60782949122,7.549358997493982E-4,1.57542003E9,,,,0,,1,,1.57542003E9
Raw,2065200131,1454291000000,,,-1311985616708677028,0.0,7.974069421694335,,,0,19,0.0,16431,175870927433721,9,40.13304901123047,-443.8867440846259,0.04726496158524707,1,-567434.2065456901,8.947740425355732E-4,1.57542003E9,,,,0,,1,,1.57542003E9
Raw,2065200132,1454291000000,,,-1311985616708677028,0.0,7.974069421694335,,,0,21,0.0,16,1454015896837,1000000000,24.70685386657715,475.08395025049776,2.99792458E8,2,524295.124430266,3.4028234663852886E38,1.57542003E9,,,,0,,1,,1.57542003E9
Raw,2065200132,1454291000000,,,-1311985616708677028,0.0,7.974069421694335,,,0,22,0.0,16431,175870922760594,7,41.93855285644531,136.94567051876635,0.037804458812812525,1,2044.2253047318154,7.661553681828082E-4,1.57542003E9,,,,0,,1,,1.57542003E9
Raw,2065200132,1454291000000,,,-1311985616708677028,0.0,7.974069421694335,,,0,24,0.0,16431,175870916379515,47,26.012828826904297,-403.78317854512625,0.23633875377514457,4,-536461.0019363159,3.4028234663852886E38,1.57542003E9,,,,0,,1,,1.57542003E9
Raw,2065200133,1454291000000,,,-1311985616708677028,0.0,7.974069421694335,,,0,30,0.0,16431,175870921419707,24,31.532520294189453,483.64028279563627,0.1238792617528216,1,40109.113416957756,0.002270719036459923,1.57542003E9,,,,0,,1,,1.57542003E9
Raw,2065200133,1454291000000,,,-1311985616708677028,0.0,7.974069421694335,,,0,10,0.0,99,921350394,74,28.082372665405273,-858.5880671645518,0.18415478507003968,1,-527723.6436569924,0.0033302234951406717,1.59806246E9,,,,0,,3,,1.59806246E9
Raw,2065200133,1454291000000,,,-1311985616708677028,0.0,7.974069421694335,,,0,2,0.0,17,993908,103,14.567049980163574,-25.93091705348624,4.203596520389258,4,-102.6079127360179,3.4028234663852886E38,1.59975002E9,,,,0,,3,,1.59975002E9
Raw,2065200134,1454291000000,,,-1311985616708677028,0.0,7.974069421694335,,,0,18,0.0,99,928168656,83,27.128273010253906,376.0792537605598,0.20673427938180577,4,4519.428607784162,3.4028234663852886E38,1.60031245E9,,,,0,,3,,1.60031245E9
Raw,2065200134,1454291000000,,,-1311985616708677028,0.0,7.974069421694335,,,0,9,0.0,99,932914054,33,35.085906982421875,-395.57721365304224,0.08443990178276828,1,-531434.7644259767,0.0015743790427222848,1.59862502E9,,,,0,,3,,1.59862502E9
Raw,2065200134,1454291000000,,,-1311985616708677028,0.0,7.974069421694335,,,0,16,0.0,32995,13852932786854,74,28.090883255004883,371.53350612183,0.18603179981064089,1,40524.38064797997,0.0033199512399733067,1.60143744E9,,,,0,,3,,1.60143744E9
Raw,2065200135,1454291000000,,,-1311985616708677028,0.0,7.974069421694335,,,0,19,0.0,16,1454003166750,1000000000,31.75054359436035,-25.326006704044673,2.99792458E8,2,-0.07606230263335029,3.4028234663852886E38,1.60368755E9,,,,0,,3,,1.60368755E9
Raw,2065200135,1454291000000,,,-1311985616708677028,0.0,7.974069421694335,,,0,3,0.0,32995,13852922157048,33,43.9345703125,-516.1459144674188,0.030388004773225008,1,-663519.8191903408,5.977065884508193E-4,1.60481254E9,,,,0,,3,,1.60481254E9
Raw,2065200136,1454291000000,,,-1311985616708677028,0.0,7.974069421694335,,,0,193,0.0,35,11241837,21,32.96253967285156,-181.7726981459199,0.10688007906095004,1,-20410.871503581817,0.0019260277040302753,1.57542003E9,,,,0,,4,,1.57542003E9
Raw,2065200136,1454291000000,,,-1311985616708677028,0.0,7.974069421694335,,,0,194,0.0,35,15701009,21,32.86809539794922,-151.81467897553262,0.10882853715401825,1,-44514.292167033906,0.0019470843253657222,1.57542003E9,,,,0,,4,,1.57542003E9
Raw,2065200136,1454291000000,,,-1311985616708677028,0.0,7.974069421694335,,,0,195,0.0,1,827229,7,42.29618835449219,-120.77086942585578,0.03721089485929735,1,-42926.376335666886,7.352498942054808E-4,1.57542003E9,,,,0,,4,,1.57542003E9
Raw,2065200137,1454291000000,,,-1311985616708677028,0.0,7.974069421694335,,,0,7,0.0,16431,175856879681095,6,36.952674865722656,-101.53688667975666,0.06977624937940635,1,-150843.36923742035,0.001302261371165514,1.56109798E9,,,,0,,5,,1.56109798E9
Raw,2065200137,1454291000000,,,-1311985616708677028,0.0,7.974069421694335,,,0,8,0.0,16431,175856877950974,12,31.541608810424805,-208.76779304095317,0.12672354093641452,1,-309479.5824112499,0.00228915479965508,1.56109798E9,,,,0,,5,,1.56109798E9
Raw,2065200137,1454291000000,,,-1311985616708677028,0.0,7.974069421694335,,,0,10,0.0,16431,175856880241394,6,36.892730712890625,-165.5375881461922,0.07033571423457424,1,-211126.35585347374,0.0013112797169014812,1.56109798E9,,,,0,,5,,1.56109798E9
Raw,2065200138,1454291000000,,,-1311985616708677028,0.0,7.974069421694335,,,0,30,0.0,16431,175856924290546,7,35.68658447265625,-321.627689756544,0.07740181626442227,1,-94090.46608412762,0.0015066165942698717,1.56109798E9,,,,0,,5,,1.56109798E9
Raw,2065200138,1454291000000,,,-1311985616708677028,0.0,7.974069421694335,,,0,32,0.0,16431,175856912902357,11,31.928245544433594,-649.9090930052971,0.12043883081200779,1,-187095.40722476674,0.0023223068565130234,1.56109798E9,,,,0,,5,,1.56109798E9
Raw,2065200138,1454291000000,,,-1311985616708677028,0.0,7.974069421694335,,,0,33,0.0,16431,175856910822563,166,17.94589614868164,13.653133861543267,4.201946716478201,4,-1500.0161301576766,3.4028234663852886E38,1.56109798E9,,,,1,,5,,1.56109798E9
Raw,2065200139,1454291000000,,,-1311985616708677028,0.0,7.974069421694335,,,0,36,0.0,16431,175856920558824,11,31.939102172851562,-336.32274987583196,0.12166848690148152,1,-136030.94210974703,0.0023194062523543835,1.56109798E9,,,,0,,5,,1.56109798E9
Fix,gps,34.486428,109.463896,357.324890,0.279248,2.000000,1627951853999
Raw,2065201162,1455291000000,,,-1311985616708677418,0.0,7.85238938310485,,,0,1,0.0,16,1455005458690,1000000000,27.59325408935547,493.2778471915044,2.99792458E8,2,524290.4558111725,3.4028234663852886E38,1.57542003E9,,,,0,,1,,1.57542003E9
Raw,2065201162,1455291000000,,,-1311985616708677418,0.0,7.85238938310485,,,0,3,0.0,16431,175871925895643,15,35.41120910644531,-195.19099536140686,0.08015894221324471,1,-3138.8162582288173,0.0015410090563818812,1.57542003E9,,,,0,,1,,1.57542003E9
Raw,2065201163,1455291000000,,,-1311985616708677418,0.0,7.85238938310485,,,0,6,0.0,16431,175871924246084,34,28.762393951416016,-652.3956127033753,0.17082629792331683,4,-589792.3396726263,3.4028234663852886E38,1.57542003E9,,,,0,,1,,1.57542003E9
Raw,2065201163,1455291000000,,,-1311985616708677418,0.0,7.85238938310485,,,0,14,0.0,16431,175871932419706,6,42.60905456542969,-84.98994776468766,0.03677029423543521,1,-231192.58346213092,7.092377636581659E-4,1.57542003E9,,,,0,,1,,1.57542003E9
Raw,2065201164,1455291000000,,,-1311985616708677418,0.0,7.85238938310485,,,0,17,0.0,16431,175871929397822,7,41.834190368652344,-192.16515487131176,0.03944929513926432,1,-56822.817208518754,7.754162652418017E-4,1.57542003E9,,,,0,,1,,1.57542003E9
Raw,2065201165,1455291000000,,,-1311985616708677418,0.0,7.85238938310485,,,0,19,0.0,16431,175871927435183,9,40.11083984375,-443.86619236334263,0.04738280650480378,1,-567878.0386073333,8.970645722001791E-4,1.57542003E9,,,,0,,1,,1.57542003E9
Raw,2065201165,1455291000000,,,-1311985616708677418,0.0,7.85238938310485,,,0,21,0.0,16,1455015895252,1000000000,24.52237319946289,475.08395025049776,2.99792458E8,2,524295.1207150447,3.4028234663852886E38,1.57542003E9,,,,0,,1,,1.57542003E9
Raw,2065201166,1455291000000,,,-1311985616708677418,0.0,7.85238938310485,,,0,22,0.0,16431,175871922760130,8,40.58697509765625,137.04511460628578,0.0440857615236582,1,2181.2310358275054,8.951495983637869E-4,1.57542003E9,,,,0,,1,,1.57542003E9
Raw,2065201166,1455291000000,,,-1311985616708677418,0.0,7.85238938310485,,,0,24,0.0,16431,175871916380703,38,27.67815589904785,-403.9782665262628,0.1956193545920224,1,-536864.9335562872,0.0035390090197324753,1.57542003E9,,,,0,,1,,1.57542003E9
Raw,2065201167,1455291000000,,,-1311985616708677418,0.0,7.85238938310485,,,0,30,0.0,16431,175871921418117,20,33.38761520385742,483.71359415961683,0.1001049593320304,1,40592.807878108884,0.0019452925771474838,1.57542003E9,,,,0,,1,,1.57542003E9
Raw,2065201168,1455291000000,,,-1311985616708677418,0.0,7.85238938310485,,,0,10,0.0,99,1921353126,84,27.004188537597656,-858.5798192100733,0.2084617174040344,4,-528582.149057844,3.4028234663852886E38,1.59806246E9,,,,0,,3,,1.59806246E9
Raw,2065201168,1455291000000,,,-1311985616708677418,0.0,7.85238938310485,,,0,2,0.0,16,1455009994303,1000000000,25.66576385498047,-25.20569350236562,2.99792458E8,2,-0.24893460380984322,3.4028234663852886E38,1.59975002E9,,,,0,,3,,1.59975002E9
Raw,2065201169,1455291000000,,,-1311985616708677418,0.0,7.85238938310485,,,0,18,0.0,99,1928167358,92,26.162189483642578,376.2567551941306,0.23088259848673853,4,4895.592457653468,3.4028234663852886E38,1.60031245E9,,,,0,,3,,1.60031245E9
Raw,2065201169,1455291000000,,,-1311985616708677418,0.0,7.85238938310485,,,0,9,0.0,99,1932915367,34,34.75014877319336,-395.19889838563904,0.08767657854563432,1,-531830.1352258103,0.0016364292241632938,1.59862502E9,,,,0,,3,,1.59862502E9
Raw,2065201170,1455291000000,,,-1311985616708677418,0.0,7.85238938310485,,,0,16,0.0,32995,13853932785585,67,28.956485748291016,371.78564813518574,0.16860438137049139,1,40896.06692620079,0.0030050494242459536,1.60143744E9,,,,0,,3,,1.60143744E9
Raw,2065201171,1455291000000,,,-1311985616708677418,0.0,7.85238938310485,,,0,19,0.0,17,166795,45,32.329620361328125,-25.307608567982953,0.11515233892411447,4,-20.469095880944288,3.4028234663852886E38,1.60368755E9,,,,0,,3,,1.60368755E9
Raw,2065201171,1455291000000,,,-1311985616708677418,0.0,7.85238938310485,,,0,3,0.0,32995,13853922158760,33,43.335205078125,-516.0377026679589,0.032154729982580704,1,-664035.8696528244,6.404073792509735E-4,1.60481254E9,,,,0,,3,,1.60481254E9
Raw,2065201172,1455291000000,,,-1311985616708677418,0.0,7.85238938310485,,,0,193,0.0,35,11242466,13,36.86124801635742,-181.67658561852556,0.06895920652548557,1,-20592.600497585896,0.0013040772173553705,1.57542003E9,,,,0,,4,,1.57542003E9
Raw,2065201172,1455291000000,,,-1311985616708677418,0.0,7.85238938310485,,,0,194,0.0,35,15701532,29,30.184268951416016,-151.50889117560996,0.14720693920929107,4,-44665.957875188666,3.4028234663852886E38,1.57542003E9,,,,0,,4,,1.57542003E9
Raw,2065201173,1455291000000,,,-1311985616708677418,0.0,7.85238938310485,,,0,195,0.0,1,827646,7,41.672855377197266,-120.74429363038212,0.03987476418422345,1,-43047.101756272445,7.899539195932448E-4,1.57542003E9,,,,0,,4,,1.57542003E9
Raw,2065201174,1455291000000,,,-1311985616708677418,0.0,7.85238938310485,,,0,7,0.0,16431,175857879681440,7,35.61225128173828,-101.39531667597504,0.08082885885744673,1,-150944.7939981238,0.0015195651212707162,1.56109798E9,,,,0,,5,,1.56109798E9
Raw,2065201174,1455291000000,,,-1311985616708677418,0.0,7.85238938310485,,,0,8,0.0,16431,175857877951669,12,31.389293670654297,-208.57982829322987,0.12890835454157512,1,-309688.2821521737,0.0023296514991670847,1.56109798E9,,,,0,,5,,1.56109798E9
Raw,2065201175,1455291000000,,,-1311985616708677418,0.0,7.85238938310485,,,0,10,0.0,16431,175857880241951,6,37.64461898803711,-165.51850197053943,0.06480524487897943,1,-211291.86717531842,0.00120254373177886,1.56109798E9,,,,0,,5,,1.56109798E9
Raw,2065201176,1455291000000,,,-1311985616708677418,0.0,7.85238938310485,,,0,30,0.0,16431,175857924291598,8,35.15966796875,-321.6387665549139,0.08219457018290788,1,-94412.10401018454,0.0016008421080186963,1.56109798E9,,,,0,,5,,1.56109798E9
Raw,2065201177,1455291000000,,,-1311985616708677418,0.0,7.85238938310485,,,0,32,0.0,16431,175857912904542,9,33.830806732177734,-649.9347911775153,0.0972041478706992,1,-187745.39007960816,0.0018654840532690287,1.56109798E9,,,,0,,5,,1.56109798E9
Raw,2065201177,1455291000000,,,-1311985616708677418,0.0,7.85238938310485,,,0,33,0.0,16431,175857910822476,98,15.5193510055542,13.63368236455964,4.201946716478201,4,-1486.941503393802,3.4028234663852886E38,1.56109798E9,,,,0,,5,,1.56109798E9
Raw,2065201177,1455291000000,,,-1311985616708677418,0.0,7.85238938310485,,,0,36,0.0,16431,175857920559952,13,31.06702423095703,-335.9720073157557,0.13412815431788877,1,-136366.83842349052,0.0024177113082259893,1.56109798E9,,,,0,,5,,1.56109798E9
Fix,gps,34.486430,109.463894,357.373352,0.185728,2.000000,1627951854999
Raw,2065202151,1456291000000,,,-1311985616708677808,0.0,7.7753053971675605,,,0,1,0.0,16,1456005457044,1000000000,25.803056716918945,493.2778471915044,2.99792458E8,2,524290.4519536725,3.4028234663852886E38,1.57542003E9,,,,0,,1,,1.57542003E9
Raw,2065202152,1456291000000,,,-1311985616708677808,0.0,7.7753053971675605,,,0,3,0.0,16431,175872925896294,9,39.515228271484375,-195.10427255078457,0.05037422853993995,1,-3334.014066720851,9.607365936972201E-4,1.57542003E9,,,,0,,1,,1.57542003E9
Raw,2065202152,1456291000000,,,-1311985616708677808,0.0,7.7753053971675605,,,0,6,0.0,16431,175872924248256,28,30.25392723083496,-652.2693031195017,0.143993502754303,4,-590444.6625520744,3.4028234663852886E38,1.57542003E9,,,,0,,1,,1.57542003E9
Raw,2065202152,1456291000000,,,-1311985616708677808,0.0,7.7753053971675605,,,0,14,0.0,16431,175872932419982,6,43.2425537109375,-84.90705923042418,0.034341116240154096,1,-231277.5357979064,6.593511207029223E-4,1.57542003E9,,,,0,,1,,1.57542003E9
Raw,2065202153,1456291000000,,,-1311985616708677808,0.0,7.7753053971675605,,,0,17,0.0,16431,175872929398434,7,41.491432189941406,-192.20463939719343,0.04096922209167017,1,-57015.02549702651,8.06627213023603E-4,1.57542003E9,,,,0,,1,,1.57542003E9
Raw,2065202153,1456291000000,,,-1311985616708677808,0.0,7.7753053971675605,,,0,19,0.0,16431,175872927436666,8,41.07490539550781,-443.82287356110214,0.04254581445641009,1,-568321.8705089829,8.028242154978216E-4,1.57542003E9,,,,0,,1,,1.57542003E9
Raw,2065202153,1456291000000,,,-1311985616708677808,0.0,7.7753053971675605,,,0,21,0.0,16,1456015893667,1000000000,21.520519256591797,475.08395025049776,2.99792458E8,2,524295.1169998235,3.4028234663852886E38,1.57542003E9,,,,0,,1,,1.57542003E9
Raw,2065202153,1456291000000,,,-1311985616708677808,0.0,7.7753053971675605,,,0,22,0.0,16431,175872922759667,7,42.17263412475586,137.1979829444047,0.03681228155858318,1,2318.3553729958544,7.457836181856692E-4,1.57542003E9,,,,0,,1,,1.57542003E9
Raw,2065202154,1456291000000,,,-1311985616708677808,0.0,7.7753053971675605,,,0,24,0.0,16431,175872916382061,31,29.582279205322266,-403.7763620538217,0.15769095579143955,1,-537268.7672162636,0.0028423366602510214,1.57542003E9,,,,0,,1,,1.57542003E9
Raw,2065202154,1456291000000,,,-1311985616708677808,0.0,7.7753053971675605,,,0,30,0.0,16431,175872921416464,16,35.262264251708984,483.77415868485787,0.08072130274587108,1,41076.54120334872,0.0015676621114835143,1.57542003E9,,,,0,,1,,1.57542003E9
Raw,2065202154,1456291000000,,,-1311985616708677808,0.0,7.7753053971675605,,,0,10,0.0,99,921355903,64,29.319992065429688,-858.5133584198538,0.15973219205595046,4,-529440.6457787686,3.4028234663852886E38,1.59806246E9,,,,0,,3,,1.59806246E9
Raw,2065202155,1456291000000,,,-1311985616708677808,0.0,7.7753053971675605,,,0,2,0.0,16,1456009994387,1000000000,25.51072883605957,-25.114367429959216,2.99792458E8,2,-0.25078491839028255,3.4028234663852886E38,1.59975002E9,,,,0,,3,,1.59975002E9
Raw,2065202155,1456291000000,,,-1311985616708677808,0.0,7.7753053971675605,,,0,18,0.0,99,928166294,65,21.85394859313965,375.2544583127078,4.20146929581769,4,5271.8016432421,3.4028234663852886E38,1.60031245E9,,,,0,,3,,1.60031245E9
Raw,2065202155,1456291000000,,,-1311985616708677808,0.0,7.7753053971675605,,,0,9,0.0,99,932916743,44,32.53631591796875,-395.1703372870729,0.11245519011069643,1,-532225.3686900609,0.002111489186063409,1.59862502E9,,,,0,,3,,1.59862502E9
Raw,2065202156,1456291000000,,,-1311985616708677808,0.0,7.7753053971675605,,,0,16,0.0,32995,13854932784373,73,28.191455841064453,371.84375872355713,0.18391622451620449,1,41267.90640875151,0.0032817311584949493,1.60143744E9,,,,0,,3,,1.60143744E9
Raw,2065202156,1456291000000,,,-1311985616708677808,0.0,7.7753053971675605,,,0,19,0.0,17,166842,47,32.00104904174805,-25.06169938386381,0.11950048985995193,4,-0.3279672245637997,3.4028234663852886E38,1.60368755E9,,,,0,,3,,1.60368755E9
Raw,2065202156,1456291000000,,,-1311985616708677808,0.0,7.7753053971675605,,,0,3,0.0,32995,13854922160477,33,42.83697509765625,-515.8796963995192,0.03403045498178517,1,-664551.8240190505,6.782155251130462E-4,1.60481254E9,,,,0,,3,,1.60481254E9
Raw,2065202156,1456291000000,,,-1311985616708677808,0.0,7.7753053971675605,,,0,193,0.0,35,11243063,10,38.91585922241211,-181.6344426610351,0.054859017175621416,1,-20774.257992567836,0.0010293731465935707,1.57542003E9,,,,0,,4,,1.57542003E9
Raw,2065202157,1456291000000,,,-1311985616708677808,0.0,7.7753053971675605,,,0,194,0.0,35,15702007,25,31.33695411682129,-151.57533492460118,0.12926329969486944,4,-44817.587390614724,3.4028234663852886E38,1.57542003E9,,,,0,,4,,1.57542003E9
Raw,2065202157,1456291000000,,,-1311985616708677808,0.0,7.7753053971675605,,,0,195,0.0,1,828044,8,41.24046325683594,-120.72894800433272,0.04183819991931828,1,-43167.85452255408,8.302737842313945E-4,1.57542003E9,,,,0,,4,,1.57542003E9
Raw,2065202157,1456291000000,,,-1311985616708677808,0.0,7.7753053971675605,,,0,7,0.0,16431,175858879681775,6,37.31355285644531,-101.411872229231,0.06708079803208467,1,-151046.19365029092,0.0012492642272263765,1.56109798E9,,,,0,,5,,1.56109798E9
Raw,2065202158,1456291000000,,,-1311985616708677808,0.0,7.7753053971675605,,,0,8,0.0,16431,175858877952366,15,29.828794479370117,-208.7198731070821,0.1536433478846908,1,-309896.98079419544,0.0027881485875695944,1.56109798E9,,,,0,,5,,1.56109798E9
Raw,2065202158,1456291000000,,,-1311985616708677808,0.0,7.7753053971675605,,,0,10,0.0,16431,175858880242506,7,36.16392135620117,-165.48951484126678,0.0761735664091166,1,-211457.35854147308,0.0014260535826906562,1.56109798E9,,,,0,,5,,1.56109798E9
Raw,2065202158,1456291000000,,,-1311985616708677808,0.0,7.7753053971675605,,,0,30,0.0,16431,175858924292675,12,31.7548828125,-321.6486504673055,0.12127137136497002,1,-94733.70785276292,0.002369123976677656,1.56109798E9,,,,0,,5,,1.56109798E9
Raw,2065202159,1456291000000,,,-1311985616708677808,0.0,7.7753053971675605,,,0,32,0.0,16431,175858912906716,8,34.5645866394043,-649.8917109524705,0.0895181129164569,1,-188395.29028718502,0.001714362413622439,1.56109798E9,,,,0,,5,,1.56109798E9
Raw,2065202159,1456291000000,,,-1311985616708677808,0.0,7.7753053971675605,,,0,33,0.0,16431,175858910822411,166,13.480453491210938,13.31141143660114,4.201946716478201,4,-1472.6790223843034,3.4028234663852886E38,1.56109798E9,,,,1,,5,,1.56109798E9
Raw,2065202159,1456291000000,,,-1311985616708677808,0.0,7.7753053971675605,,,0,36,0.0,16431,175858920561083,12,31.684228897094727,-335.83073553346867,0.12518182567531605,1,-136702.68971970872,0.0022518744226545095,1.56109798E9,,,,0,,5,,1.56109798E9
Fix,gps,34.486431,109.463894,357.396973,0.120554,2.000000,1627951855999
Raw,2065203176,1457291000000,,,-1311985616708678196,0.0,7.670458229154372,,,0,1,0.0,16,1457005455460,1000000000,27.204689025878906,493.46349433218415,2.99792458E8,2,524290.4644532877,3.4028234663852886E38,1.57542003E9,,,,0,,1,,1.57542003E9
Raw,2065203177,1457291000000,,,-1311985616708678196,0.0,7.670458229154372,,,0,3,0.0,16431,175873925896930,8,41.023292541503906,-195.02445143760815,0.04251446541955714,1,-3529.051570712077,8.076088852249086E-4,1.57542003E9,,,,0,,1,,1.57542003E9
Raw,2065203177,1457291000000,,,-1311985616708678196,0.0,7.670458229154372,,,0,6,0.0,16431,175873924250434,23,31.967838287353516,-652.221860340022,0.11834538082320961,4,-591096.9117747693,3.4028234663852886E38,1.57542003E9,,,,0,,1,,1.57542003E9
Raw,2065203178,1457291000000,,,-1311985616708678196,0.0,7.670458229154372,,,0,14,0.0,16431,175873932420268,7,42.482269287109375,-84.75134500718559,0.03727820271838256,1,-231362.35890242545,7.196658989414573E-4,1.57542003E9,,,,0,,1,,1.57542003E9
Raw,2065203178,1457291000000,,,-1311985616708678196,0.0,7.670458229154372,,,0,17,0.0,16431,175873929399076,7,42.293128967285156,-192.12350610944088,0.03750624563915017,1,-57207.186288366865,7.355090929195285E-4,1.57542003E9,,,,0,,1,,1.57542003E9
Raw,2065203178,1457291000000,,,-1311985616708678196,0.0,7.670458229154372,,,0,19,0.0,16431,175873927438136,8,41.132469177246094,-443.72382994244686,0.04227390368632894,1,-568765.6595295795,7.975212065503001E-4,1.57542003E9,,,,0,,1,,1.57542003E9
Raw,2065203179,1457291000000,,,-1311985616708678196,0.0,7.670458229154372,,,0,21,0.0,16,1457015892083,1000000000,23.217464447021484,475.08395025049776,2.99792458E8,2,524295.1132846022,3.4028234663852886E38,1.57542003E9,,,,0,,1,,1.57542003E9
Raw,2065203179,1457291000000,,,-1311985616708678196,0.0,7.670458229154372,,,0,22,0.0,16431,175873922759220,6,42.778358459472656,137.28802879453798,0.034365950002725465,1,2455.618826450247,6.955471471883357E-4,1.57542003E9,,,,0,,1,,1.57542003E9
Raw,2065203179,1457291000000,,,-1311985616708678196,0.0,7.670458229154372,,,0,24,0.0,16431,175873916383412,37,27.942262649536133,-403.6404071347522,0.1898495175541054,1,-537672.4978306871,0.003433020319789648,1.57542003E9,,,,0,,1,,1.57542003E9
Raw,2065203179,1457291000000,,,-1311985616708678196,0.0,7.670458229154372,,,0,30,0.0,16431,175873921414849,21,33.02096176147461,483.7581058478356,0.10440951700865814,1,41560.31475719347,0.002029166556894779,1.57542003E9,,,,0,,1,,1.57542003E9
Raw,2065203180,1457291000000,,,-1311985616708678196,0.0,7.670458229154372,,,0,10,0.0,99,1921358868,59,30.068458557128906,-858.3398787161527,0.14656503075567884,4,-530299.0698684438,3.4028234663852886E38,1.59806246E9,,,,0,,3,,1.59806246E9
Raw,2065203180,1457291000000,,,-1311985616708678196,0.0,7.670458229154372,,,0,2,0.0,16,1457009994470,1000000000,21.523876190185547,-24.931719545453475,2.99792458E8,2,-0.24700944812521627,3.4028234663852886E38,1.59975002E9,,,,0,,3,,1.59975002E9
Raw,2065203180,1457291000000,,,-1311985616708678196,0.0,7.670458229154372,,,0,18,0.0,99,1928164812,64,21.975303649902344,375.5253115946946,4.201469029548498,4,5648.665530634038,3.4028234663852886E38,1.60031245E9,,,,0,,3,,1.60031245E9
Raw,2065203181,1457291000000,,,-1311985616708678196,0.0,7.670458229154372,,,0,9,0.0,99,1932918038,50,31.524898529052734,-394.92787469136965,0.12605604567767348,1,-532620.4370107434,0.0023722457699477673,1.59862502E9,,,,0,,3,,1.59862502E9
Raw,2065203181,1457291000000,,,-1311985616708678196,0.0,7.670458229154372,,,0,16,0.0,32995,13855932783043,76,27.85492706298828,371.98649605147466,0.19109071474885186,1,41639.8951569013,0.003411375219002366,1.60143744E9,,,,0,,3,,1.60143744E9
Raw,2065203181,1457291000000,,,-1311985616708678196,0.0,7.670458229154372,,,0,19,0.0,99,1933166953,49,31.609336853027344,-24.893076430217207,0.12490379071382846,4,-25.335722218407756,3.4028234663852886E38,1.60368755E9,,,,0,,3,,1.60368755E9
Raw,2065203182,1457291000000,,,-1311985616708678196,0.0,7.670458229154372,,,0,3,0.0,32995,13855922162220,33,42.65278625488281,-515.7476609629498,0.03475178446247164,1,-665067.6287148447,6.927509093657136E-4,1.60481254E9,,,,0,,3,,1.60481254E9
Raw,2065203182,1457291000000,,,-1311985616708678196,0.0,7.670458229154372,,,0,193,0.0,35,11243672,10,39.192298889160156,-181.6775399273082,0.053204004373503755,1,-20955.894959881538,9.971276158466935E-4,1.57542003E9,,,,0,,4,,1.57542003E9
Raw,2065203182,1457291000000,,,-1311985616708678196,0.0,7.670458229154372,,,0,194,0.0,35,15702532,17,34.66181945800781,-151.64907231928828,0.08905031955140419,4,-44969.202996967004,3.4028234663852886E38,1.57542003E9,,,,0,,4,,1.57542003E9
Raw,2065203183,1457291000000,,,-1311985616708678196,0.0,7.670458229154372,,,0,195,0.0,1,828444,8,40.808998107910156,-120.72406569243583,0.04389733446605101,1,-43288.57632469942,8.725586230866611E-4,1.57542003E9,,,,0,,4,,1.57542003E9
Raw,2065203183,1457291000000,,,-1311985616708678196,0.0,7.670458229154372,,,0,7,0.0,16431,175859879682110,6,37.479000091552734,-101.36539227914801,0.06588198756427355,1,-151147.5417562064,0.0012256935006007552,1.56109798E9,,,,0,,5,,1.56109798E9
Raw,2065203183,1457291000000,,,-1311985616708678196,0.0,7.670458229154372,,,0,8,0.0,16431,175859877953048,15,29.603252410888672,-208.65971757131933,0.157600324415354,1,-310105.5938201295,0.00286149512976408,1.56109798E9,,,,0,,5,,1.56109798E9
Raw,2065203183,1457291000000,,,-1311985616708678196,0.0,7.670458229154372,,,0,10,0.0,16431,175859880243063,8,35.065818786621094,-165.45967565058106,0.08594834171583093,1,-211622.8257394454,0.001618232810869813,1.56109798E9,,,,0,,5,,1.56109798E9
Raw,2065203184,1457291000000,,,-1311985616708678196,0.0,7.670458229154372,,,0,30,0.0,16431,175859924293730,12,31.311199188232422,-321.5010052656487,0.1275867107673212,1,-95055.25448530607,0.0023506914731115103,1.56109798E9,,,,0,,5,,1.56109798E9
Raw,2065203184,1457291000000,,,-1311985616708678196,0.0,7.670458229154372,,,0,32,0.0,16431,175859912908896,9,33.66883850097656,-649.9354046617327,0.09899083078805537,1,-189045.18576685613,0.0019005968933925033,1.56109798E9,,,,0,,5,,1.56109798E9
Raw,2065203184,1457291000000,,,-1311985616708678196,0.0,7.670458229154372,,,0,33,0.0,16430,175859910822400,1000000000,16.419689178466797,13.718381529325889,2.99792458E8,4,-1460.3308251750284,3.4028234663852886E38,1.56109798E9,,,,1,,5,,1.56109798E9
Raw,2065203185,1457291000000,,,-1311985616708678196,0.0,7.670458229154372,,,0,36,0.0,16431,175859920562203,11,32.4039192199707,-335.66124347718073,0.11552196216659488,1,-137038.43371162956,0.002072810661047697,1.56109798E9,,,,0,,5,,1.56109798E9
Fix,gps,34.486431,109.463894,357.428711,0.000000,2.000000,1627951856999
Raw,2065204131,1458291000000,,,-1311985616708678585,0.0,7.654338723640297,,,0,1,0.0,16,1458005453814,1000000000,7.0,493.46349433218415,2.99792458E8,2,524290.4605943357,3.4028234663852886E38,1.57542003E9,,,,0,,1,,1.57542003E9
Raw,2065204132,1458291000000,,,-1311985616708678585,0.0,7.654338723640297,,,0,3,0.0,16431,175874925897600,6,43.316368103027344,-195.3190261093348,0.03289621271270522,1,-3724.1135587543486,6.53771567158401E-4,1.57542003E9,,,,0,,1,,1.57542003E9
Raw,2065204132,1458291000000,,,-1311985616708678585,0.0,7.654338723640297,,,0,6,0.0,16431,175874924252621,22,32.32572555541992,-651.7216662080932,0.11359949860335511,4,-591748.9029042138,3.4028234663852886E38,1.57542003E9,,,,0,,1,,1.57542003E9
Raw,2065204132,1458291000000,,,-1311985616708678585,0.0,7.654338723640297,,,0,14,0.0,16431,175874932420554,8,40.828514099121094,-84.1754366980914,0.04462798128821488,1,-231446.98319179038,8.706003427505493E-4,1.57542003E9,,,,0,,1,,1.57542003E9
Raw,2065204133,1458291000000,,,-1311985616708678585,0.0,7.654338723640297,,,0,17,0.0,16431,175874929399725,9,39.66156005859375,-191.97325359986007,0.05018058843081627,1,-57399.223318354154,9.446865878999233E-4,1.57542003E9,,,,0,,1,,1.57542003E9
Raw,2065204133,1458291000000,,,-1311985616708678585,0.0,7.654338723640297,,,0,19,0.0,16431,175874927439637,10,38.76255798339844,-443.6400893467703,0.055115692355396595,1,-569209.2728652473,0.0010477021569386125,1.57542003E9,,,,0,,1,,1.57542003E9
Raw,2065204133,1458291000000,,,-1311985616708678585,0.0,7.654338723640297,,,0,21,0.0,16,1458015890498,1000000000,22.139751434326172,475.08395025049776,2.99792458E8,2,524295.1244302661,3.4028234663852886E38,1.57542003E9,,,,0,,1,,1.57542003E9
Raw,2065204134,1458291000000,,,-1311985616708678585,0.0,7.654338723640297,,,0,22,0.0,16431,175874922758767,6,43.44820785522461,137.07611260049327,0.03185204015813484,1,2592.853758347532,6.43923063762486E-4,1.57542003E9,,,,0,,1,,1.57542003E9
Raw,2065204134,1458291000000,,,-1311985616708678585,0.0,7.654338723640297,,,0,24,0.0,16431,175874916384810,33,29.059005737304688,-403.1727617488027,0.16730037793017993,1,-538075.9405557229,0.0030188339296728373,1.57542003E9,,,,0,,1,,1.57542003E9
Raw,2065204135,1458291000000,,,-1311985616708678585,0.0,7.654338723640297,,,0,30,0.0,16431,175874921413285,14,36.200660705566406,483.9792328257556,0.07248049593096256,1,42044.208649481865,0.001407124800607562,1.57542003E9,,,,0,,1,,1.57542003E9
Raw,2065204135,1458291000000,,,-1311985616708678585,0.0,7.654338723640297,,,0,10,0.0,99,921361680,61,29.74396324157715,-858.3869125061542,0.15213531567632776,4,-531157.332996451,3.4028234663852886E38,1.59806246E9,,,,0,,3,,1.59806246E9
Raw,2065204135,1458291000000,,,-1311985616708678585,0.0,7.654338723640297,,,0,2,0.0,16,1458009994675,1000000000,22.102554321289062,-24.840393473047072,2.99792458E8,2,-0.24571575317444252,3.4028234663852886E38,1.59975002E9,,,,0,,3,,1.59975002E9
Raw,2065204136,1458291000000,,,-1311985616708678585,0.0,7.654338723640297,,,0,18,0.0,99,928163592,62,22.406719207763672,375.94796813803396,4.201468763279307,4,6024.911368191501,3.4028234663852886E38,1.60031245E9,,,,0,,3,,1.60031245E9
Raw,2065204136,1458291000000,,,-1311985616708678585,0.0,7.654338723640297,,,0,9,0.0,99,932919330,33,37.68592834472656,-394.4259082717017,0.0631978984226115,1,-533015.1846623549,0.0011671003885567188,1.59862502E9,,,,0,,3,,1.59862502E9
Raw,2065204136,1458291000000,,,-1311985616708678585,0.0,7.654338723640297,,,0,16,0.0,32995,13856932781860,87,26.725976943969727,372.4798055271858,0.21729476514741242,1,42012.10864375332,0.003884874749928713,1.60143744E9,,,,0,,3,,1.60143744E9
Raw,2065204137,1458291000000,,,-1311985616708678585,0.0,7.654338723640297,,,0,19,0.0,99,933167053,65,29.21072769165039,-24.538320660885404,0.1638756568716696,4,-50.10552531337652,3.4028234663852886E38,1.60368755E9,,,,0,,3,,1.60368755E9
Raw,2065204137,1458291000000,,,-1311985616708678585,0.0,7.654338723640297,,,0,3,0.0,32995,13856922163931,33,43.265113830566406,-516.0070284570884,0.032413042301838516,1,-665583.5148978374,6.455960101448E-4,1.60481254E9,,,,0,,3,,1.60481254E9
Raw,2065204137,1458291000000,,,-1311985616708678585,0.0,7.654338723640297,,,0,193,0.0,35,11244282,8,40.61524200439453,-181.77540770121345,0.045470219864389344,1,-21137.636665915772,8.464543498121202E-4,1.57542003E9,,,,0,,4,,1.57542003E9
Raw,2065204137,1458291000000,,,-1311985616708678585,0.0,7.654338723640297,,,0,194,0.0,35,15703041,13,37.206199645996094,-151.57196076140542,0.06715530764071101,4,-45120.84564267064,3.4028234663852886E38,1.57542003E9,,,,0,,4,,1.57542003E9
Raw,2065204138,1458291000000,,,-1311985616708678585,0.0,7.654338723640297,,,0,195,0.0,1,828878,11,38.17890167236328,-120.30566945616181,0.05892351237375518,1,-43409.29755644837,0.0011205226182937622,1.57542003E9,,,,0,,4,,1.57542003E9
Raw,2065204138,1458291000000,,,-1311985616708678585,0.0,7.654338723640297,,,0,7,0.0,16431,175860879682446,6,38.0499382019043,-101.27112872502005,0.06191600780656992,1,-151248.89788550095,0.0011477174703031778,1.56109798E9,,,,0,,5,,1.56109798E9
Raw,2065204138,1458291000000,,,-1311985616708678585,0.0,7.654338723640297,,,0,8,0.0,16431,175860877953753,12,31.352270126342773,-208.39435156483273,0.129445560956509,1,-310314.1227762379,0.0023396029137074947,1.56109798E9,,,,0,,5,,1.56109798E9
Raw,2065204139,1458291000000,,,-1311985616708678585,0.0,7.654338723640297,,,0,10,0.0,16431,175860880243578,9,34.36864471435547,-165.25705544655295,0.09282723154125838,1,-211788.18190245176,0.0017534756334498525,1.56109798E9,,,,0,,5,,1.56109798E9
Raw,2065204139,1458291000000,,,-1311985616708678585,0.0,7.654338723640297,,,0,30,0.0,16431,175860924294843,13,30.8369197845459,-321.75601020535237,0.1347039281610412,4,-95376.91392745254,3.4028234663852886E38,1.56109798E9,,,,0,,5,,1.56109798E9
Raw,2065204139,1458291000000,,,-1311985616708678585,0.0,7.654338723640297,,,0,32,0.0,16431,175860912911042,10,33.171932220458984,-649.9675785006903,0.10468272584104826,1,-189695.17675589386,0.0020124970469623804,1.56109798E9,,,,0,,5,,1.56109798E9
Raw,2065204139,1458291000000,,,-1311985616708678585,0.0,7.654338723640297,,,0,33,0.0,16431,175860910822298,166,15.675826072692871,14.321218174303397,4.201946716478201,4,-1446.1220532485636,3.4028234663852886E38,1.56109798E9,,,,1,,5,,1.56109798E9
Raw,2065204140,1458291000000,,,-1311985616708678585,0.0,7.654338723640297,,,0,36,0.0,16431,175860920563293,6,36.91620635986328,-335.18119207705695,0.07021359652658382,1,-137373.8770022126,0.0013077405747026205,1.56109798E9,,,,0,,5,,1.56109798E9
Fix,gps,34.486431,109.463894,357.347961,0.000000,2.000000,1627951857999
Raw,2065205170,1459291000000,,,-1311985616708678972,0.0,7.148293295021563,,,0,1,0.0,16,1459005452106,1000000000,20.479084014892578,493.46349433218415,2.99792458E8,2,524290.4567353837,3.4028234663852886E38,1.57542003E9,,,,0,,1,,1.57542003E9
Raw,2065205171,1459291000000,,,-1311985616708678972,0.0,7.148293295021563,,,0,3,0.0,16431,175875925898238,6,44.82111358642578,-195.57380951307107,0.03106094814925324,1,-3919.5251899013274,5.497797392308712E-4,1.57542003E9,,,,0,,1,,1.57542003E9
Raw,2065205172,1459291000000,,,-1311985616708678972,0.0,7.148293295021563,,,0,6,0.0,16431,175875924254801,24,31.80770492553711,-651.3811824674303,0.12053397212252581,4,-592400.3633939468,3.4028234663852886E38,1.57542003E9,,,,0,,1,,1.57542003E9
Raw,2065205173,1459291000000,,,-1311985616708678972,0.0,7.148293295021563,,,0,14,0.0,16431,175875932420838,11,38.08885192871094,-84.96772600303478,0.06034887215858736,1,-231531.64622137274,0.0011322000063955784,1.57542003E9,,,,0,,1,,1.57542003E9
Raw,2065205173,1459291000000,,,-1311985616708678972,0.0,7.148293295021563,,,0,17,0.0,16431,175875929400369,11,38.49333572387695,-191.92441343966289,0.05716132622202477,4,-57591.323630211555,3.4028234663852886E38,1.57542003E9,,,,0,,1,,1.57542003E9
Raw,2065205174,1459291000000,,,-1311985616708678972,0.0,7.148293295021563,,,0,19,0.0,16431,175875927441093,14,36.45321273803711,-443.1683540660381,0.07149494212287388,4,-569652.5178404592,3.4028234663852886E38,1.57542003E9,,,,0,,1,,1.57542003E9
Raw,2065205174,1459291000000,,,-1311985616708678972,0.0,7.148293295021563,,,0,21,0.0,16,1459015888913,1000000000,27.508445739746094,475.08395025049776,2.99792458E8,2,524295.1207150448,3.4028234663852886E38,1.57542003E9,,,,0,,1,,1.57542003E9
Raw,2065205175,1459291000000,,,-1311985616708678972,0.0,7.148293295021563,,,0,22,0.0,16431,175875922758296,6,43.0474967956543,137.03003311927444,0.03333239701239757,4,2729.726671214433,3.4028234663852886E38,1.57542003E9,,,,0,,1,,1.57542003E9
Raw,2065205176,1459291000000,,,-1311985616708678972,0.0,7.148293295021563,,,0,24,0.0,16431,175875916386197,33,28.96030616760254,-402.999895529319,0.16917885715133485,4,-538478.891672849,3.4028234663852886E38,1.57542003E9,,,,0,,1,,1.57542003E9
Raw,2065205176,1459291000000,,,-1311985616708678972,0.0,7.148293295021563,,,0,30,0.0,16431,175875921411699,21,32.96171951293945,484.6104740030146,0.10512178709614656,4,42528.344873387425,3.4028234663852886E38,1.57542003E9,,,,0,,1,,1.57542003E9
Raw,2065205177,1459291000000,,,-1311985616708678972,0.0,7.148293295021563,,,0,10,0.0,99,1921364632,49,31.666301727294922,-857.9300030940094,0.12197986375830283,4,-532015.4856575294,3.4028234663852886E38,1.59806246E9,,,,0,,3,,1.59806246E9
Raw,2065205177,1459291000000,,,-1311985616708678972,0.0,7.148293295021563,,,0,2,0.0,16,1459009994635,1000000000,21.663312911987305,-24.6577434583878,2.99792458E8,2,-0.2435229918045976,3.4028234663852886E38,1.59975002E9,,,,0,,3,,1.59975002E9
Raw,2065205178,1459291000000,,,-1311985616708678972,0.0,7.148293295021563,,,0,18,0.0,99,1928162334,113,24.38746452331543,375.9392430291641,0.28288834989355105,4,6400.735418558612,3.4028234663852886E38,1.60031245E9,,,,0,,3,,1.60031245E9
Raw,2065205178,1459291000000,,,-1311985616708678972,0.0,7.148293295021563,,,0,9,0.0,99,1932920627,33,40.65116500854492,-394.3633328815258,0.04559243742332661,1,-533409.5062360025,8.295573643408716E-4,1.59862502E9,,,,0,,3,,1.59862502E9
Raw,2065205178,1459291000000,,,-1311985616708678972,0.0,7.148293295021563,,,0,16,0.0,32995,13857932780665,99,25.53757667541504,373.2095109213392,0.2488174594387501,4,42384.65367114023,3.4028234663852886E38,1.60143744E9,,,,0,,3,,1.60143744E9
Raw,2065205179,1459291000000,,,-1311985616708678972,0.0,7.148293295021563,,,0,19,0.0,99,1933167122,54,30.85679054260254,-24.74105163289721,0.13599378605054974,4,-74.72125573162414,3.4028234663852886E38,1.60368755E9,,,,0,,3,,1.60368755E9
Raw,2065205180,1459291000000,,,-1311985616708678972,0.0,7.148293295021563,,,0,3,0.0,32995,13857922165636,33,41.004364013671875,-516.5889182373023,0.04193373647316756,1,-666099.9221480128,8.375262259505689E-4,1.60481254E9,,,,0,,3,,1.60481254E9
Raw,2065205180,1459291000000,,,-1311985616708678972,0.0,7.148293295021563,,,0,193,0.0,35,11244869,8,40.42181396484375,-182.37934883079765,0.04644873002026939,1,-21319.817314966316,8.655157289467752E-4,1.57542003E9,,,,0,,4,,1.57542003E9
Raw,2065205180,1459291000000,,,-1311985616708678972,0.0,7.148293295021563,,,0,194,0.0,35,15703543,10,39.356475830078125,-152.09720549887845,0.05304790405993737,4,-45272.67437512485,3.4028234663852886E38,1.57542003E9,,,,0,,4,,1.57542003E9
Raw,2065205181,1459291000000,,,-1311985616708678972,0.0,7.148293295021563,,,0,195,0.0,1,829257,15,35.49187469482422,-121.60596629619181,0.07977553121918757,4,-43530.36496932376,3.4028234663852886E38,1.57542003E9,,,,0,,4,,1.57542003E9
Raw,2065205181,1459291000000,,,-1311985616708678972,0.0,7.148293295021563,,,0,7,0.0,16431,175861879682785,6,37.18834686279297,-101.83175957297789,0.06800353311324,1,-151350.45320895722,0.0012674025492742658,1.56109798E9,,,,0,,5,,1.56109798E9
Raw,2065205182,1459291000000,,,-1311985616708678972,0.0,7.148293295021563,,,0,8,0.0,16431,175861877954432,11,32.52335739135742,-208.70871110257087,0.11352573371637398,1,-310522.5912276133,0.0021685229148715734,1.56109798E9,,,,0,,5,,1.56109798E9
Raw,2065205182,1459291000000,,,-1311985616708678972,0.0,7.148293295021563,,,0,10,0.0,16431,175861880244148,10,33.28215789794922,-165.7889633042762,0.10471102526356635,1,-211953.57996082396,0.0018734742188826203,1.56109798E9,,,,0,,5,,1.56109798E9
Raw,2065205182,1459291000000,,,-1311985616708678972,0.0,7.148293295021563,,,0,30,0.0,16431,175861924295900,8,35.36982345581055,-320.8122329017792,0.08024894120000026,4,-95697.82698197012,3.4028234663852886E38,1.56109798E9,,,,0,,5,,1.56109798E9
Raw,2065205183,1459291000000,,,-1311985616708678972,0.0,7.148293295021563,,,0,32,0.0,16431,175861912913194,11,32.329002380371094,-649.9816886376907,0.11511474504262764,4,-190345.4659078666,3.4028234663852886E38,1.56109798E9,,,,0,,5,,1.56109798E9
Raw,2065205183,1459291000000,,,-1311985616708678972,0.0,7.148293295021563,,,0,33,0.0,16431,175861910822292,87,17.677356719970703,14.278363745533028,4.201946716478201,4,-1430.9615732130649,3.4028234663852886E38,1.56109798E9,,,,0,,5,,1.56109798E9
