# 
# Header Description:
# 
# Version: v2.0.0.1 Platform: 10 Manufacturer: HUAWEI Model: BLA-AL00
# 
# Raw,ElapsedRealtimeMillis,TimeNanos,LeapSecond,TimeUncertaintyNanos,FullBiasNanos,BiasNanos,BiasUncertaintyNanos,DriftNanosPerSecond,DriftUncertaintyNanosPerSecond,HardwareClockDiscontinuityCount,Svid,TimeOffsetNanos,State,ReceivedSvTimeNanos,ReceivedSvTimeUncertaintyNanos,Cn0DbHz,PseudorangeRateMetersPerSecond,PseudorangeRateUncertaintyMetersPerSecond,AccumulatedDeltaRangeState,AccumulatedDeltaRangeMeters,AccumulatedDeltaRangeUncertaintyMeters,CarrierFrequencyHz,CarrierCycles,CarrierPhase,CarrierPhaseUncertainty,MultipathIndicator,SnrInDb,ConstellationType,AgcDb,CarrierFrequencyHz
# 
# Fix,Provider,Latitude,Longitude,Altitude,Speed,Accuracy,(UTC)TimeInMs
# 
# Nav,Svid,Type,Status,MessageId,Sub-messageId,Data(Bytes)
# 
Fix,gps,34.486754,109.464231,362.664337,0.516739,3.000000,1627819273000
Raw,1932619544,620825000000,,,-1311853870175424950,0.0,8.339208947309809,,,0,10,0.0,16431,43290931260899,22,32.55039596557617,-424.34529497762037,0.11197893437789869,4,-275609.85431487596,3.4028234663852886E38,1.57542003E9,,,,0,,1,,1.57542003E9
Raw,1932619545,620825000000,,,-1311853870175424950,0.0,8.339208947309809,,,0,12,0.0,16431,43290922903500,10,39.03156280517578,-553.4119110066554,0.052659779269097956,1,-354312.2777510373,0.0010157517390325665,1.57542003E9,,,,0,,1,,1.57542003E9
Raw,1932619545,620825000000,,,-1311853870175424950,0.0,8.339208947309809,,,0,15,0.0,16431,43290918713426,43,26.74407958984375,415.06528963313303,0.21791404071973997,4,256493.5425617395,3.4028234663852886E38,1.57542003E9,,,,0,,1,,1.57542003E9
Raw,1932619545,620825000000,,,-1311853870175424950,0.0,8.339208947309809,,,0,18,0.0,16431,43290923987378,166,35.62724685668945,541.678445946917,0.07787256355331912,4,323710.08756968984,3.4028234663852886E38,1.57542003E9,,,,1,,1,,1.57542003E9
Raw,1932619545,620825000000,,,-1311853870175424950,0.0,8.339208947309809,,,0,23,0.0,16431,43290932551862,10,38.99375915527344,17.268667949319273,0.05462269910763409,1,-7257.689365920711,0.001020182273350656,1.57542003E9,,,,0,,1,,1.57542003E9
Raw,1932619545,620825000000,,,-1311853870175424950,0.0,8.339208947309809,,,0,24,0.0,16431,43290928484311,14,35.97955322265625,397.9731762641393,0.0756145924877707,4,231744.87942431,3.4028234663852886E38,1.57542003E9,,,,0,,1,,1.57542003E9
Raw,1932619546,620825000000,,,-1311853870175424950,0.0,8.339208947309809,,,0,25,0.0,16431,43290921475759,8,41.40476608276367,-729.9556275491609,0.03993800311722476,1,-453150.12348469405,8.147158659994602E-4,1.57542003E9,,,,0,,1,,1.57542003E9
Raw,1932619546,620825000000,,,-1311853870175424950,0.0,8.339208947309809,,,0,31,0.0,16,620016155823,1000000000,7.0,-849.9157179374097,2.99792458E8,2,-13.591226028266254,3.4028234663852886E38,1.57542003E9,,,,0,,1,,1.57542003E9
Raw,1932619546,620825000000,,,-1311853870175424950,0.0,8.339208947309809,,,0,32,0.0,16431,43290926632172,12,37.211978912353516,-428.4711467519892,0.06548089047125663,4,-270838.7814657423,3.4028234663852886E38,1.57542003E9,,,,0,,1,,1.57542003E9
Raw,1932619546,620825000000,,,-1311853870175424950,0.0,8.339208947309809,,,0,10,0.0,32995,54072928657968,166,35.26059341430664,-864.612754839176,0.08203936020695085,4,-543940.3142268618,3.4028234663852886E38,1.59806246E9,,,,1,,3,,1.59806246E9
Raw,1932619546,620825000000,,,-1311853870175424950,0.0,8.339208947309809,,,0,9,0.0,32995,54072934020698,33,38.645904541015625,-270.43342020486966,0.05702658152971468,1,-197798.9248580062,0.001044983509927988,1.59862502E9,,,,0,,3,,1.59862502E9
Raw,1932619546,620825000000,,,-1311853870175424950,0.0,8.339208947309809,,,0,16,0.0,32995,54072927498652,101,25.346370697021484,429.5338036639139,0.25335422049226397,4,238464.19769037675,3.4028234663852886E38,1.60143744E9,,,,0,,3,,1.60143744E9
Raw,1932619547,620825000000,,,-1311853870175424950,0.0,8.339208947309809,,,0,23,0.0,32995,54072925230877,36,34.16419982910156,-160.98354142929907,0.09225092515972277,4,-128279.9097888308,3.4028234663852886E38,1.60368755E9,,,,0,,3,,1.60368755E9
Raw,1932619547,620825000000,,,-1311853870175424950,0.0,8.339208947309809,,,0,7,0.0,32995,54072933154211,33,37.2076530456543,-217.96138231692692,0.06668608307875354,4,-141950.20573995524,3.4028234663852886E38,1.60481254E9,,,,0,,3,,1.60481254E9
Raw,1932619547,620825000000,,,-1311853870175424950,0.0,8.339208947309809,,,0,8,0.0,32961,54072926541744,46,32.23358154296875,-564.1363990234925,0.11521462095220852,4,-579574.2884493871,3.4028234663852886E38,1.60537498E9,,,,0,,3,,1.60537498E9
Raw,1932619547,620825000000,,,-1311853870175424950,0.0,8.339208947309809,,,0,193,0.0,35,9475668,20,33.37747573852539,-244.28302491229772,0.10167096333594872,1,-148827.48342147635,0.0019475648878142238,1.57542003E9,,,,0,,4,,1.57542003E9
Raw,1932619547,620825000000,,,-1311853870175424950,0.0,8.339208947309809,,,0,194,0.0,35,13000624,19,33.84880065917969,-116.73743223234857,0.09702504023479747,4,-74504.3520465989,3.4028234663852886E38,1.57542003E9,,,,0,,4,,1.57542003E9
Raw,1932619547,620825000000,,,-1311853870175424950,0.0,8.339208947309809,,,0,6,0.0,16431,43276879319037,18,28.108539581298828,-74.67006110984698,0.18683366948109748,4,-28276.92442750235,3.4028234663852886E38,1.56109798E9,,,,0,,5,,1.56109798E9
Raw,1932619548,620825000000,,,-1311853870175424950,0.0,8.339208947309809,,,0,14,0.0,16431,43276925785855,11,32.1915397644043,82.47893982159786,0.11563194798454374,4,36017.37789749649,3.4028234663852886E38,1.56109798E9,,,,0,,5,,1.56109798E9
Raw,1932619548,620825000000,,,-1311853870175424950,0.0,8.339208947309809,,,0,16,0.0,16431,43276878679584,18,28.260099411010742,-75.00972687155331,0.18354697571477474,4,-27826.453322298268,3.4028234663852886E38,1.56109798E9,,,,0,,5,,1.56109798E9
Raw,1932619548,620825000000,,,-1311853870175424950,0.0,8.339208947309809,,,0,24,0.0,16431,43276925081276,6,37.20957565307617,-79.05848412926753,0.06521971367796123,1,-53700.23383227575,0.0012643086956813931,1.56109798E9,,,,0,,5,,1.56109798E9
Raw,1932619548,620825000000,,,-1311853870175424950,0.0,8.339208947309809,,,0,25,0.0,16431,43276921796840,8,34.762874603271484,-647.4334796933063,0.08555166718766799,1,-64344.803880987325,0.0016756688710302114,1.56109798E9,,,,0,,5,,1.56109798E9
Raw,1932619548,620825000000,,,-1311853870175424950,0.0,8.339208947309809,,,0,26,0.0,16431,43276917623117,16,29.011428833007812,378.85261141273395,0.16842586451935848,4,179613.76892398606,3.4028234663852886E38,1.56109798E9,,,,0,,5,,1.56109798E9
Raw,1932619548,620825000000,,,-1311853870175424950,0.0,8.339208947309809,,,0,27,0.0,16431,43276914439843,10,32.805973052978516,42.99664634082427,0.10936256498047758,4,2255.3163233308474,3.4028234663852886E38,1.56109798E9,,,,0,,5,,1.56109798E9
Raw,1932619549,620825000000,,,-1311853870175424950,0.0,8.339208947309809,,,0,33,0.0,16431,43276926529760,6,39.866180419921875,-163.35065324094955,0.04853538182376993,1,-89320.99172832785,9.311569738201797E-4,1.56109798E9,,,,0,,5,,1.56109798E9
Fix,gps,34.486755,109.464233,362.702057,0.455231,3.000000,1627819274000
Raw,1932620504,621825000000,,,-1311853870175425334,0.0,8.08042046187325,,,0,10,0.0,16431,43291931262311,15,35.65041732788086,-424.5572537747357,0.07897561696310668,4,-276034.3552056658,3.4028234663852886E38,1.57542003E9,,,,0,,1,,1.57542003E9
Raw,1932620504,621825000000,,,-1311853870175425334,0.0,8.08042046187325,,,0,12,0.0,16431,43291922905330,14,35.97601318359375,-553.6158604264879,0.07464127874158266,1,-354865.7607431129,0.0014439927181228995,1.57542003E9,,,,0,,1,,1.57542003E9
Raw,1932620504,621825000000,,,-1311853870175425334,0.0,8.08042046187325,,,0,15,0.0,16431,43291918712017,45,26.240875244140625,415.36327255051197,0.23071038888708129,4,256909.21078979826,3.4028234663852886E38,1.57542003E9,,,,0,,1,,1.57542003E9
Raw,1932620504,621825000000,,,-1311853870175425334,0.0,8.08042046187325,,,0,18,0.0,16431,43291923985542,17,34.64784240722656,541.3462783256457,0.08708160003703885,4,324251.4662400604,3.4028234663852886E38,1.57542003E9,,,,0,,1,,1.57542003E9
Raw,1932620504,621825000000,,,-1311853870175425334,0.0,8.08042046187325,,,0,23,0.0,16431,43291932551788,17,34.8306770324707,17.25561649862457,0.08682352694400786,1,-7240.355458471212,0.0016475244192406535,1.57542003E9,,,,0,,1,,1.57542003E9
Raw,1932620505,621825000000,,,-1311853870175425334,0.0,8.08042046187325,,,0,24,0.0,16431,43291928483004,24,31.85732650756836,399.15839368972,0.12061225526485164,4,232143.09471871544,3.4028234663852886E38,1.57542003E9,,,,0,,1,,1.57542003E9
Raw,1932620505,621825000000,,,-1311853870175425334,0.0,8.08042046187325,,,0,25,0.0,16431,43291921478181,8,41.3468017578125,-729.821274505548,0.04020406844645941,1,-453879.98930445686,8.201707969419658E-4,1.57542003E9,,,,0,,1,,1.57542003E9
Raw,1932620505,621825000000,,,-1311853870175425334,0.0,8.08042046187325,,,0,31,0.0,16,621016158658,1000000000,7.0,-849.9157179374097,2.99792458E8,2,-13.584579571122749,3.4028234663852886E38,1.57542003E9,,,,0,,1,,1.57542003E9
Raw,1932620505,621825000000,,,-1311853870175425334,0.0,8.08042046187325,,,0,32,0.0,16431,43291926633579,10,39.2000732421875,-428.63443580118997,0.05232897308220322,4,-271267.32691700256,3.4028234663852886E38,1.57542003E9,,,,0,,1,,1.57542003E9
Raw,1932620505,621825000000,,,-1311853870175425334,0.0,8.08042046187325,,,0,10,0.0,32995,54073928660720,33,36.52388000488281,-863.430979741704,0.0711458715336189,4,-544805.696467921,3.4028234663852886E38,1.59806246E9,,,,0,,3,,1.59806246E9
Raw,1932620506,621825000000,,,-1311853870175425334,0.0,8.08042046187325,,,0,9,0.0,32995,54073934021615,34,34.8889274597168,-270.6336887193977,0.08652266772025413,1,-198069.279621154,0.0016104908427223563,1.59862502E9,,,,0,,3,,1.59862502E9
Raw,1932620506,621825000000,,,-1311853870175425334,0.0,8.08042046187325,,,0,16,0.0,32995,54073927497087,122,23.7685489654541,429.15824907548904,0.30355306916498437,4,238893.75397207483,3.4028234663852886E38,1.60143744E9,,,,0,,3,,1.60143744E9
Raw,1932620506,621825000000,,,-1311853870175425334,0.0,8.08042046187325,,,0,23,0.0,32995,54073925231337,35,34.47944641113281,-160.85135262167535,0.0889963917191961,4,-128440.88448820454,3.4028234663852886E38,1.60368755E9,,,,0,,3,,1.60368755E9
Raw,1932620506,621825000000,,,-1311853870175425334,0.0,8.08042046187325,,,0,7,0.0,32995,54073933154939,33,35.254703521728516,-218.19143889845589,0.08290282959069806,4,-142168.14913659534,3.4028234663852886E38,1.60481254E9,,,,0,,3,,1.60481254E9
Raw,1932620506,621825000000,,,-1311853870175425334,0.0,8.08042046187325,,,0,8,0.0,32961,54073926543679,45,32.43327331542969,-564.2620269582355,0.11262311444055162,1,-580138.4956659507,0.002008841373026371,1.60537498E9,,,,0,,3,,1.60537498E9
Raw,1932620506,621825000000,,,-1311853870175425334,0.0,8.08042046187325,,,0,193,0.0,35,9476455,166,30.177804946899414,-243.1283624089897,0.1461946835938338,4,-149071.6829948649,3.4028234663852886E38,1.57542003E9,,,,1,,4,,1.57542003E9
Raw,1932620507,621825000000,,,-1311853870175425334,0.0,8.08042046187325,,,0,194,0.0,35,13000984,19,33.863525390625,-116.76635119670817,0.0968647628232881,4,-74620.98584694075,3.4028234663852886E38,1.57542003E9,,,,0,,4,,1.57542003E9
Raw,1932620507,621825000000,,,-1311853870175425334,0.0,8.08042046187325,,,0,6,0.0,16431,43277879319269,11,31.934892654418945,-74.71170987171786,0.12150271768789572,4,-28351.61352797471,3.4028234663852886E38,1.56109798E9,,,,0,,5,,1.56109798E9
Raw,1932620507,621825000000,,,-1311853870175425334,0.0,8.08042046187325,,,0,14,0.0,16431,43277925785583,13,30.81883430480957,82.56291047385594,0.13525123616343082,4,36099.885881281785,3.4028234663852886E38,1.56109798E9,,,,0,,5,,1.56109798E9
Raw,1932620507,621825000000,,,-1311853870175425334,0.0,8.08042046187325,,,0,16,0.0,16431,43277878679819,12,31.526987075805664,-75.09368900319726,0.12706270964010746,4,-27901.472185561594,3.4028234663852886E38,1.56109798E9,,,,0,,5,,1.56109798E9
Raw,1932620507,621825000000,,,-1311853870175425334,0.0,8.08042046187325,,,0,24,0.0,16431,43277925081531,8,34.517333984375,-79.63697418444332,0.08858621235047248,4,-53779.38671494423,3.4028234663852886E38,1.56109798E9,,,,0,,5,,1.56109798E9
Raw,1932620507,621825000000,,,-1311853870175425334,0.0,8.08042046187325,,,0,25,0.0,16431,43277921799003,6,38.88854217529297,-647.4070317070446,0.05332669206398241,1,-64992.173270632586,0.0010420888429507613,1.56109798E9,,,,0,,5,,1.56109798E9
Raw,1932620508,621825000000,,,-1311853870175425334,0.0,8.08042046187325,,,0,26,0.0,16431,43277917621828,25,25.316360473632812,378.7112033006208,0.25604735030507153,4,179992.80941675665,3.4028234663852886E38,1.56109798E9,,,,0,,5,,1.56109798E9
Raw,1932620508,621825000000,,,-1311853870175425334,0.0,8.08042046187325,,,0,27,0.0,16431,43277914439711,9,34.10382080078125,43.01865934743094,0.09454429338592746,4,2298.275520784598,3.4028234663852886E38,1.56109798E9,,,,0,,5,,1.56109798E9
Raw,1932620508,621825000000,,,-1311853870175425334,0.0,8.08042046187325,,,0,33,0.0,16431,43277926530293,6,37.50440979003906,-163.1987477322274,0.06333418248368544,1,-89484.20690957147,0.001222113030962646,1.56109798E9,,,,0,,5,,1.56109798E9
Fix,gps,34.486756,109.464234,362.722229,0.332410,3.000000,1627819275000
Raw,1932621574,622825000000,,,-1311853870175425726,0.0,8.855271707393108,,,0,10,0.0,16431,43292931263747,11,38.23255157470703,-424.1818695985935,0.05918719792209004,4,-276458.69531556044,3.4028234663852886E38,1.57542003E9,,,,0,,1,,1.57542003E9
Raw,1932621574,622825000000,,,-1311853870175425726,0.0,8.855271707393108,,,0,12,0.0,16431,43292922907209,11,38.31855392456055,-553.3450753094141,0.057120882428096764,1,-355419.23873736913,0.0011026510037481785,1.57542003E9,,,,0,,1,,1.57542003E9
Raw,1932621574,622825000000,,,-1311853870175425726,0.0,8.855271707393108,,,0,15,0.0,16431,43292918710611,10,38.767372131347656,415.6261846201289,0.05711326463294378,4,257324.64922069153,3.4028234663852886E38,1.57542003E9,,,,0,,1,,1.57542003E9
Raw,1932621575,622825000000,,,-1311853870175425726,0.0,8.855271707393108,,,0,18,0.0,16431,43292923983774,18,34.369197845458984,541.4299848388657,0.08989679763236341,4,324792.9645558104,3.4028234663852886E38,1.57542003E9,,,,0,,1,,1.57542003E9
Raw,1932621575,622825000000,,,-1311853870175425726,0.0,8.855271707393108,,,0,23,0.0,16431,43292932551745,12,37.863037109375,17.22886816071476,0.06190308959032195,1,-7222.915840029368,0.0011620207224041224,1.57542003E9,,,,0,,1,,1.57542003E9
Raw,1932621575,622825000000,,,-1311853870175425726,0.0,8.855271707393108,,,0,24,0.0,16431,43292928481656,23,31.89168357849121,398.39494666360906,0.12014189905882994,4,232541.37706286204,3.4028234663852886E38,1.57542003E9,,,,0,,1,,1.57542003E9
Raw,1932621576,622825000000,,,-1311853870175425726,0.0,8.855271707393108,,,0,25,0.0,16431,43292921480618,12,37.760528564453125,-729.9206589487685,0.0606197677773756,1,-454609.8114703214,0.0011758157052099705,1.57542003E9,,,,0,,1,,1.57542003E9
Raw,1932621576,622825000000,,,-1311853870175425726,0.0,8.855271707393108,,,0,31,0.0,16,622016161493,1000000000,7.0,-849.9157179374097,2.99792458E8,2,-13.577933113986223,3.4028234663852886E38,1.57542003E9,,,,0,,1,,1.57542003E9
Raw,1932621576,622825000000,,,-1311853870175425726,0.0,8.855271707393108,,,0,32,0.0,16431,43292926635032,12,37.74930953979492,-428.37861288252975,0.06162491733378245,1,-271695.6923286102,0.001177335623651743,1.57542003E9,,,,0,,1,,1.57542003E9
Raw,1932621577,622825000000,,,-1311853870175425726,0.0,8.855271707393108,,,0,10,0.0,32995,54074928663680,33,38.03361892700195,-863.3791744077894,0.060043790071873354,4,-545669.3177217538,3.4028234663852886E38,1.59806246E9,,,,0,,3,,1.59806246E9
Raw,1932621577,622825000000,,,-1311853870175425726,0.0,8.855271707393108,,,0,9,0.0,32995,54074934022450,33,38.34344482421875,-269.92172324386445,0.05895828546599366,4,-198339.415069913,3.4028234663852886E38,1.59862502E9,,,,0,,3,,1.59862502E9
Raw,1932621577,622825000000,,,-1311853870175425726,0.0,8.855271707393108,,,0,16,0.0,32995,54074927495830,75,27.926061630249023,429.8993039276645,0.1885998163870527,4,239323.05544794805,3.4028234663852886E38,1.60143744E9,,,,0,,3,,1.60143744E9
Raw,1932621578,622825000000,,,-1311853870175425726,0.0,8.855271707393108,,,0,23,0.0,32995,54074925231851,33,38.71017074584961,-160.35761711525765,0.055043903685071754,4,-128601.53239934954,3.4028234663852886E38,1.60368755E9,,,,0,,3,,1.60368755E9
Raw,1932621578,622825000000,,,-1311853870175425726,0.0,8.855271707393108,,,0,7,0.0,32995,54074933155636,33,37.07370376586914,-217.9474766746656,0.06768592805360929,4,-142385.9441874833,3.4028234663852886E38,1.60481254E9,,,,0,,3,,1.60481254E9
Raw,1932621579,622825000000,,,-1311853870175425726,0.0,8.855271707393108,,,0,8,0.0,32961,54074926545500,45,32.4504280090332,-563.8934933558544,0.11240353388752905,1,-580702.5498261623,0.002004877896979451,1.60537498E9,,,,0,,3,,1.60537498E9
Raw,1932621579,622825000000,,,-1311853870175425726,0.0,8.855271707393108,,,0,193,0.0,35,9477328,12,37.626705169677734,-244.2611269339818,0.06299522596325455,4,-149315.9847711275,3.4028234663852886E38,1.57542003E9,,,,0,,4,,1.57542003E9
Raw,1932621580,622825000000,,,-1311853870175425726,0.0,8.855271707393108,,,0,194,0.0,35,13001403,12,37.45520782470703,-116.71754511896751,0.06485130528866742,4,-74737.73409481814,3.4028234663852886E38,1.57542003E9,,,,0,,4,,1.57542003E9
Raw,1932621580,622825000000,,,-1311853870175425726,0.0,8.855271707393108,,,0,6,0.0,16431,43278879319546,11,32.531272888183594,-74.63926761037862,0.11367084210487527,4,-28426.256992785216,3.4028234663852886E38,1.56109798E9,,,,0,,5,,1.56109798E9
Raw,1932621580,622825000000,,,-1311853870175425726,0.0,8.855271707393108,,,0,14,0.0,16431,43278925785303,6,38.0999755859375,82.61968332580881,0.059080923230998894,4,36182.428419754695,3.4028234663852886E38,1.56109798E9,,,,0,,5,,1.56109798E9
Raw,1932621581,622825000000,,,-1311853870175425726,0.0,8.855271707393108,,,0,16,0.0,16431,43278878680090,9,34.020240783691406,-74.98930295948202,0.09619607767409716,4,-27976.46131656692,3.4028234663852886E38,1.56109798E9,,,,0,,5,,1.56109798E9
Raw,1932621581,622825000000,,,-1311853870175425726,0.0,8.855271707393108,,,0,24,0.0,16431,43278925081804,6,39.46958541870117,-78.87247912279429,0.050487551043695844,4,-53858.29213604396,3.4028234663852886E38,1.56109798E9,,,,0,,5,,1.56109798E9
Raw,1932621582,622825000000,,,-1311853870175425726,0.0,8.855271707393108,,,0,25,0.0,16431,43278921801165,6,36.82655334472656,-647.6601280291829,0.06752885419331117,4,-65639.55289151486,3.4028234663852886E38,1.56109798E9,,,,0,,5,,1.56109798E9
Raw,1932621582,622825000000,,,-1311853870175425726,0.0,8.855271707393108,,,0,26,0.0,16431,43278917620582,13,31.061033248901367,378.9276950644537,0.1336894342201922,4,180371.8466148986,3.4028234663852886E38,1.56109798E9,,,,0,,5,,1.56109798E9
Raw,1932621582,622825000000,,,-1311853870175425726,0.0,8.855271707393108,,,0,27,0.0,16431,43278914439550,8,35.40803527832031,43.176716739555474,0.08172467162705921,4,2341.4541992826353,3.4028234663852886E38,1.56109798E9,,,,0,,5,,1.56109798E9
Raw,1932621583,622825000000,,,-1311853870175425726,0.0,8.855271707393108,,,0,33,0.0,16431,43278926530851,6,38.063690185546875,-163.43696706209357,0.05945799785038755,1,-89647.40305072562,0.0011459017405286431,1.56109798E9,,,,0,,5,,1.56109798E9
Fix,gps,34.486757,109.464236,362.635529,0.244817,3.000000,1627819276000
Raw,1932622522,623825000000,,,-1311853870175426115,0.0,9.125994146144789,,,0,10,0.0,16431,43293931265194,16,35.0915412902832,-424.2109078515509,0.08409005734867525,4,-276882.98157388816,3.4028234663852886E38,1.57542003E9,,,,0,,1,,1.57542003E9
Raw,1932622522,623825000000,,,-1311853870175426115,0.0,9.125994146144789,,,0,12,0.0,16431,43293922909043,8,40.9438591003418,-553.1712547811478,0.04235784920943206,1,-355972.5173553068,8.591151563450694E-4,1.57542003E9,,,,0,,1,,1.57542003E9
Raw,1932622522,623825000000,,,-1311853870175426115,0.0,9.125994146144789,,,0,15,0.0,16431,43293918709242,8,40.60786437988281,415.5500784947135,0.04684990200149644,4,257740.12756953106,3.4028234663852886E38,1.57542003E9,,,,0,,1,,1.57542003E9
Raw,1932622522,623825000000,,,-1311853870175426115,0.0,9.125994146144789,,,0,18,0.0,16431,43293923981942,7,41.455135345458984,541.5405824102822,0.040159401789571114,4,325334.47317451355,3.4028234663852886E38,1.57542003E9,,,,0,,1,,1.57542003E9
Raw,1932622523,623825000000,,,-1311853870175426115,0.0,9.125994146144789,,,0,23,0.0,16431,43293932551671,6,43.371055603027344,17.614628314714658,0.0338933097062947,1,-7205.3381328754285,6.496681598946452E-4,1.57542003E9,,,,0,,1,,1.57542003E9
Raw,1932622523,623825000000,,,-1311853870175426115,0.0,9.125994146144789,,,0,24,0.0,16431,43293928480321,10,38.99897384643555,398.36652189486904,0.053858889289749606,4,232939.7342363597,3.4028234663852886E38,1.57542003E9,,,,0,,1,,1.57542003E9
Raw,1932622523,623825000000,,,-1311853870175426115,0.0,9.125994146144789,,,0,25,0.0,16431,43293921483057,8,41.35593032836914,-729.8216834950263,0.040162992263201386,1,-455339.68566429574,8.193096145987511E-4,1.57542003E9,,,,0,,1,,1.57542003E9
Raw,1932622523,623825000000,,,-1311853870175426115,0.0,9.125994146144789,,,0,31,0.0,16,623016164328,1000000000,7.0,-849.9157179374097,2.99792458E8,2,-13.597872485413832,3.4028234663852886E38,1.57542003E9,,,,0,,1,,1.57542003E9
Raw,1932622523,623825000000,,,-1311853870175426115,0.0,9.125994146144789,,,0,32,0.0,16431,43293926636442,10,39.174468994140625,-428.4415631797274,0.052480442808109706,1,-272124.0747337846,9.991766419261694E-4,1.57542003E9,,,,0,,1,,1.57542003E9
Raw,1932622523,623825000000,,,-1311853870175426115,0.0,9.125994146144789,,,0,10,0.0,32995,54075928666524,33,40.28047180175781,-863.584759785535,0.0467137968400356,4,-546532.9246149648,3.4028234663852886E38,1.59806246E9,,,,0,,3,,1.59806246E9
Raw,1932622524,623825000000,,,-1311853870175426115,0.0,9.125994146144789,,,0,9,0.0,32995,54075934023394,33,43.308982849121094,-269.875149567026,0.034384927923310035,4,-198609.39771308083,3.4028234663852886E38,1.59862502E9,,,,0,,3,,1.59862502E9
Raw,1932622524,623825000000,,,-1311853870175426115,0.0,9.125994146144789,,,0,16,0.0,32995,54075927494368,41,33.26115036010742,429.8316502514667,0.10266241667081344,4,239752.76624779464,3.4028234663852886E38,1.60143744E9,,,,0,,3,,1.60143744E9
Raw,1932622524,623825000000,,,-1311853870175426115,0.0,9.125994146144789,,,0,23,0.0,32995,54075925232440,33,35.341365814208984,-160.61787075326583,0.08067821706230782,4,-128762.10625937863,3.4028234663852886E38,1.60368755E9,,,,0,,3,,1.60368755E9
Raw,1932622524,623825000000,,,-1311853870175426115,0.0,9.125994146144789,,,0,7,0.0,32995,54075933156363,33,35.671600341796875,-217.75785892780095,0.07912887984560024,1,-142603.72197767164,0.0014681071043014526,1.60481254E9,,,,0,,3,,1.60481254E9
Raw,1932622524,623825000000,,,-1311853870175426115,0.0,9.125994146144789,,,0,8,0.0,32961,54075926547353,57,30.265531539916992,-563.7882808125685,0.14421582088745155,4,-581266.6509729316,3.4028234663852886E38,1.60537498E9,,,,0,,3,,1.60537498E9
Raw,1932622524,623825000000,,,-1311853870175426115,0.0,9.125994146144789,,,0,193,0.0,35,9478120,8,40.745330810546875,-244.24873796103577,0.04450665822734309,4,-149560.2824608227,3.4028234663852886E38,1.57542003E9,,,,0,,4,,1.57542003E9
Raw,1932622525,623825000000,,,-1311853870175426115,0.0,9.125994146144789,,,0,194,0.0,35,13001744,20,33.39058303833008,-116.45205130326895,0.10215448322512938,4,-74854.33274370646,3.4028234663852886E38,1.57542003E9,,,,0,,4,,1.57542003E9
Raw,1932622525,623825000000,,,-1311853870175426115,0.0,9.125994146144789,,,0,6,0.0,16431,43279879319793,12,31.30854034423828,-74.62505522600861,0.1303283598193828,1,-28500.899367934526,0.0023514111526310444,1.56109798E9,,,,0,,5,,1.56109798E9
Raw,1932622525,623825000000,,,-1311853870175426115,0.0,9.125994146144789,,,0,14,0.0,16431,43279925785037,6,37.64076614379883,82.70609087370826,0.06223195284420935,1,36265.02614010507,0.001203077263198793,1.56109798E9,,,,0,,5,,1.56109798E9
Raw,1932622525,623825000000,,,-1311853870175426115,0.0,9.125994146144789,,,0,16,0.0,16431,43279878680326,11,31.915767669677734,-75.02328316863526,0.12164795089008057,4,-28051.45088353823,3.4028234663852886E38,1.56109798E9,,,,0,,5,,1.56109798E9
Raw,1932622525,623825000000,,,-1311853870175426115,0.0,9.125994146144789,,,0,24,0.0,16431,43279925082069,6,43.108890533447266,-78.70528763232164,0.03351911412254005,1,-53937.09002073116,6.757188821211457E-4,1.56109798E9,,,,0,,5,,1.56109798E9
Raw,1932622525,623825000000,,,-1311853870175426115,0.0,9.125994146144789,,,0,25,0.0,16431,43279921803319,6,37.07286071777344,-647.1094236966874,0.06565026263984106,4,-66286.78214126409,3.4028234663852886E38,1.56109798E9,,,,0,,5,,1.56109798E9
Raw,1932622526,623825000000,,,-1311853870175426115,0.0,9.125994146144789,,,0,26,0.0,16431,43279917619331,10,32.78194046020508,379.2420716434201,0.11023030299220238,4,180751.07956251412,3.4028234663852886E38,1.56109798E9,,,,0,,5,,1.56109798E9
Raw,1932622526,623825000000,,,-1311853870175426115,0.0,9.125994146144789,,,0,27,0.0,16431,43279914439418,166,31.580835342407227,43.194788962126694,0.12553543948265244,4,2384.6660514951536,3.4028234663852886E38,1.56109798E9,,,,1,,5,,1.56109798E9
Raw,1932622526,623825000000,,,-1311853870175426115,0.0,9.125994146144789,,,0,33,0.0,16431,43279926531396,7,36.34526824951172,-163.16935161347646,0.07220861012361812,1,-89810.51010159747,0.0013965887483209372,1.56109798E9,,,,0,,5,,1.56109798E9
Fix,gps,34.486757,109.464236,362.584259,0.000000,3.000000,1627819277000
Raw,1932623531,624825000000,,,-1311853870175426502,0.0,8.744611846804935,,,0,10,0.0,16431,43294931266581,15,35.67673110961914,-424.20872657433347,0.07874361328811424,1,-277307.21671614924,0.0014946142910048366,1.57542003E9,,,,0,,1,,1.57542003E9
Raw,1932623531,624825000000,,,-1311853870175426502,0.0,8.744611846804935,,,0,12,0.0,16431,43294922910877,7,42.04071044921875,-553.1004314364934,0.037395257151276756,1,-356525.6815889651,7.571972091682255E-4,1.57542003E9,,,,0,,1,,1.57542003E9
Raw,1932623532,624825000000,,,-1311853870175426502,0.0,8.744611846804935,,,0,15,0.0,16431,43294918707851,8,41.147552490234375,415.4576468726236,0.04423001285819908,4,258155.64344589334,3.4028234663852886E38,1.57542003E9,,,,0,,1,,1.57542003E9
Raw,1932623532,624825000000,,,-1311853870175426502,0.0,8.744611846804935,,,0,18,0.0,16431,43294923980136,6,43.858306884765625,541.589524817849,0.03071593192448574,4,325876.04743035825,3.4028234663852886E38,1.57542003E9,,,,0,,1,,1.57542003E9
Raw,1932623532,624825000000,,,-1311853870175426502,0.0,8.744611846804935,,,0,23,0.0,16431,43294932551622,6,42.8641242980957,17.754885078843387,0.03579456742469844,1,-7187.65283942933,6.887131021358073E-4,1.57542003E9,,,,0,,1,,1.57542003E9
Raw,1932623533,624825000000,,,-1311853870175426502,0.0,8.744611846804935,,,0,24,0.0,16431,43294928478988,8,41.11936950683594,398.4752108487203,0.042522894503653236,4,233338.14530070924,3.4028234663852886E38,1.57542003E9,,,,0,,1,,1.57542003E9
Raw,1932623533,624825000000,,,-1311853870175426502,0.0,8.744611846804935,,,0,25,0.0,16431,43294921485500,7,42.04796600341797,-729.8047104316779,0.03710808582815292,1,-456069.48538587766,7.565646665170789E-4,1.57542003E9,,,,0,,1,,1.57542003E9
Raw,1932623534,624825000000,,,-1311853870175426502,0.0,8.744611846804935,,,0,31,0.0,16,624016167164,1000000000,7.0,-850.101399160546,2.99792458E8,2,-13.594195109293363,3.4028234663852886E38,1.57542003E9,,,,0,,1,,1.57542003E9
Raw,1932623534,624825000000,,,-1311853870175426502,0.0,8.744611846804935,,,0,32,0.0,16431,43294926637884,12,37.73866271972656,-428.4239766321616,0.06169954343518011,1,-272552.45317431766,0.001178779755719006,1.57542003E9,,,,0,,1,,1.57542003E9
Raw,1932623534,624825000000,,,-1311853870175426502,0.0,8.744611846804935,,,0,10,0.0,32995,54076928669427,33,40.98358917236328,-863.4883064335754,0.04320308331401185,4,-547396.435356624,3.4028234663852886E38,1.59806246E9,,,,0,,3,,1.59806246E9
Raw,1932623534,624825000000,,,-1311853870175426502,0.0,8.744611846804935,,,0,9,0.0,32995,54076934024292,33,43.640079498291016,-269.70616874758593,0.03319337953165377,4,-198879.18477833932,3.4028234663852886E38,1.59862502E9,,,,0,,3,,1.59862502E9
Raw,1932623535,624825000000,,,-1311853870175426502,0.0,8.744611846804935,,,0,16,0.0,32995,54076927492910,44,32.55630111694336,429.96644636701444,0.11122646596339325,4,240182.62236712745,3.4028234663852886E38,1.60143744E9,,,,0,,3,,1.60143744E9
Raw,1932623535,624825000000,,,-1311853870175426502,0.0,8.744611846804935,,,0,23,0.0,32995,54076925232946,49,31.55485725402832,-160.2332161489494,0.12424765350029093,4,-128922.49791431936,3.4028234663852886E38,1.60368755E9,,,,0,,3,,1.60368755E9
Raw,1932623535,624825000000,,,-1311853870175426502,0.0,8.744611846804935,,,0,7,0.0,32995,54076933157088,33,36.13067626953125,-217.72108395721284,0.07517724534059322,1,-142821.43487925926,0.0013925280654802918,1.60481254E9,,,,0,,3,,1.60481254E9
Raw,1932623536,624825000000,,,-1311853870175426502,0.0,8.744611846804935,,,0,8,0.0,32961,54076926549303,85,26.91187858581543,-565.0065241385198,0.21162103464583293,4,-581830.7388472143,3.4028234663852886E38,1.60537498E9,,,,0,,3,,1.60537498E9
Raw,1932623536,624825000000,,,-1311853870175426502,0.0,8.744611846804935,,,0,193,0.0,35,9478928,9,39.818599700927734,-244.26116101643834,0.049326005781338195,4,-149804.5636285122,3.4028234663852886E38,1.57542003E9,,,,0,,4,,1.57542003E9
Raw,1932623536,624825000000,,,-1311853870175426502,0.0,8.744611846804935,,,0,194,0.0,35,13002198,24,31.584583282470703,-116.5668495374519,0.12522387956576192,1,-74970.89325647612,0.0022571496665477753,1.57542003E9,,,,0,,4,,1.57542003E9
Raw,1932623537,624825000000,,,-1311853870175426502,0.0,8.744611846804935,,,0,6,0.0,16431,43280879320044,16,29.05461311340332,-74.61151597015493,0.16791153229216416,1,-28575.541315715687,0.0030480704735964537,1.56109798E9,,,,0,,5,,1.56109798E9
Raw,1932623537,624825000000,,,-1311853870175426502,0.0,8.744611846804935,,,0,14,0.0,16431,43280925784748,6,40.35005187988281,82.74365826141053,0.0458351542728242,1,36347.720813291715,9.283421095460653E-4,1.56109798E9,,,,0,,5,,1.56109798E9
Raw,1932623537,624825000000,,,-1311853870175426502,0.0,8.744611846804935,,,0,16,0.0,16431,43280878680595,17,28.741382598876953,-74.69941462552725,0.17383464053348696,4,-28126.40211352215,3.4028234663852886E38,1.56109798E9,,,,0,,5,,1.56109798E9
Raw,1932623538,624825000000,,,-1311853870175426502,0.0,8.744611846804935,,,0,24,0.0,16431,43280925082329,6,41.38417053222656,-78.61038503213388,0.0406809191244821,1,-54015.7500837806,8.241418981924653E-4,1.56109798E9,,,,0,,5,,1.56109798E9
Raw,1932623538,624825000000,,,-1311853870175426502,0.0,8.744611846804935,,,0,25,0.0,16431,43280921805473,7,35.91557312011719,-647.128373542514,0.07496099315246546,4,-66933.91592156974,3.4028234663852886E38,1.56109798E9,,,,0,,5,,1.56109798E9
Raw,1932623538,624825000000,,,-1311853870175426502,0.0,8.744611846804935,,,0,26,0.0,16431,43280917618088,13,31.08975601196289,379.27922152102997,0.13325806980891314,4,181130.3926989051,3.4028234663852886E38,1.56109798E9,,,,0,,5,,1.56109798E9
Raw,1932623539,624825000000,,,-1311853870175426502,0.0,8.744611846804935,,,0,27,0.0,16431,43280914439275,17,28.692481994628906,43.43580305342775,0.17403417600893056,1,2427.961189526513,0.003177836537361145,1.56109798E9,,,,0,,5,,1.56109798E9
Raw,1932623539,624825000000,,,-1311853870175426502,0.0,8.744611846804935,,,0,33,0.0,16431,43280926531935,9,33.64120101928711,-163.1321165297253,0.09815185816993394,1,-89973.57110860886,0.0017976105445995927,1.56109798E9,,,,0,,5,,1.56109798E9
Fix,gps,34.486757,109.464236,362.579773,0.000000,3.000000,1627819278000
Raw,1932624511,625825000000,,,-1311853870175426889,0.0,8.536633722377521,,,0,10,0.0,16431,43295931268024,12,37.53115463256836,-424.0790428272642,0.06399528728182846,1,-277731.3442868971,0.001207279972732067,1.57542003E9,,,,0,,1,,1.57542003E9
Raw,1932624511,625825000000,,,-1311853870175426889,0.0,8.536633722377521,,,0,12,0.0,16431,43295922912741,7,42.472381591796875,-553.0611343641226,0.03560795848641504,1,-357078.80498660216,7.204857538454235E-4,1.57542003E9,,,,0,,1,,1.57542003E9
Raw,1932624511,625825000000,,,-1311853870175426889,0.0,8.536633722377521,,,0,15,0.0,16431,43295918706473,7,41.44553756713867,415.4827315606244,0.04285159966020813,4,258571.14627663774,3.4028234663852886E38,1.57542003E9,,,,0,,1,,1.57542003E9
Raw,1932624511,625825000000,,,-1311853870175426889,0.0,8.536633722377521,,,0,18,0.0,16431,43295923978339,6,43.733360290527344,541.6162795462194,0.031058732706370135,1,326417.66370695,6.231269799172878E-4,1.57542003E9,,,,0,,1,,1.57542003E9
Raw,1932624511,625825000000,,,-1311853870175426889,0.0,8.536633722377521,,,0,23,0.0,16431,43295932551563,7,41.47198486328125,17.87936060052529,0.04162442320258103,1,-7169.889706418892,8.084350847639143E-4,1.57542003E9,,,,0,,1,,1.57542003E9
Raw,1932624511,625825000000,,,-1311853870175426889,0.0,8.536633722377521,,,0,24,0.0,16431,43295928477682,12,37.766624450683594,398.57272075683204,0.061836027198147736,4,233736.59862756476,3.4028234663852886E38,1.57542003E9,,,,0,,1,,1.57542003E9
Raw,1932624512,625825000000,,,-1311853870175426889,0.0,8.536633722377521,,,0,25,0.0,16431,43295921487919,7,41.589454650878906,-729.8231831231133,0.03910552497110431,1,-456799.2894191572,7.975753978826106E-4,1.57542003E9,,,,0,,1,,1.57542003E9
Raw,1932624512,625825000000,,,-1311853870175426889,0.0,8.536633722377521,,,0,31,0.0,16,625016169938,1000000000,7.0,-849.9157179374097,2.99792458E8,2,-13.5845795711243,3.4028234663852886E38,1.57542003E9,,,,0,,1,,1.57542003E9
Raw,1932624512,625825000000,,,-1311853870175426889,0.0,8.536633722377521,,,0,32,0.0,16431,43295926639344,16,35.09339904785156,-428.1470907553703,0.08324041732106596,1,-272980.74651627196,0.001598438248038292,1.57542003E9,,,,0,,1,,1.57542003E9
Raw,1932624513,625825000000,,,-1311853870175426889,0.0,8.536633722377521,,,0,10,0.0,32995,54077928672298,33,42.57391357421875,-863.4318658855736,0.03623623728578304,4,-548259.8791828796,3.4028234663852886E38,1.59806246E9,,,,0,,3,,1.59806246E9
Raw,1932624513,625825000000,,,-1311853870175426889,0.0,8.536633722377521,,,0,9,0.0,32995,54077934025184,33,43.91143798828125,-269.565101460038,0.032522793054016674,4,-199148.81113398672,3.4028234663852886E38,1.59862502E9,,,,0,,3,,1.59862502E9
Raw,1932624513,625825000000,,,-1311853870175426889,0.0,8.536633722377521,,,0,16,0.0,32995,54077927491506,41,33.21725082397461,430.12516836704117,0.10317520952924392,4,240612.5647681947,3.4028234663852886E38,1.60143744E9,,,,0,,3,,1.60143744E9
Raw,1932624522,625825000000,,,-1311853870175426889,0.0,8.536633722377521,,,0,23,0.0,32995,54077925233472,59,30.024776458740234,-160.40321944208517,0.14799970580176036,4,-129082.85220079577,3.4028234663852886E38,1.60368755E9,,,,0,,3,,1.60368755E9
Raw,1932624522,625825000000,,,-1311853870175426889,0.0,8.536633722377521,,,0,7,0.0,32995,54077933157782,33,36.59480667114258,-217.6026815032526,0.07138884217093971,1,-143039.08295195724,0.001320071518421173,1.60481254E9,,,,0,,3,,1.60481254E9
Raw,1932624523,625825000000,,,-1311853870175426889,0.0,8.536633722377521,,,0,8,0.0,32961,54077926551147,107,24.902658462524414,-564.9363142780828,0.26639177526353186,4,-582394.8233125277,3.4028234663852886E38,1.60537498E9,,,,0,,3,,1.60537498E9
Raw,1932624523,625825000000,,,-1311853870175426889,0.0,8.536633722377521,,,0,193,0.0,35,9479727,10,39.1400032043457,-244.31356279334216,0.05319579579358194,4,-150048.85479644738,3.4028234663852886E38,1.57542003E9,,,,0,,4,,1.57542003E9
Raw,1932624523,625825000000,,,-1311853870175426889,0.0,8.536633722377521,,,0,194,0.0,35,13002543,25,31.45049476623535,-116.57577062044675,0.12713570068225055,1,-75087.45993076079,0.0022922642529010773,1.57542003E9,,,,0,,4,,1.57542003E9
Raw,1932624523,625825000000,,,-1311853870175426889,0.0,8.536633722377521,,,0,6,0.0,16431,43281879320285,22,26.52790641784668,-74.5827588974638,0.22342984030706092,1,-28650.148872275775,0.004077184479683638,1.56109798E9,,,,0,,5,,1.56109798E9
Raw,1932624523,625825000000,,,-1311853870175426889,0.0,8.536633722377521,,,0,14,0.0,16431,43281925784475,6,41.148406982421875,82.73462641043199,0.041901397247758404,1,36430.428132979614,8.468185551464558E-4,1.56109798E9,,,,0,,5,,1.56109798E9
Raw,1932624523,625825000000,,,-1311853870175426889,0.0,8.536633722377521,,,0,16,0.0,16431,43281878680883,19,27.59425926208496,-74.9891581090418,0.1979031288064178,4,-28201.376079792237,3.4028234663852886E38,1.56109798E9,,,,0,,5,,1.56109798E9
Raw,1932624524,625825000000,,,-1311853870175426889,0.0,8.536633722377521,,,0,24,0.0,16431,43281925082593,6,40.547889709472656,-78.52272495395721,0.044700090313660845,1,-54094.30977600715,9.074361878447235E-4,1.56109798E9,,,,0,,5,,1.56109798E9
Raw,1932624524,625825000000,,,-1311853870175426889,0.0,8.536633722377521,,,0,25,0.0,16431,43281921807635,6,37.729164123535156,-647.071455840121,0.060896908240797715,4,-67581.0004458179,3.4028234663852886E38,1.56109798E9,,,,0,,5,,1.56109798E9
Raw,1932624524,625825000000,,,-1311853870175426889,0.0,8.536633722377521,,,0,26,0.0,16431,43281917616789,9,33.80466079711914,379.45413268790503,0.09833778895387002,4,181509.76379719132,3.4028234663852886E38,1.56109798E9,,,,0,,5,,1.56109798E9
Raw,1932624524,625825000000,,,-1311853870175426889,0.0,8.536633722377521,,,0,27,0.0,16431,43281914439135,14,30.02561378479004,43.43714078984627,0.14964137186064985,1,2471.344134833242,0.0027256805915385485,1.56109798E9,,,,0,,5,,1.56109798E9
Raw,1932624524,625825000000,,,-1311853870175426889,0.0,8.536633722377521,,,0,33,0.0,16431,43281926532495,10,33.46061706542969,-163.0848271212999,0.10018922521025464,1,-90136.55213415175,0.001946709118783474,1.56109798E9,,,,0,,5,,1.56109798E9
Fix,gps,34.486757,109.464236,362.594635,0.000000,3.000000,1627819279000
Raw,1932625572,626825000000,,,-1311853870175427274,0.0,8.364916333749322,,,0,10,0.0,16431,43296931269397,12,37.21665954589844,-423.9007915796499,0.06628038036081343,1,-278155.3731329066,0.001251793815754354,1.57542003E9,,,,0,,1,,1.57542003E9
Raw,1932625572,626825000000,,,-1311853870175427274,0.0,8.364916333749322,,,0,12,0.0,16431,43296922914576,7,41.547340393066406,-552.9810746737505,0.03955091844041497,1,-357631.8125554294,8.014517952688038E-4,1.57542003E9,,,,0,,1,,1.57542003E9
Raw,1932625573,626825000000,,,-1311853870175427274,0.0,8.364916333749322,,,0,15,0.0,16431,43296918705084,8,41.39337158203125,415.54418222973504,0.04308922411141666,4,258986.6975152163,3.4028234663852886E38,1.57542003E9,,,,0,,1,,1.57542003E9
Raw,1932625573,626825000000,,,-1311853870175427274,0.0,8.364916333749322,,,0,18,0.0,16431,43296923976508,7,42.489925384521484,541.7164478859399,0.035728507702448786,1,326959.3263883315,7.190320175141096E-4,1.57542003E9,,,,0,,1,,1.57542003E9
Raw,1932625573,626825000000,,,-1311853870175427274,0.0,8.364916333749322,,,0,23,0.0,16431,43296932551491,7,41.73332977294922,17.9691423116205,0.04045758584004064,1,-7151.991229599474,7.844727952033281E-4,1.57542003E9,,,,0,,1,,1.57542003E9
Raw,1932625574,626825000000,,,-1311853870175427274,0.0,8.364916333749322,,,0,24,0.0,16431,43296928476330,11,38.35493087768555,398.58884175876733,0.05788608183832483,4,234135.18517998763,3.4028234663852886E38,1.57542003E9,,,,0,,1,,1.57542003E9
Raw,1932625574,626825000000,,,-1311853870175427274,0.0,8.364916333749322,,,0,25,0.0,16431,43296921490361,7,41.61730194091797,-729.7591081048504,0.038981655711088,1,-457529.04949910776,7.95022351667285E-4,1.57542003E9,,,,0,,1,,1.57542003E9
Raw,1932625574,626825000000,,,-1311853870175427274,0.0,8.364916333749322,,,0,31,0.0,16,626016172834,1000000000,7.0,-849.9157179374097,2.99792458E8,2,-13.577933113973675,3.4028234663852886E38,1.57542003E9,,,,0,,1,,1.57542003E9
Raw,1932625575,626825000000,,,-1311853870175427274,0.0,8.364916333749322,,,0,32,0.0,16431,43296926640744,19,33.7264404296875,-428.2227197263944,0.0972243593665229,1,-273409.0126802984,0.0018708707066252828,1.57542003E9,,,,0,,1,,1.57542003E9
Raw,1932625575,626825000000,,,-1311853870175427274,0.0,8.364916333749322,,,0,10,0.0,32995,54078928675171,33,41.356292724609375,-863.2701787118294,0.04145503023171601,4,-549123.2388166288,3.4028234663852886E38,1.59806246E9,,,,0,,3,,1.59806246E9
Raw,1932625575,626825000000,,,-1311853870175427274,0.0,8.364916333749322,,,0,9,0.0,32995,54078934026084,33,43.633399963378906,-269.321872009063,0.03321730423456325,4,-199418.24262161725,3.4028234663852886E38,1.59862502E9,,,,0,,3,,1.59862502E9
Raw,1932625576,626825000000,,,-1311853870175427274,0.0,8.364916333749322,,,0,16,0.0,32995,54078927490093,37,34.14950942993164,430.3159960411124,0.09281187945818109,4,241042.71535436384,3.4028234663852886E38,1.60143744E9,,,,0,,3,,1.60143744E9
Raw,1932625576,626825000000,,,-1311853870175427274,0.0,8.364916333749322,,,0,23,0.0,32995,54078925234074,75,27.9329891204834,-160.23355697351462,0.18804371318042856,4,-129242.9686763168,3.4028234663852886E38,1.60368755E9,,,,0,,3,,1.60368755E9
Raw,1932625576,626825000000,,,-1311853870175427274,0.0,8.364916333749322,,,0,7,0.0,32995,54078933158502,33,35.702308654785156,-217.50203600914074,0.07885835034695043,1,-143256.69402800102,0.0014629258075729012,1.60481254E9,,,,0,,3,,1.60481254E9
Raw,1932625577,626825000000,,,-1311853870175427274,0.0,8.364916333749322,,,0,8,0.0,32961,54078926553003,106,24.999755859375,-564.081151361469,0.26344390904350035,4,-582958.8946862717,3.4028234663852886E38,1.60537498E9,,,,0,,3,,1.60537498E9
Raw,1932625578,626825000000,,,-1311853870175427274,0.0,8.364916333749322,,,0,193,0.0,35,9480561,11,38.52033233642578,-244.18410058224026,0.05700361997239664,1,-150293.1124259645,0.0010773310204967856,1.57542003E9,,,,0,,4,,1.57542003E9
Raw,1932625578,626825000000,,,-1311853870175427274,0.0,8.364916333749322,,,0,194,0.0,35,13002926,26,31.162582397460938,-116.50455532754233,0.13134173875799204,1,-75204.00584442186,0.0023695200216025114,1.57542003E9,,,,0,,4,,1.57542003E9
Raw,1932625578,626825000000,,,-1311853870175427274,0.0,8.364916333749322,,,0,6,0.0,16431,43282879320510,24,25.517005920410156,-74.58942201771401,0.2505783142445226,4,-28724.777735368585,3.4028234663852886E38,1.56109798E9,,,,0,,5,,1.56109798E9
Raw,1932625579,626825000000,,,-1311853870175427274,0.0,8.364916333749322,,,0,14,0.0,16431,43282925784186,6,41.23713684082031,82.84181573619622,0.04148607139481619,1,36513.22751131561,8.382120286114514E-4,1.56109798E9,,,,0,,5,,1.56109798E9
Raw,1932625579,626825000000,,,-1311853870175427274,0.0,8.364916333749322,,,0,16,0.0,16431,43282878681075,19,27.5277156829834,-74.85468577683105,0.1993993286775798,4,-28276.331594033858,3.4028234663852886E38,1.56109798E9,,,,0,,5,,1.56109798E9
Raw,1932625579,626825000000,,,-1311853870175427274,0.0,8.364916333749322,,,0,24,0.0,16431,43282925082864,6,40.36661148071289,-78.2472534991116,0.04562359091874199,1,-54172.71367332723,9.265738190151751E-4,1.56109798E9,,,,0,,5,,1.56109798E9
Raw,1932625580,626825000000,,,-1311853870175427274,0.0,8.364916333749322,,,0,25,0.0,16431,43282921809803,6,38.92997360229492,-646.9416698456821,0.053076419826173615,4,-68228.01844872197,3.4028234663852886E38,1.56109798E9,,,,0,,5,,1.56109798E9
Raw,1932625580,626825000000,,,-1311853870175427274,0.0,8.364916333749322,,,0,26,0.0,16431,43282917615530,7,35.93053436279297,379.3438077761407,0.07767640636824374,4,181889.19796673936,3.4028234663852886E38,1.56109798E9,,,,0,,5,,1.56109798E9
Raw,1932625580,626825000000,,,-1311853870175427274,0.0,8.364916333749322,,,0,27,0.0,16431,43282914438993,18,28.205217361450195,43.429408332522655,0.1839263427454847,1,2514.850417297484,0.003361203009262681,1.56109798E9,,,,0,,5,,1.56109798E9
Raw,1932625581,626825000000,,,-1311853870175427274,0.0,8.364916333749322,,,0,33,0.0,16431,43282926533031,12,31.508373260498047,-162.75995314572447,0.12514317503797512,1,-90299.47705187244,0.0022979306522756815,1.56109798E9,,,,0,,5,,1.56109798E9
Fix,gps,34.486757,109.464236,362.552032,0.000000,3.000000,1627819280000
Raw,1932626535,627825000000,,,-1311853870175427660,0.0,8.4006044688297,,,0,10,0.0,16431,43297931270784,19,33.484710693359375,-423.976420550674,0.10076725402062331,1,-278579.2571188655,0.0019236680818721652,1.57542003E9,,,,0,,1,,1.57542003E9
Raw,1932626535,627825000000,,,-1311853870175427660,0.0,8.4006044688297,,,0,12,0.0,16431,43297922916415,9,40.27785110473633,-552.976541707033,0.045693112140482245,1,-358184.8104127521,9.275809279642999E-4,1.57542003E9,,,,0,,1,,1.57542003E9
Raw,1932626535,627825000000,,,-1311853870175427660,0.0,8.4006044688297,,,0,15,0.0,16431,43297918703699,8,41.35402297973633,415.61367635858505,0.043269338577699074,1,259402.27533181367,8.194894180633128E-4,1.57542003E9,,,,0,,1,,1.57542003E9
Raw,1932626536,627825000000,,,-1311853870175427660,0.0,8.4006044688297,,,0,18,0.0,16431,43297923974724,8,40.7162971496582,541.5446041401519,0.04366004701178808,1,327500.94829555956,8.819209760986269E-4,1.57542003E9,,,,0,,1,,1.57542003E9
Raw,1932626536,627825000000,,,-1311853870175427660,0.0,8.4006044688297,,,0,23,0.0,16431,43297932551421,8,40.52436447143555,17.865336734742918,0.046162311739703005,1,-7133.972081670322,8.553573279641569E-4,1.57542003E9,,,,0,,1,,1.57542003E9
Raw,1932626536,627825000000,,,-1311853870175427660,0.0,8.4006044688297,,,0,24,0.0,16431,43297928475008,9,39.7190055847168,399.01664475304165,0.04969461387252569,1,234533.9521815781,9.384594159200788E-4,1.57542003E9,,,,0,,1,,1.57542003E9
Raw,1932626537,627825000000,,,-1311853870175427660,0.0,8.4006044688297,,,0,25,0.0,16431,43297921492782,6,42.89094161987305,-729.9555593842479,0.03370197032940456,1,-458258.8920013468,6.865900359116495E-4,1.57542003E9,,,,0,,1,,1.57542003E9
Raw,1932626537,627825000000,,,-1311853870175427660,0.0,8.4006044688297,,,0,31,0.0,16,627016175730,1000000000,7.0,-849.9157179374097,2.99792458E8,2,-13.597872485429084,3.4028234663852886E38,1.57542003E9,,,,0,,1,,1.57542003E9
Raw,1932626537,627825000000,,,-1311853870175427660,0.0,8.4006044688297,,,0,32,0.0,16431,43297926642124,21,32.89567565917969,-429.02232823887607,0.10686302119086416,1,-273837.3643916603,0.0019409115193411708,1.57542003E9,,,,0,,1,,1.57542003E9
Raw,1932626538,627825000000,,,-1311853870175427660,0.0,8.4006044688297,,,0,10,0.0,32995,54079928678054,33,41.47095489501953,-863.5208210970982,0.04093235629000408,1,-549986.605686095,7.970751030370593E-4,1.59806246E9,,,,0,,3,,1.59806246E9
Raw,1932626538,627825000000,,,-1311853870175427660,0.0,8.4006044688297,,,0,9,0.0,32995,54079934026989,33,42.58809280395508,-269.1839743899717,0.0371428589203914,1,-199687.5002736597,6.996467709541321E-4,1.59862502E9,,,,0,,3,,1.59862502E9
Raw,1932626538,627825000000,,,-1311853870175427660,0.0,8.4006044688297,,,0,16,0.0,32995,54079927488604,39,33.57737731933594,430.5238990259015,0.09903914200450348,1,241473.06624332702,0.00187233358155936,1.60143744E9,,,,0,,3,,1.60143744E9
Raw,1932626539,627825000000,,,-1311853870175427660,0.0,8.4006044688297,,,0,23,0.0,32995,54079925234437,53,30.995769500732422,-159.68041574537767,0.13244583228180923,4,-129402.7380611973,3.4028234663852886E38,1.60368755E9,,,,0,,3,,1.60368755E9
Raw,1932626539,627825000000,,,-1311853870175427660,0.0,8.4006044688297,,,0,7,0.0,32995,54079933159258,33,34.987213134765625,-217.33578178622247,0.08542239349515374,1,-143474.10282425114,0.0015884630847722292,1.60481254E9,,,,0,,3,,1.60481254E9
Raw,1932626539,627825000000,,,-1311853870175427660,0.0,8.4006044688297,,,0,8,0.0,32961,54079926554852,80,27.432830810546875,-563.9720534181395,0.19937138705428792,4,-583522.9277727397,3.4028234663852886E38,1.60537498E9,,,,0,,3,,1.60537498E9
Raw,1932626540,627825000000,,,-1311853870175427660,0.0,8.4006044688297,,,0,193,0.0,35,9481388,10,38.810150146484375,-244.3088253318855,0.055189099443151535,1,-150537.3682038369,0.0010419772006571293,1.57542003E9,,,,0,,4,,1.57542003E9
Raw,1932626540,627825000000,,,-1311853870175427660,0.0,8.4006044688297,,,0,194,0.0,35,13003354,16,35.20719909667969,-116.57394720902278,0.08331723598283808,1,-75320.54443672863,0.0015776320360600948,1.57542003E9,,,,0,,4,,1.57542003E9
Raw,1932626540,627825000000,,,-1311853870175427660,0.0,8.4006044688297,,,0,6,0.0,16431,43283879320777,21,26.750202178955078,-74.53776153423956,0.21787213660571436,4,-28799.291033095946,3.4028234663852886E38,1.56109798E9,,,,0,,5,,1.56109798E9
Raw,1932626541,627825000000,,,-1311853870175427660,0.0,8.4006044688297,,,0,14,0.0,16431,43283925783907,6,41.431941986083984,82.86286165309906,0.04058901048836816,1,36596.10857702564,8.196218986995518E-4,1.56109798E9,,,,0,,5,,1.56109798E9
Raw,1932626541,627825000000,,,-1311853870175427660,0.0,8.4006044688297,,,0,16,0.0,16431,43283878681319,20,27.377471923828125,-74.81886511502557,0.20281982271267374,4,-28351.17177894155,3.4028234663852886E38,1.56109798E9,,,,0,,5,,1.56109798E9
Raw,1932626541,627825000000,,,-1311853870175427660,0.0,8.4006044688297,,,0,24,0.0,16431,43283925083117,6,40.375823974609375,-78.36550258201748,0.04557624076765726,1,-54251.01267806475,9.255916811525822E-4,1.56109798E9,,,,0,,5,,1.56109798E9
Raw,1932626542,627825000000,,,-1311853870175427660,0.0,8.4006044688297,,,0,25,0.0,16431,43283921811960,6,40.8798942565918,-647.1100371809048,0.04246973635582707,1,-68875.02005389293,8.285852964036167E-4,1.56109798E9,,,,0,,5,,1.56109798E9
Raw,1932626543,627825000000,,,-1311853870175427660,0.0,8.4006044688297,,,0,26,0.0,16431,43283917614258,11,32.61991882324219,379.0519937833924,0.11224522021130762,4,182268.86823198368,3.4028234663852886E38,1.56109798E9,,,,0,,5,,1.56109798E9
Raw,1932626543,627825000000,,,-1311853870175427660,0.0,8.4006044688297,,,0,27,0.0,16431,43283914438819,16,29.010385513305664,43.419034484818525,0.1678729232593844,1,2558.4884677355367,0.0030636300798505545,1.56109798E9,,,,0,,5,,1.56109798E9
Raw,1932626544,627825000000,,,-1311853870175427660,0.0,8.4006044688297,,,0,33,0.0,16431,43283926533559,9,33.783668518066406,-162.67605917899357,0.09657448779989986,1,-90462.26611413356,0.0018756354693323374,1.56109798E9,,,,0,,5,,1.56109798E9
Fix,gps,34.486757,109.464236,362.523712,0.000000,3.000000,1627819281000
Raw,1932627518,628825000000,,,-1311853870175428047,0.0,8.872311350451207,,,0,10,0.0,16431,43298931272203,14,36.063140869140625,-424.00726517382714,0.07540651975637191,1,-279003.1265397352,0.0014295806176960468,1.57542003E9,,,,0,,1,,1.57542003E9
Raw,1932627518,628825000000,,,-1311853870175428047,0.0,8.872311350451207,,,0,12,0.0,16431,43298922918269,9,40.19251251220703,-552.735271997308,0.046139404268314504,1,-358737.56877197104,8.88669106643647E-4,1.57542003E9,,,,0,,1,,1.57542003E9
Raw,1932627518,628825000000,,,-1311853870175428047,0.0,8.872311350451207,,,0,15,0.0,16431,43298918702307,7,41.7437744140625,415.66384573458663,0.041518061141911394,1,259817.87833215093,7.835302385501564E-4,1.57542003E9,,,,0,,1,,1.57542003E9
Raw,1932627518,628825000000,,,-1311853870175428047,0.0,8.872311350451207,,,0,18,0.0,16431,43298923972901,10,39.28594970703125,541.8122877536821,0.05134730930058534,1,328042.84268529597,9.864344028756022E-4,1.57542003E9,,,,0,,1,,1.57542003E9
Raw,1932627518,628825000000,,,-1311853870175428047,0.0,8.872311350451207,,,0,23,0.0,16431,43298932551375,8,41.19763946533203,18.21587586515679,0.04288763337065052,1,-7115.798961925393,8.34377424325794E-4,1.57542003E9,,,,0,,1,,1.57542003E9
Raw,1932627519,628825000000,,,-1311853870175428047,0.0,8.872311350451207,,,0,24,0.0,16431,43298928473682,10,39.089080810546875,398.87666810410246,0.053317584825539,1,234932.67287725353,0.001009047613479197,1.57542003E9,,,,0,,1,,1.57542003E9
Raw,1932627519,628825000000,,,-1311853870175428047,0.0,8.872311350451207,,,0,25,0.0,16431,43298921495228,6,43.59150695800781,-729.509079203799,0.031111701553442908,1,-458988.4481390772,6.333868368528783E-4,1.57542003E9,,,,0,,1,,1.57542003E9
Raw,1932627519,628825000000,,,-1311853870175428047,0.0,8.872311350451207,,,0,31,0.0,16,628016178504,1000000000,7.0,-849.9157179374097,2.99792458E8,2,-13.591226028274072,3.4028234663852886E38,1.57542003E9,,,,0,,1,,1.57542003E9
Raw,1932627519,628825000000,,,-1311853870175428047,0.0,8.872311350451207,,,0,32,0.0,16431,43298926643542,28,30.443681716918945,-428.23352386511215,0.14132924650695788,4,-274265.58302132983,3.4028234663852886E38,1.57542003E9,,,,0,,1,,1.57542003E9
Raw,1932627519,628825000000,,,-1311853870175428047,0.0,8.872311350451207,,,0,10,0.0,32995,54080928680971,33,39.90007781982422,-863.1868130231746,0.04873787122305767,1,-550849.6772324534,9.550874237902462E-4,1.59806246E9,,,,0,,3,,1.59806246E9
Raw,1932627519,628825000000,,,-1311853870175428047,0.0,8.872311350451207,,,0,9,0.0,32995,54080934027862,33,43.907859802246094,-268.8337771491998,0.03252327358669836,1,-199956.51161569788,6.010219221934676E-4,1.59862502E9,,,,0,,3,,1.59862502E9
Raw,1932627520,628825000000,,,-1311853870175428047,0.0,8.872311350451207,,,0,16,0.0,32995,54080927487200,34,34.87421417236328,430.4954742571615,0.08548970135423895,1,241903.44656898399,0.0016126545378938317,1.60143744E9,,,,0,,3,,1.60143744E9
Raw,1932627520,628825000000,,,-1311853870175428047,0.0,8.872311350451207,,,0,23,0.0,32995,54080925235010,40,33.376102447509766,-159.54541513509082,0.10092397840260747,4,-129562.38692335808,3.4028234663852886E38,1.60368755E9,,,,0,,3,,1.60368755E9
Raw,1932627520,628825000000,,,-1311853870175428047,0.0,8.872311350451207,,,0,7,0.0,32995,54080933160031,35,34.62723159790039,-217.5587492167947,0.08893704697312171,1,-143691.63641774806,0.001655678846873343,1.60481254E9,,,,0,,3,,1.60481254E9
Raw,1932627520,628825000000,,,-1311853870175428047,0.0,8.872311350451207,,,0,8,0.0,32961,54080926556726,107,24.896984100341797,-563.8193980953738,0.2665660983748973,4,-584087.5531302801,3.4028234663852886E38,1.60537498E9,,,,0,,3,,1.60537498E9
Raw,1932627520,628825000000,,,-1311853870175428047,0.0,8.872311350451207,,,0,193,0.0,35,9482180,8,40.94025421142578,-244.18815639456648,0.04355754585439642,1,-150781.58913472787,8.594718528911471E-4,1.57542003E9,,,,0,,4,,1.57542003E9
Raw,1932627520,628825000000,,,-1311853870175428047,0.0,8.872311350451207,,,0,194,0.0,35,13003721,17,34.742977142333984,-116.41344440064273,0.08776298289830348,1,-75436.94675616694,0.0016642434056848288,1.57542003E9,,,,0,,4,,1.57542003E9
Raw,1932627520,628825000000,,,-1311853870175428047,0.0,8.872311350451207,,,0,6,0.0,16431,43284879321026,16,29.174863815307617,-74.57289202630045,0.16565087357196318,4,-28873.866865741285,3.4028234663852886E38,1.56109798E9,,,,0,,5,,1.56109798E9
Raw,1932627521,628825000000,,,-1311853870175428047,0.0,8.872311350451207,,,0,14,0.0,16431,43284925783644,6,41.87976837158203,83.03508030590882,0.038601589723750135,1,36679.05713941039,7.784348563291132E-4,1.56109798E9,,,,0,,5,,1.56109798E9
Raw,1932627521,628825000000,,,-1311853870175428047,0.0,8.872311350451207,,,0,16,0.0,16431,43284878681597,15,29.562118530273438,-74.94055652604027,0.15846418488197633,4,-28426.09003103801,3.4028234663852886E38,1.56109798E9,,,,0,,5,,1.56109798E9
Raw,1932627521,628825000000,,,-1311853870175428047,0.0,8.872311350451207,,,0,24,0.0,16431,43284925083382,6,40.18999481201172,-77.99403788837537,0.04654208649511257,1,-54329.146188990446,9.456073748879135E-4,1.56109798E9,,,,0,,5,,1.56109798E9
Raw,1932627527,628825000000,,,-1311853870175428047,0.0,8.872311350451207,,,0,25,0.0,16431,43284921814109,6,37.04475784301758,-646.9107229751594,0.06586390622198252,1,-69521.80409012677,0.0012885283213108778,1.56109798E9,,,,0,,5,,1.56109798E9
Raw,1932627527,628825000000,,,-1311853870175428047,0.0,8.872311350451207,,,0,26,0.0,16431,43284917612991,11,32.46910095214844,379.8235865166123,0.11415546867538345,4,182648.51994872978,3.4028234663852886E38,1.56109798E9,,,,0,,5,,1.56109798E9
Raw,1932627527,628825000000,,,-1311853870175428047,0.0,8.872311350451207,,,0,27,0.0,16431,43284914438672,12,31.603443145751953,43.63246308787143,0.12521573339268188,1,2602.2645317425436,0.0022729162592440844,1.56109798E9,,,,0,,5,,1.56109798E9
Raw,1932627527,628825000000,,,-1311853870175428047,0.0,8.872311350451207,,,0,33,0.0,16431,43284926534100,8,34.55915832519531,-162.83437218954202,0.08842632602183825,1,-90625.08208885799,0.0017154336674138904,1.56109798E9,,,,0,,5,,1.56109798E9
Fix,gps,34.486757,109.464236,362.554871,0.000000,3.000000,1627819282000
Raw,1932628514,629825000000,,,-1311853870175428433,0.0,9.182994161868821,,,0,10,0.0,16431,43299931273659,13,36.882911682128906,-423.58757380420525,0.06879805541819131,1,-279426.88064011576,0.0013008288806304336,1.57542003E9,,,,0,,1,,1.57542003E9
Raw,1932628515,629825000000,,,-1311853870175428433,0.0,9.182994161868821,,,0,12,0.0,16431,43299922920133,7,42.276126861572266,-552.6415111594138,0.03641100140549705,1,-359290.17455167766,7.369503728114069E-4,1.57542003E9,,,,0,,1,,1.57542003E9
Raw,1932628515,629825000000,,,-1311853870175428433,0.0,9.182994161868821,,,0,15,0.0,16431,43299918700918,10,38.94910430908203,415.6022246531934,0.055998661796971244,1,260233.57333943472,0.0010254407534375787,1.57542003E9,,,,0,,1,,1.57542003E9
Raw,1932628515,629825000000,,,-1311853870175428433,0.0,9.182994161868821,,,0,18,0.0,16431,43299923971090,14,36.450077056884766,541.9270093023379,0.07089611935282492,1,328584.81222192047,0.0013672939967364073,1.57542003E9,,,,0,,1,,1.57542003E9
Raw,1932628515,629825000000,,,-1311853870175428433,0.0,9.182994161868821,,,0,23,0.0,16431,43299932551306,6,44.5399284362793,18.372949126349226,0.032257672148320926,1,-7097.474418904856,5.678688758052886E-4,1.57542003E9,,,,0,,1,,1.57542003E9
Raw,1932628515,629825000000,,,-1311853870175428433,0.0,9.182994161868821,,,0,24,0.0,16431,43299928472322,10,39.37366485595703,399.01173687930236,0.05164791057605972,1,235331.59353352897,9.765230352059007E-4,1.57542003E9,,,,0,,1,,1.57542003E9
Raw,1932628515,629825000000,,,-1311853870175428433,0.0,9.182994161868821,,,0,25,0.0,16431,43299921497671,8,40.89856719970703,-729.5776531063229,0.04232269335523067,1,-459717.97077114205,8.636070415377617E-4,1.57542003E9,,,,0,,1,,1.57542003E9
Raw,1932628516,629825000000,,,-1311853870175428433,0.0,9.182994161868821,,,0,31,0.0,16,629016181339,1000000000,7.0,-849.9157179374097,2.99792458E8,2,-13.584579571121253,3.4028234663852886E38,1.57542003E9,,,,0,,1,,1.57542003E9
Raw,1932628516,629825000000,,,-1311853870175428433,0.0,9.182994161868821,,,0,32,0.0,16431,43299926645005,14,36.4763298034668,-428.09191125825987,0.07116527590095562,4,-274693.7222735702,3.4028234663852886E38,1.57542003E9,,,,0,,1,,1.57542003E9
Raw,1932628517,629825000000,,,-1311853870175428433,0.0,9.182994161868821,,,0,10,0.0,32995,54081928683818,33,36.448707580566406,-862.9907025683424,0.07175489574207045,1,-551712.6090428906,0.0013481336645781994,1.59806246E9,,,,0,,3,,1.59806246E9
Raw,1932628517,629825000000,,,-1311853870175428433,0.0,9.182994161868821,,,0,9,0.0,32995,54081934028776,33,44.73773193359375,-268.71755597245703,0.03252343792471504,1,-200225.30446038317,5.462568951770663E-4,1.59862502E9,,,,0,,3,,1.59862502E9
Raw,1932628517,629825000000,,,-1311853870175428433,0.0,9.182994161868821,,,0,16,0.0,32995,54081927485714,42,33.03130340576172,430.4710712182912,0.10537763018469803,1,242334.016797941,0.0019938244950026274,1.60143744E9,,,,0,,3,,1.60143744E9
Raw,1932628520,629825000000,,,-1311853870175428433,0.0,9.182994161868821,,,0,23,0.0,32995,54081925235636,33,35.17393112182617,-159.2891491444958,0.08223077447205113,4,-129721.91517759513,3.4028234663852886E38,1.60368755E9,,,,0,,3,,1.60368755E9
Raw,1932628520,629825000000,,,-1311853870175428433,0.0,9.182994161868821,,,0,7,0.0,32995,54081933160695,33,35.98153305053711,-217.363456740919,0.0764388786957938,1,-143909.04934581724,0.0014166452456265688,1.60481254E9,,,,0,,3,,1.60481254E9
Raw,1932628520,629825000000,,,-1311853870175428433,0.0,9.182994161868821,,,0,8,0.0,32961,54081926558724,59,30.090246200561523,-563.919089280703,0.1471337983907277,4,-584651.5331432818,3.4028234663852886E38,1.60537498E9,,,,0,,3,,1.60537498E9
Raw,1932628521,629825000000,,,-1311853870175428433,0.0,9.182994161868821,,,0,193,0.0,35,9483014,8,40.72300338745117,-244.26940897091686,0.04461770496160217,1,-151025.77025898866,8.81240121088922E-4,1.57542003E9,,,,0,,4,,1.57542003E9
Raw,1932628522,629825000000,,,-1311853870175428433,0.0,9.182994161868821,,,0,194,0.0,35,13004144,166,31.024700164794922,-115.54935188041992,0.13340613212125857,4,-75553.27829166711,3.4028234663852886E38,1.57542003E9,,,,1,,4,,1.57542003E9
