# 
# Header Description:
# 
# Version: v2.0.0.1 Platform: 10 Manufacturer: HUAWEI Model: BLA-AL00
# 
# Raw,ElapsedRealtimeMillis,TimeNanos,LeapSecond,TimeUncertaintyNanos,FullBiasNanos,BiasNanos,BiasUncertaintyNanos,DriftNanosPerSecond,DriftUncertaintyNanosPerSecond,HardwareClockDiscontinuityCount,Svid,TimeOffsetNanos,State,ReceivedSvTimeNanos,ReceivedSvTimeUncertaintyNanos,Cn0DbHz,PseudorangeRateMetersPerSecond,PseudorangeRateUncertaintyMetersPerSecond,AccumulatedDeltaRangeState,AccumulatedDeltaRangeMeters,AccumulatedDeltaRangeUncertaintyMeters,CarrierFrequencyHz,CarrierCycles,CarrierPhase,CarrierPhaseUncertainty,MultipathIndicator,SnrInDb,ConstellationType,AgcDb,CarrierFrequencyHz
# 
# Fix,Provider,Latitude,Longitude,Altitude,Speed,Accuracy,(UTC)TimeInMs
# 
# Nav,Svid,Type,Status,MessageId,Sub-messageId,Data(Bytes)
# 
Fix,gps,34.486716,109.464182,357.894684,0.925558,3.000000,1627950695000
Raw,2064042114,296292000000,,,-1311985616708231198,0.0,10.248896762216676,,,0,1,0.0,16431,174712928267200,41,27.051774978637695,436.05728808974936,0.20856774246775844,4,125112.01171596107,3.4028234663852886E38,1.57542003E9,,,,0,,1,,1.57542003E9
Raw,2064042114,296292000000,,,-1311985616708231198,0.0,10.248896762216676,,,0,3,0.0,16431,174712925876426,16,35.313941955566406,-331.47670171267964,0.08104621772690201,4,-102604.58234004318,3.4028234663852886E38,1.57542003E9,,,,0,,1,,1.57542003E9
Raw,2064042115,296292000000,,,-1311985616708231198,0.0,10.248896762216676,,,0,6,0.0,16431,174712922592707,114,12.460025787353516,-719.9496317982812,4.200466259772991,4,-212091.4712887587,3.4028234663852886E38,1.57542003E9,,,,0,,1,,1.57542003E9
Raw,2064042116,296292000000,,,-1311985616708231198,0.0,10.248896762216676,,,0,7,0.0,16431,174712918350177,167,14.75794792175293,561.23628871551,4.203300695317408,4,164594.37180994748,3.4028234663852886E38,1.57542003E9,,,,1,,1,,1.57542003E9
Raw,2064042116,296292000000,,,-1311985616708231198,0.0,10.248896762216676,,,0,14,0.0,16431,174712932862804,14,36.28446578979492,-202.73218193901346,0.07384648184652753,4,-64258.705438271376,3.4028234663852886E38,1.57542003E9,,,,0,,1,,1.57542003E9
Raw,2064042117,296292000000,,,-1311985616708231198,0.0,10.248896762216676,,,0,17,0.0,16431,174712929604008,11,38.06719207763672,-220.23655670210712,0.0599873077196085,1,-66348.62372342777,0.0011350266868248582,1.57542003E9,,,,0,,1,,1.57542003E9
Raw,2064042117,296292000000,,,-1311985616708231198,0.0,10.248896762216676,,,0,19,0.0,16431,174712926654190,8,41.17167663574219,-479.0004675769035,0.041948522734212734,1,-142671.4577278806,7.939296192489564E-4,1.57542003E9,,,,0,,1,,1.57542003E9
Raw,2064042118,296292000000,,,-1311985616708231198,0.0,10.248896762216676,,,0,21,0.0,16431,174712918759781,30,29.75541114807129,485.4187053769965,0.15506474275484206,4,141892.4944804151,3.4028234663852886E38,1.57542003E9,,,,0,,1,,1.57542003E9
Raw,2064042119,296292000000,,,-1311985616708231198,0.0,10.248896762216676,,,0,22,0.0,16431,174712924047335,38,27.779338836669922,8.959109430634179,0.19116948050408744,4,-2745.196354017194,3.4028234663852886E38,1.57542003E9,,,,0,,1,,1.57542003E9
Raw,2064042119,296292000000,,,-1311985616708231198,0.0,10.248896762216676,,,0,24,0.0,16431,174712915610925,23,32.1204719543457,-510.94101211953785,0.11834065454505899,1,-153857.82261288926,0.0021221002098172903,1.57542003E9,,,,0,,1,,1.57542003E9
Raw,2064042120,296292000000,,,-1311985616708231198,0.0,10.248896762216676,,,0,30,0.0,16431,174712924226486,116,12.029733657836914,445.0975915175118,4.2007602209605,4,123328.05576779736,3.4028234663852886E38,1.57542003E9,,,,0,,1,,1.57542003E9
Raw,2064042120,296292000000,,,-1311985616708231198,0.0,10.248896762216676,,,0,10,0.0,32995,12694918942024,54,30.854965209960938,-901.8170962145628,0.13706064349210628,1,-98480.03124286747,0.002420158591121435,1.59806246E9,,,,0,,3,,1.59806246E9
Raw,2064042121,296292000000,,,-1311985616708231198,0.0,10.248896762216676,,,0,2,0.0,32995,12694920589213,54,30.720989227294922,-184.86102882004957,0.13943445829781842,4,-59535.01356005041,3.4028234663852886E38,1.59975002E9,,,,0,,3,,1.59975002E9
Raw,2064042122,296292000000,,,-1311985616708231198,0.0,10.248896762216676,,,0,18,0.0,32995,12694930590988,69,28.63985252380371,355.63867536802604,0.17438390395025227,4,100094.91136802114,3.4028234663852886E38,1.60031245E9,,,,0,,3,,1.60031245E9
Raw,2064042122,296292000000,,,-1311985616708231198,0.0,10.248896762216676,,,0,9,0.0,32995,12694932062477,42,32.97709655761719,-560.4291479801368,0.10685209583309696,1,-168891.94280300158,0.002007011091336608,1.59862502E9,,,,0,,3,,1.59862502E9
Raw,2064042123,296292000000,,,-1311985616708231198,0.0,10.248896762216676,,,0,19,0.0,32995,12694933910125,106,25.009382247924805,-112.40100200035357,0.2644767339540075,4,-36231.62360012074,3.4028234663852886E38,1.60368755E9,,,,0,,3,,1.60368755E9
Raw,2064042123,296292000000,,,-1311985616708231198,0.0,10.248896762216676,,,0,3,0.0,32995,12694920977289,36,34.21418762207031,-607.4753439957894,0.09096180783140334,4,-175422.6243538079,3.4028234663852886E38,1.60481254E9,,,,0,,3,,1.60481254E9
Raw,2064042124,296292000000,,,-1311985616708231198,0.0,10.248896762216676,,,0,193,0.0,35,11548541,61,22.58637046813965,-178.59634952782005,4.202077188382077,4,-52150.1049344505,3.4028234663852886E38,1.57542003E9,,,,0,,4,,1.57542003E9
Raw,2064042125,296292000000,,,-1311985616708231198,0.0,10.248896762216676,,,0,194,0.0,35,16076102,12,37.493186950683594,-173.14387221575737,0.06513162434056408,4,-51806.73814258694,3.4028234663852886E38,1.57542003E9,,,,0,,4,,1.57542003E9
Raw,2064042125,296292000000,,,-1311985616708231198,0.0,10.248896762216676,,,0,195,0.0,35,8402239,24,31.557064056396484,-100.56841663643274,0.12478638264216418,4,-29239.542976806,3.4028234663852886E38,1.57542003E9,,,,0,,4,,1.57542003E9
Raw,2064042126,296292000000,,,-1311985616708231198,0.0,10.248896762216676,,,0,7,0.0,16431,174698880257692,12,31.71683120727539,-118.93803420265687,0.1246721198753255,4,-23912.787401542624,3.4028234663852886E38,1.56109798E9,,,,0,,5,,1.56109798E9
Raw,2064042126,296292000000,,,-1311985616708231198,0.0,10.248896762216676,,,0,8,0.0,16431,174698878080431,25,25.449054718017578,-243.81289150702207,0.25229598351578497,1,-48510.8495430907,0.004616394639015198,1.56109798E9,,,,0,,5,,1.56109798E9
Raw,2064042127,296292000000,,,-1311985616708231198,0.0,10.248896762216676,,,0,10,0.0,16431,174698880581497,11,32.180747985839844,-176.80845202354647,0.11843581249740148,1,-13321.078587509712,0.002126758685335517,1.56109798E9,,,,0,,5,,1.56109798E9
Raw,2064042127,296292000000,,,-1311985616708231198,0.0,10.248896762216676,,,0,28,0.0,16431,174698915394659,15,29.434635162353516,346.2711121927316,0.16016619419640865,4,53653.59856641478,3.4028234663852886E38,1.56109798E9,,,,0,,5,,1.56109798E9
Fix,gps,34.486717,109.464181,357.871155,0.764269,3.000000,1627950696000
Raw,2064043199,297292000000,,,-1311985616708231585,0.0,10.05463003916911,,,0,1,0.0,16431,174713928265731,47,26.046314239501953,437.35644316748585,0.23398128956197817,4,125550.07476510474,3.4028234663852886E38,1.57542003E9,,,,0,,1,,1.57542003E9
Raw,2064043200,297292000000,,,-1311985616708231585,0.0,10.05463003916911,,,0,3,0.0,16431,174713925877543,15,35.66886901855469,-331.0509095833402,0.07784372327150563,4,-102935.698781738,3.4028234663852886E38,1.57542003E9,,,,0,,1,,1.57542003E9
Raw,2064043200,297292000000,,,-1311985616708231585,0.0,10.05463003916911,,,0,6,0.0,16431,174713922595129,105,14.048930168151855,-719.9833734302388,4.200466792311374,4,-212809.85509167117,3.4028234663852886E38,1.57542003E9,,,,0,,1,,1.57542003E9
Raw,2064043201,297292000000,,,-1311985616708231585,0.0,10.05463003916911,,,0,7,0.0,16431,174713918348322,104,14.350296020507812,561.3211540322518,4.203300429048216,4,165154.52683205914,3.4028234663852886E38,1.57542003E9,,,,0,,1,,1.57542003E9
Raw,2064043201,297292000000,,,-1311985616708231585,0.0,10.05463003916911,,,0,14,0.0,16431,174713932863448,14,36.17267990112305,-202.89383503030115,0.07477314855871486,4,-64461.553038002276,3.4028234663852886E38,1.57542003E9,,,,0,,1,,1.57542003E9
Raw,2064043202,297292000000,,,-1311985616708231585,0.0,10.05463003916911,,,0,17,0.0,16431,174713929604740,8,40.70436096191406,-220.34631925333883,0.04473179714973999,1,-66569.00724695914,8.378142374567688E-4,1.57542003E9,,,,0,,1,,1.57542003E9
Raw,2064043203,297292000000,,,-1311985616708231585,0.0,10.05463003916911,,,0,19,0.0,16431,174713926655811,6,42.59187698364258,-479.07606246547107,0.03580187734609866,1,-143150.5266965528,7.10641557816416E-4,1.57542003E9,,,,0,,1,,1.57542003E9
Raw,2064043204,297292000000,,,-1311985616708231585,0.0,10.05463003916911,,,0,21,0.0,16431,174713918758158,27,30.838985443115234,486.1754381591725,0.13727366716628608,4,142379.1692887682,3.4028234663852886E38,1.57542003E9,,,,0,,1,,1.57542003E9
Raw,2064043204,297292000000,,,-1311985616708231585,0.0,10.05463003916911,,,0,22,0.0,16431,174713924047348,33,28.895278930664062,9.776319401756332,0.1682085722172011,4,-2735.7425807103746,3.4028234663852886E38,1.57542003E9,,,,0,,1,,1.57542003E9
Raw,2064043205,297292000000,,,-1311985616708231585,0.0,10.05463003916911,,,0,24,0.0,16431,174713915612654,13,36.93830108642578,-510.8674280959051,0.06915411557372539,1,-154368.87458801476,0.0012925600167363882,1.57542003E9,,,,0,,1,,1.57542003E9
Raw,2064043205,297292000000,,,-1311985616708231585,0.0,10.05463003916911,,,0,30,0.0,16431,174713924225042,106,13.855878829956055,445.2155508995372,4.200759954691309,4,123773.5733026894,3.4028234663852886E38,1.57542003E9,,,,0,,1,,1.57542003E9
Raw,2064043206,297292000000,,,-1311985616708231585,0.0,10.05463003916911,,,0,10,0.0,32995,12695918945097,33,37.22087097167969,-901.9348170193925,0.06762989919106135,1,-99382.07518627022,0.0012334591010585427,1.59806246E9,,,,0,,3,,1.59806246E9
Raw,2064043207,297292000000,,,-1311985616708231585,0.0,10.05463003916911,,,0,2,0.0,32995,12695920589879,53,30.875869750976562,-185.17814903676606,0.1370357639645176,4,-59720.16677821213,3.4028234663852886E38,1.59975002E9,,,,0,,3,,1.59975002E9
Raw,2064043207,297292000000,,,-1311985616708231585,0.0,10.05463003916911,,,0,18,0.0,32995,12695930589795,74,28.099504470825195,356.11337582247575,0.1854543285013921,4,100451.68156727962,3.4028234663852886E38,1.60031245E9,,,,0,,3,,1.60031245E9
Raw,2064043208,297292000000,,,-1311985616708231585,0.0,10.05463003916911,,,0,9,0.0,32995,12695932064401,33,35.498756408691406,-560.0183521316674,0.08047527001284704,1,-169452.02787532145,0.001501297578215599,1.59862502E9,,,,0,,3,,1.59862502E9
Raw,2064043208,297292000000,,,-1311985616708231585,0.0,10.05463003916911,,,0,19,0.0,32995,12695933910533,92,26.168733596801758,-112.33248774212859,0.2317428643192745,4,-36343.877877422674,3.4028234663852886E38,1.60368755E9,,,,0,,3,,1.60368755E9
Raw,2064043209,297292000000,,,-1311985616708231585,0.0,10.05463003916911,,,0,3,0.0,32995,12695920979345,42,32.900177001953125,-606.6825860570689,0.10578969840049945,4,-176030.18014665757,3.4028234663852886E38,1.60481254E9,,,,0,,3,,1.60481254E9
Raw,2064043209,297292000000,,,-1311985616708231585,0.0,10.05463003916911,,,0,193,0.0,35,11549118,42,27.002634048461914,-177.77393985192464,0.21033299071519207,4,-52328.27301958483,3.4028234663852886E38,1.57542003E9,,,,0,,4,,1.57542003E9
Raw,2064043210,297292000000,,,-1311985616708231585,0.0,10.05463003916911,,,0,194,0.0,35,16076694,12,37.57648849487305,-173.2231139271729,0.06453766514371764,4,-51979.898102115374,3.4028234663852886E38,1.57542003E9,,,,0,,4,,1.57542003E9
Raw,2064043211,297292000000,,,-1311985616708231585,0.0,10.05463003916911,,,0,195,0.0,35,8402604,27,30.824331283569336,-100.5487851414756,0.1356370602220367,4,-29340.102293815347,3.4028234663852886E38,1.57542003E9,,,,0,,4,,1.57542003E9
Raw,2064043211,297292000000,,,-1311985616708231585,0.0,10.05463003916911,,,0,7,0.0,16431,174699880258093,13,30.583452224731445,-118.70390476757342,0.14154124670893253,4,-24031.570112086752,3.4028234663852886E38,1.56109798E9,,,,0,,5,,1.56109798E9
Raw,2064043212,297292000000,,,-1311985616708231585,0.0,10.05463003916911,,,0,8,0.0,16431,174699878081283,15,29.456186294555664,-243.78905082868437,0.1602593884134632,1,-48754.59447671247,0.0029103574343025684,1.56109798E9,,,,0,,5,,1.56109798E9
Raw,2064043212,297292000000,,,-1311985616708231585,0.0,10.05463003916911,,,0,10,0.0,16431,174699880582092,12,31.21377944946289,-177.1984064498522,0.13194691038407785,4,-13498.088257758585,3.4028234663852886E38,1.56109798E9,,,,0,,5,,1.56109798E9
Raw,2064043213,297292000000,,,-1311985616708231585,0.0,10.05463003916911,,,0,28,0.0,16431,174699915393525,14,30.252103805541992,347.01901761866816,0.14602833191639142,4,54001.188656027494,3.4028234663852886E38,1.56109798E9,,,,0,,5,,1.56109798E9
Fix,gps,34.486718,109.464178,357.858246,0.814945,3.000000,1627950697000
Raw,2064044156,298292000000,,,-1311985616708231968,0.0,9.704314509941343,,,0,1,0.0,16431,174714928264348,47,25.976680755615234,436.4166875937824,0.23585237981306661,4,125986.07484722252,3.4028234663852886E38,1.57542003E9,,,,0,,1,,1.57542003E9
Raw,2064044157,298292000000,,,-1311985616708231968,0.0,9.704314509941343,,,0,3,0.0,16431,174714925878640,21,32.72825241088867,-330.8870411323785,0.10878221463559479,4,-103266.2984373111,3.4028234663852886E38,1.57542003E9,,,,0,,1,,1.57542003E9
Raw,2064044157,298292000000,,,-1311985616708231968,0.0,9.704314509941343,,,0,6,0.0,16431,174714922597561,99,15.202825546264648,-719.6036266996616,4.2004673248497575,4,-213529.71230571892,3.4028234663852886E38,1.57542003E9,,,,0,,1,,1.57542003E9
Raw,2064044157,298292000000,,,-1311985616708231968,0.0,9.704314509941343,,,0,7,0.0,16431,174714918346534,76,19.676759719848633,560.9129825329346,4.2033001627790245,4,165715.00817893984,3.4028234663852886E38,1.57542003E9,,,,0,,1,,1.57542003E9
Raw,2064044158,298292000000,,,-1311985616708231968,0.0,9.704314509941343,,,0,14,0.0,16431,174714932864113,11,38.099266052246094,-202.84985162015846,0.06035896958558698,1,-64664.401359696814,0.0011308434186503291,1.57542003E9,,,,0,,1,,1.57542003E9
Raw,2064044158,298292000000,,,-1311985616708231968,0.0,9.704314509941343,,,0,17,0.0,16431,174714929605468,8,41.360435485839844,-220.40216335835146,0.0416033296900602,1,-66789.33560861746,8.188846404664218E-4,1.57542003E9,,,,0,,1,,1.57542003E9
Raw,2064044158,298292000000,,,-1311985616708231968,0.0,9.704314509941343,,,0,19,0.0,16431,174714926657406,6,44.541900634765625,-478.8742602403995,0.03119750263997488,1,-143629.54527657764,5.677398294210434E-4,1.57542003E9,,,,0,,1,,1.57542003E9
Raw,2064044158,298292000000,,,-1311985616708231968,0.0,9.704314509941343,,,0,21,0.0,16431,174714918756538,24,31.657888412475586,485.56952024710995,0.12522621774210052,4,142864.672167442,3.4028234663852886E38,1.57542003E9,,,,0,,1,,1.57542003E9
Raw,2064044159,298292000000,,,-1311985616708231968,0.0,9.704314509941343,,,0,22,0.0,16431,174714924047333,28,30.363487243652344,9.46714572279349,0.14216208661276064,4,-2726.389604084779,3.4028234663852886E38,1.57542003E9,,,,0,,1,,1.57542003E9
Raw,2064044159,298292000000,,,-1311985616708231968,0.0,9.704314509941343,,,0,24,0.0,16431,174714915614371,11,37.907684326171875,-510.6833487482254,0.06214817373935097,1,-154879.70242837162,0.0011560630518943071,1.57542003E9,,,,0,,1,,1.57542003E9
Raw,2064044159,298292000000,,,-1311985616708231968,0.0,9.704314509941343,,,0,30,0.0,16431,174714924223524,166,13.150524139404297,445.30062071101815,4.200759688422117,4,124218.86955877428,3.4028234663852886E38,1.57542003E9,,,,1,,1,,1.57542003E9
Raw,2064044160,298292000000,,,-1311985616708231968,0.0,9.704314509941343,,,0,10,0.0,32995,12696918948092,33,38.086971282958984,-901.8711509906079,0.061535546575900796,1,-100283.89626729743,0.0011163997696712613,1.59806246E9,,,,0,,3,,1.59806246E9
Raw,2064044160,298292000000,,,-1311985616708231968,0.0,9.704314509941343,,,0,2,0.0,32995,12696920590413,58,30.16220474243164,-184.73621886426304,0.14845357828064054,4,-59904.889982792876,3.4028234663852886E38,1.59975002E9,,,,0,,3,,1.59975002E9
Raw,2064044160,298292000000,,,-1311985616708231968,0.0,9.704314509941343,,,0,18,0.0,32995,12696930588498,64,29.330795288085938,355.5599789759149,0.1611946589489036,4,100807.25520350535,3.4028234663852886E38,1.60031245E9,,,,0,,3,,1.60031245E9
Raw,2064044161,298292000000,,,-1311985616708231968,0.0,9.704314509941343,,,0,9,0.0,32995,12696932066258,33,35.769832611083984,-559.7604161007027,0.07806956115053043,4,-170011.97987192392,3.4028234663852886E38,1.59862502E9,,,,0,,3,,1.59862502E9
Raw,2064044161,298292000000,,,-1311985616708231968,0.0,9.704314509941343,,,0,19,0.0,32995,12696933910976,90,26.36136245727539,-111.84361750637953,0.22671495310005862,4,-36456.11183861383,3.4028234663852886E38,1.60368755E9,,,,0,,3,,1.60368755E9
Raw,2064044162,298292000000,,,-1311985616708231968,0.0,9.704314509941343,,,0,3,0.0,32995,12696920981290,47,32.02711868286133,-607.0574249139067,0.11695757747575919,4,-176637.1587441876,3.4028234663852886E38,1.60481254E9,,,,0,,3,,1.60481254E9
Raw,2064044162,298292000000,,,-1311985616708231968,0.0,9.704314509941343,,,0,193,0.0,35,11549659,55,24.62358856201172,-177.70032174583537,0.2759503566285041,4,-52506.829346094266,3.4028234663852886E38,1.57542003E9,,,,0,,4,,1.57542003E9
Raw,2064044162,298292000000,,,-1311985616708231968,0.0,9.704314509941343,,,0,194,0.0,35,16077240,14,36.55679702758789,-173.4007857730263,0.07221668140848803,4,-52153.19643150628,3.4028234663852886E38,1.57542003E9,,,,0,,4,,1.57542003E9
Raw,2064044163,298292000000,,,-1311985616708231968,0.0,9.704314509941343,,,0,195,0.0,35,8402886,31,29.62607765197754,-100.73422778741622,0.15547736015085112,4,-29440.876557039865,3.4028234663852886E38,1.57542003E9,,,,0,,4,,1.57542003E9
Raw,2064044163,298292000000,,,-1311985616708231968,0.0,9.704314509941343,,,0,7,0.0,16431,174700880258480,15,29.473087310791016,-118.70077770218745,0.16034582604978131,4,-24150.33284550451,3.4028234663852886E38,1.56109798E9,,,,0,,5,,1.56109798E9
Raw,2064044163,298292000000,,,-1311985616708231968,0.0,9.704314509941343,,,0,8,0.0,16431,174700878082066,18,27.95323944091797,-243.89148565176367,0.18991906373858236,1,-48998.44787288707,0.0034601406659930944,1.56109798E9,,,,0,,5,,1.56109798E9
Raw,2064044163,298292000000,,,-1311985616708231968,0.0,9.704314509941343,,,0,10,0.0,16431,174700880582681,14,30.545745849609375,-177.36510374470527,0.1421995307178272,4,-13675.210727542015,3.4028234663852886E38,1.56109798E9,,,,0,,5,,1.56109798E9
Raw,2064044164,298292000000,,,-1311985616708231968,0.0,9.704314509941343,,,0,28,0.0,16431,174700915392380,16,28.89774513244629,346.95985047414456,0.17020173025080654,4,54347.93497690617,3.4028234663852886E38,1.56109798E9,,,,0,,5,,1.56109798E9
Fix,gps,34.486719,109.464176,357.885651,0.736085,3.000000,1627950698000
Raw,2064045111,299292000000,,,-1311985616708232353,0.0,9.4915861853839,,,0,1,0.0,16431,174715928262844,38,27.705018997192383,435.85333866991687,0.19356417247860225,4,126422.35902918281,3.4028234663852886E38,1.57542003E9,,,,0,,1,,1.57542003E9
Raw,2064045112,299292000000,,,-1311985616708232353,0.0,9.4915861853839,,,0,3,0.0,16431,174715925879756,16,35.388328552246094,-331.4543436212007,0.08036468508921712,4,-103597.24170903717,3.4028234663852886E38,1.57542003E9,,,,0,,1,,1.57542003E9
Raw,2064045112,299292000000,,,-1311985616708232353,0.0,9.4915861853839,,,0,6,0.0,16431,174715922599968,74,20.201309204101562,-719.4006315886118,4.200467591118949,4,-214249.08209669736,3.4028234663852886E38,1.57542003E9,,,,0,,1,,1.57542003E9
Raw,2064045112,299292000000,,,-1311985616708232353,0.0,9.4915861853839,,,0,7,0.0,16431,174715918344649,81,18.86126708984375,560.8397734163236,4.203299896509833,4,166275.75546508428,3.4028234663852886E38,1.57542003E9,,,,0,,1,,1.57542003E9
Raw,2064045112,299292000000,,,-1311985616708232353,0.0,9.4915861853839,,,0,14,0.0,16431,174715932864825,8,41.11528015136719,-202.61509165962934,0.043331117190602786,1,-64867.045788233736,7.991010788828135E-4,1.57542003E9,,,,0,,1,,1.57542003E9
Raw,2064045113,299292000000,,,-1311985616708232353,0.0,9.4915861853839,,,0,17,0.0,16431,174715929606206,13,36.774009704589844,-220.16085956616996,0.06934055393330793,1,-67009.55302649498,0.0013172408798709512,1.57542003E9,,,,0,,1,,1.57542003E9
Raw,2064045113,299292000000,,,-1311985616708232353,0.0,9.4915861853839,,,0,19,0.0,16431,174715926659000,7,42.246124267578125,-478.851868066464,0.037207699628998336,1,-144108.3763574958,7.395002758130431E-4,1.57542003E9,,,,0,,1,,1.57542003E9
Raw,2064045113,299292000000,,,-1311985616708232353,0.0,9.4915861853839,,,0,21,0.0,16431,174715918754942,22,32.43510437011719,485.30909619681916,0.11479612899216013,4,143349.9948859045,3.4028234663852886E38,1.57542003E9,,,,0,,1,,1.57542003E9
Raw,2064045113,299292000000,,,-1311985616708232353,0.0,9.4915861853839,,,0,22,0.0,16431,174715924047286,38,27.762481689453125,8.93457751747512,0.19153941162032062,4,-2717.0705814681664,3.4028234663852886E38,1.57542003E9,,,,0,,1,,1.57542003E9
Raw,2064045113,299292000000,,,-1311985616708232353,0.0,9.4915861853839,,,0,24,0.0,16431,174715915616075,12,37.50193786621094,-510.63996178107186,0.06498620807831001,1,-155390.3680835946,0.001211347640492022,1.57542003E9,,,,0,,1,,1.57542003E9
Raw,2064045114,299292000000,,,-1311985616708232353,0.0,9.4915861853839,,,0,30,0.0,16431,174715924222050,166,13.028594970703125,445.4783266393281,4.200759422152926,4,124664.26818119238,3.4028234663852886E38,1.57542003E9,,,,1,,1,,1.57542003E9
Raw,2064045114,299292000000,,,-1311985616708232353,0.0,9.4915861853839,,,0,10,0.0,32995,12697918951116,33,39.379329681396484,-901.7470908488649,0.05350009571454567,1,-101185.64093863891,9.620593045838177E-4,1.59806246E9,,,,0,,3,,1.59806246E9
Raw,2064045114,299292000000,,,-1311985616708232353,0.0,9.4915861853839,,,0,2,0.0,32995,12697920591123,58,30.206825256347656,-184.66372547923902,0.14771200194025336,4,-60089.64131073045,3.4028234663852886E38,1.59975002E9,,,,0,,3,,1.59975002E9
Raw,2064045114,299292000000,,,-1311985616708232353,0.0,9.4915861853839,,,0,18,0.0,32995,12697930587345,57,30.322166442871094,355.6126022887861,0.1440129237634642,4,101162.79265453547,3.4028234663852886E38,1.60031245E9,,,,0,,3,,1.60031245E9
Raw,2064045115,299292000000,,,-1311985616708232353,0.0,9.4915861853839,,,0,9,0.0,32995,12697932068190,33,37.23064041137695,-559.6680526435259,0.06632073262470684,4,-170571.6874528695,3.4028234663852886E38,1.59862502E9,,,,0,,3,,1.59862502E9
Raw,2064045115,299292000000,,,-1311985616708232353,0.0,9.4915861853839,,,0,19,0.0,32995,12697933911249,55,30.659252166748047,-111.93892909604557,0.13920143115062084,4,-36568.11651954619,3.4028234663852886E38,1.60368755E9,,,,0,,3,,1.60368755E9
Raw,2064045115,299292000000,,,-1311985616708232353,0.0,9.4915861853839,,,0,3,0.0,32995,12697920983319,48,31.720239639282227,-607.8811978880631,0.12115765777833898,4,-177244.20612129135,3.4028234663852886E38,1.60481254E9,,,,0,,3,,1.60481254E9
Raw,2064045115,299292000000,,,-1311985616708232353,0.0,9.4915861853839,,,0,193,0.0,35,11550314,60,23.90797233581543,-178.83235349801225,0.2994699309629836,4,-52684.81440119156,3.4028234663852886E38,1.57542003E9,,,,0,,4,,1.57542003E9
Raw,2064045116,299292000000,,,-1311985616708232353,0.0,9.4915861853839,,,0,194,0.0,35,16077816,9,39.831878662109375,-173.17267189151914,0.05044023417626006,1,-52326.408025575416,9.263429092243314E-4,1.57542003E9,,,,0,,4,,1.57542003E9
Raw,2064045116,299292000000,,,-1311985616708232353,0.0,9.4915861853839,,,0,195,0.0,35,8403253,27,30.777841567993164,-101.23212135352969,0.1363569938696954,4,-29541.928383931583,3.4028234663852886E38,1.57542003E9,,,,0,,4,,1.57542003E9
Raw,2064045116,299292000000,,,-1311985616708232353,0.0,9.4915861853839,,,0,7,0.0,16431,174701880258901,18,28.252683639526367,-118.61961885259251,0.18398498853493117,4,-24269.08216310467,3.4028234663852886E38,1.56109798E9,,,,0,,5,,1.56109798E9
Raw,2064045116,299292000000,,,-1311985616708232353,0.0,9.4915861853839,,,0,8,0.0,16431,174701878082922,23,25.887170791625977,-243.62647751107056,0.24004623607329312,1,-49242.14452365625,0.0043893191032111645,1.56109798E9,,,,0,,5,,1.56109798E9
Raw,2064045116,299292000000,,,-1311985616708232353,0.0,9.4915861853839,,,0,10,0.0,16431,174701880583283,9,34.278892517089844,-176.98366993253023,0.09381469083824934,4,-13852.208886524382,3.4028234663852886E38,1.56109798E9,,,,0,,5,,1.56109798E9
Raw,2064045117,299292000000,,,-1311985616708232353,0.0,9.4915861853839,,,0,28,0.0,16431,174701915391193,20,27.1643009185791,346.4117023258882,0.20718379170267376,4,54694.53990221057,3.4028234663852886E38,1.56109798E9,,,,0,,5,,1.56109798E9
Fix,gps,34.486719,109.464175,357.928802,0.610182,3.000000,1627950699000
Raw,2064046126,300292000000,,,-1311985616708232741,0.0,9.611596138543439,,,0,1,0.0,16431,174716928261414,35,28.36910629272461,436.4059516199777,0.17942582758567527,4,126858.71245535243,3.4028234663852886E38,1.57542003E9,,,,0,,1,,1.57542003E9
Raw,2064046127,300292000000,,,-1311985616708232741,0.0,9.611596138543439,,,0,3,0.0,16431,174716925880876,18,34.380001068115234,-330.652451584132,0.0901271953712941,4,-103928.01833258243,3.4028234663852886E38,1.57542003E9,,,,0,,1,,1.57542003E9
Raw,2064046127,300292000000,,,-1311985616708232741,0.0,9.611596138543439,,,0,6,0.0,16431,174716922602321,75,19.975982666015625,-719.8174600318857,4.200468123657332,4,-214968.4665402793,3.4028234663852886E38,1.57542003E9,,,,0,,1,,1.57542003E9
Raw,2064046127,300292000000,,,-1311985616708232741,0.0,9.611596138543439,,,0,7,0.0,16431,174716918342695,74,20.081275939941406,560.7530676469296,4.20329936397145,4,166836.41794523227,3.4028234663852886E38,1.57542003E9,,,,0,,1,,1.57542003E9
Raw,2064046128,300292000000,,,-1311985616708232741,0.0,9.611596138543439,,,0,14,0.0,16431,174716932865501,8,41.282752990722656,-202.47431407296187,0.04254796125176724,1,-65069.57299308384,7.838411838747561E-4,1.57542003E9,,,,0,,1,,1.57542003E9
Raw,2064046128,300292000000,,,-1311985616708232741,0.0,9.611596138543439,,,0,17,0.0,16431,174716929606956,12,37.8629264831543,-220.17009591188764,0.06137416664352002,1,-67229.72737036373,0.0011620356235653162,1.57542003E9,,,,0,,1,,1.57542003E9
Raw,2064046128,300292000000,,,-1311985616708232741,0.0,9.611596138543439,,,0,19,0.0,16431,174716926660612,8,41.29624938964844,-478.7999945676363,0.04136938724251654,1,-144587.16931556788,8.249583770520985E-4,1.57542003E9,,,,0,,1,,1.57542003E9
Raw,2064046128,300292000000,,,-1311985616708232741,0.0,9.611596138543439,,,0,21,0.0,16431,174716918753365,30,29.868688583374023,485.4525833387802,0.15309814507309716,4,143835.40333429514,3.4028234663852886E38,1.57542003E9,,,,0,,1,,1.57542003E9
Raw,2064046129,300292000000,,,-1311985616708232741,0.0,9.611596138543439,,,0,22,0.0,16431,174716924047198,35,28.49115753173828,9.304082469867168,0.1761848988366561,4,-2707.7938106941683,3.4028234663852886E38,1.57542003E9,,,,0,,1,,1.57542003E9
Raw,2064046129,300292000000,,,-1311985616708232741,0.0,9.611596138543439,,,0,24,0.0,16431,174716915617761,11,38.420833587646484,-510.53641927815556,0.05874463772339608,1,-155900.92967574333,0.0010897427564486861,1.57542003E9,,,,0,,1,,1.57542003E9
Raw,2064046129,300292000000,,,-1311985616708232741,0.0,9.611596138543439,,,0,30,0.0,16431,174716924220547,111,13.005474090576172,445.6092714372887,4.200759155883734,4,125109.6870433032,3.4028234663852886E38,1.57542003E9,,,,0,,1,,1.57542003E9
Raw,2064046129,300292000000,,,-1311985616708232741,0.0,9.611596138543439,,,0,10,0.0,32995,12698918954092,33,38.45846939086914,-901.6764719989496,0.05910292788340968,1,-102087.34159275948,0.0010696578538045287,1.59806246E9,,,,0,,3,,1.59806246E9
Raw,2064046130,300292000000,,,-1311985616708232741,0.0,9.611596138543439,,,0,2,0.0,32995,12698920591730,59,30.086788177490234,-184.57274236155138,0.14971611029436271,4,-60274.24031880084,3.4028234663852886E38,1.59975002E9,,,,0,,3,,1.59975002E9
Raw,2064046130,300292000000,,,-1311985616708232741,0.0,9.611596138543439,,,0,18,0.0,32995,12698930586250,86,26.784494400024414,355.49198447515187,0.21545624294681964,4,101518.32844217488,3.4028234663852886E38,1.60031245E9,,,,0,,3,,1.60031245E9
Raw,2064046130,300292000000,,,-1311985616708232741,0.0,9.611596138543439,,,0,9,0.0,32995,12698932069996,33,38.53670883178711,-559.5858457583929,0.057365230176392806,4,-171131.27283886794,3.4028234663852886E38,1.59862502E9,,,,0,,3,,1.59862502E9
Raw,2064046130,300292000000,,,-1311985616708232741,0.0,9.611596138543439,,,0,19,0.0,32995,12698933911690,46,32.1436882019043,-111.85189954331457,0.11772663778926523,4,-36680.015286156864,3.4028234663852886E38,1.60368755E9,,,,0,,3,,1.60368755E9
Raw,2064046131,300292000000,,,-1311985616708232741,0.0,9.611596138543439,,,0,3,0.0,32995,12698920985407,49,31.712337493896484,-607.5549606142267,0.12126815117193429,4,-177851.68538927066,3.4028234663852886E38,1.60481254E9,,,,0,,3,,1.60481254E9
Raw,2064046131,300292000000,,,-1311985616708232741,0.0,9.611596138543439,,,0,193,0.0,35,11550891,61,23.67264747619629,-178.6006950410267,0.30763737229469834,4,-52863.09544106299,3.4028234663852886E38,1.57542003E9,,,,0,,4,,1.57542003E9
Raw,2064046131,300292000000,,,-1311985616708232741,0.0,9.611596138543439,,,0,194,0.0,35,16078405,9,40.023372650146484,-173.07928596064664,0.049403535881106575,1,-52499.5374561376,9.061435703188181E-4,1.57542003E9,,,,0,,4,,1.57542003E9
Raw,2064046132,300292000000,,,-1311985616708232741,0.0,9.611596138543439,,,0,195,0.0,35,8403539,23,32.18647766113281,-101.00739867644654,0.11616961204965065,4,-29642.95808918899,3.4028234663852886E38,1.57542003E9,,,,0,,4,,1.57542003E9
Raw,2064046132,300292000000,,,-1311985616708232741,0.0,9.611596138543439,,,0,7,0.0,16431,174702880259271,18,28.07532501220703,-118.6927427630622,0.1877053016797492,4,-24387.773673555082,3.4028234663852886E38,1.56109798E9,,,,0,,5,,1.56109798E9
Raw,2064046132,300292000000,,,-1311985616708232741,0.0,9.611596138543439,,,0,8,0.0,16431,174702878083697,25,25.262954711914062,-243.6929553425183,0.25769001487342946,1,-49485.8089462348,0.0047163707204163074,1.56109798E9,,,,0,,5,,1.56109798E9
Raw,2064046132,300292000000,,,-1311985616708232741,0.0,9.611596138543439,,,0,10,0.0,16431,174702880583867,8,35.23472595214844,-176.91068235188663,0.08442454137877875,4,-14029.172475880732,3.4028234663852886E38,1.56109798E9,,,,0,,5,,1.56109798E9
Raw,2064046133,300292000000,,,-1311985616708232741,0.0,9.611596138543439,,,0,28,0.0,16431,174702915390053,26,24.992374420166016,345.98563753689655,0.26525645335608916,4,55041.05737003637,3.4028234663852886E38,1.56109798E9,,,,0,,5,,1.56109798E9
Fix,gps,34.486719,109.464175,357.953949,0.520730,3.000000,1627950700000
Raw,2064047138,301292000000,,,-1311985616708233127,0.0,9.531999866952248,,,0,1,0.0,16431,174717928259881,42,26.87598419189453,436.4163808516737,0.21280022440258917,4,127295.14684232239,3.4028234663852886E38,1.57542003E9,,,,0,,1,,1.57542003E9
Raw,2064047139,301292000000,,,-1311985616708233127,0.0,9.531999866952248,,,0,3,0.0,16431,174717925881998,23,32.08662796020508,-330.6056904537827,0.11704172686121211,4,-104258.64351165791,3.4028234663852886E38,1.57542003E9,,,,0,,1,,1.57542003E9
Raw,2064047139,301292000000,,,-1311985616708233127,0.0,9.531999866952248,,,0,6,0.0,16431,174717922604677,87,17.509910583496094,-719.7739026524496,4.200468656195715,4,-215687.729740686,3.4028234663852886E38,1.57542003E9,,,,0,,1,,1.57542003E9
Raw,2064047140,301292000000,,,-1311985616708233127,0.0,9.531999866952248,,,0,7,0.0,16431,174717918340897,65,21.920494079589844,560.7138728219284,4.203299097702258,4,167397.12291001267,3.4028234663852886E38,1.57542003E9,,,,0,,1,,1.57542003E9
Raw,2064047140,301292000000,,,-1311985616708233127,0.0,9.531999866952248,,,0,14,0.0,16431,174717932866187,7,41.52812194824219,-202.35608203128425,0.0414274214449136,1,-65271.9568763524,7.620083051733673E-4,1.57542003E9,,,,0,,1,,1.57542003E9
Raw,2064047140,301292000000,,,-1311985616708233127,0.0,9.531999866952248,,,0,17,0.0,16431,174717929607667,11,38.08518981933594,-220.08359463723275,0.05986736593016806,1,-67449.81463043689,0.0011326775420457125,1.57542003E9,,,,0,,1,,1.57542003E9
Raw,2064047141,301292000000,,,-1311985616708233127,0.0,9.531999866952248,,,0,19,0.0,16431,174717926662155,11,37.92216491699219,-478.68067188734994,0.06043903340313153,1,-145065.88425532848,0.001154137309640646,1.57542003E9,,,,0,,1,,1.57542003E9
Raw,2064047141,301292000000,,,-1311985616708233127,0.0,9.531999866952248,,,0,21,0.0,16431,174717918751687,25,31.339797973632812,485.3264782496458,0.12977048425845217,4,144320.75297761147,3.4028234663852886E38,1.57542003E9,,,,0,,1,,1.57542003E9
Raw,2064047142,301292000000,,,-1311985616708233127,0.0,9.531999866952248,,,0,22,0.0,16431,174717924047154,28,30.526222229003906,9.39599646464859,0.13953688040654383,4,-2698.4134097993256,3.4028234663852886E38,1.57542003E9,,,,0,,1,,1.57542003E9
Raw,2064047142,301292000000,,,-1311985616708233127,0.0,9.531999866952248,,,0,24,0.0,16431,174717915619474,19,33.73808670043945,-510.4083033240863,0.09871074888215747,1,-156411.39121809704,0.0018683637026697397,1.57542003E9,,,,0,,1,,1.57542003E9
Raw,2064047143,301292000000,,,-1311985616708233127,0.0,9.531999866952248,,,0,30,0.0,16430,174717924219107,1000000000,12.145254135131836,445.30883458304015,2.99792458E8,4,125555.04675031855,3.4028234663852886E38,1.57542003E9,,,,1,,1,,1.57542003E9
Raw,2064047144,301292000000,,,-1311985616708233127,0.0,9.531999866952248,,,0,10,0.0,32995,12699918957062,166,33.77419662475586,-901.702374665907,0.09891323828144521,1,-102989.04393427903,0.0017293472774326801,1.59806246E9,,,,1,,3,,1.59806246E9
Raw,2064047144,301292000000,,,-1311985616708233127,0.0,9.531999866952248,,,0,2,0.0,32995,12699920592346,55,30.626676559448242,-184.38782799368687,0.14091684545466698,4,-60458.65787246142,3.4028234663852886E38,1.59975002E9,,,,0,,3,,1.59975002E9
Raw,2064047144,301292000000,,,-1311985616708233127,0.0,9.531999866952248,,,0,18,0.0,32995,12699930585035,93,26.091724395751953,355.6078307448729,0.2331861931140825,4,101873.91786815746,3.4028234663852886E38,1.60031245E9,,,,0,,3,,1.60031245E9
Raw,2064047145,301292000000,,,-1311985616708233127,0.0,9.531999866952248,,,0,9,0.0,32995,12699932071903,33,41.687591552734375,-559.320002597515,0.04057299273231191,4,-171690.66097592548,3.4028234663852886E38,1.59862502E9,,,,0,,3,,1.59862502E9
Raw,2064047145,301292000000,,,-1311985616708233127,0.0,9.531999866952248,,,0,19,0.0,32995,12699933912040,51,31.249483108520508,-111.68170879666792,0.13022105333517425,4,-36791.78283887506,3.4028234663852886E38,1.60368755E9,,,,0,,3,,1.60368755E9
Raw,2064047146,301292000000,,,-1311985616708233127,0.0,9.531999866952248,,,0,3,0.0,32995,12699920987370,58,30.139156341552734,-607.4351266970925,0.1453120844328537,4,-178459.11878069487,3.4028234663852886E38,1.60481254E9,,,,0,,3,,1.60481254E9
Raw,2064047146,301292000000,,,-1311985616708233127,0.0,9.531999866952248,,,0,193,0.0,35,11551483,55,24.609573364257812,-178.21513725161242,0.27639291266674193,4,-53041.33011479561,3.4028234663852886E38,1.57542003E9,,,,0,,4,,1.57542003E9
Raw,2064047146,301292000000,,,-1311985616708233127,0.0,9.531999866952248,,,0,194,0.0,35,16078993,8,41.30659103393555,-173.07178782021163,0.04301571717271488,1,-52672.61083714537,7.816929137334228E-4,1.57542003E9,,,,0,,4,,1.57542003E9
Raw,2064047147,301292000000,,,-1311985616708233127,0.0,9.531999866952248,,,0,195,0.0,35,8403868,30,29.825830459594727,-101.03177615347448,0.15197711849287765,4,-29743.982569740154,3.4028234663852886E38,1.57542003E9,,,,0,,4,,1.57542003E9
Raw,2064047147,301292000000,,,-1311985616708233127,0.0,9.531999866952248,,,0,7,0.0,16431,174703880259672,14,30.299184799194336,-118.56063916157979,0.14612923129817745,4,-24506.378825484495,3.4028234663852886E38,1.56109798E9,,,,0,,5,,1.56109798E9
Raw,2064047148,301292000000,,,-1311985616708233127,0.0,9.531999866952248,,,0,8,0.0,16431,174703878084533,20,27.43893051147461,-243.5190836905672,0.20130613228398953,1,-49729.35425124165,0.0036712083965539932,1.56109798E9,,,,0,,5,,1.56109798E9
Raw,2064047148,301292000000,,,-1311985616708233127,0.0,9.531999866952248,,,0,10,0.0,16431,174703880584439,7,36.48600769042969,-176.9095065071366,0.0735947409677089,4,-14206.084405820478,3.4028234663852886E38,1.56109798E9,,,,0,,5,,1.56109798E9
Raw,2064047148,301292000000,,,-1311985616708233127,0.0,9.531999866952248,,,0,28,0.0,16431,174703915388925,17,28.392995834350586,346.02974023563706,0.18021916000017668,4,55387.08450642499,3.4028234663852886E38,1.56109798E9,,,,0,,5,,1.56109798E9
Fix,gps,34.486719,109.464174,357.982117,0.453039,3.000000,1627950701000
Raw,2064048118,302292000000,,,-1311985616708233512,0.0,9.3807036467384,,,0,1,0.0,16431,174718928258466,39,27.64171600341797,436.565491598961,0.19496837634407183,4,127731.70330106997,3.4028234663852886E38,1.57542003E9,,,,0,,1,,1.57542003E9
Raw,2064048118,302292000000,,,-1311985616708233512,0.0,9.3807036467384,,,0,3,0.0,16431,174718925883085,26,30.978391647338867,-330.5402862197154,0.13282586498549814,4,-104589.1325566457,3.4028234663852886E38,1.57542003E9,,,,0,,1,,1.57542003E9
Raw,2064048118,302292000000,,,-1311985616708233512,0.0,9.3807036467384,,,0,6,0.0,16431,174718922607097,88,17.412683486938477,-719.8222315757989,4.200468922464907,4,-216406.8734095543,3.4028234663852886E38,1.57542003E9,,,,0,,1,,1.57542003E9
Raw,2064048119,302292000000,,,-1311985616708233512,0.0,9.3807036467384,,,0,7,0.0,16431,174718918338977,64,22.094741821289062,560.4501768558114,4.203298831433067,4,167957.73057175303,3.4028234663852886E38,1.57542003E9,,,,0,,1,,1.57542003E9
Raw,2064048119,302292000000,,,-1311985616708233512,0.0,9.3807036467384,,,0,14,0.0,16431,174718932866845,7,41.61184310913086,-202.24630243882427,0.041052343844461825,1,-65474.23091987145,7.955222390592098E-4,1.57542003E9,,,,0,,1,,1.57542003E9
Raw,2064048119,302292000000,,,-1311985616708233512,0.0,9.3807036467384,,,0,17,0.0,16431,174718929608421,11,38.41279602050781,-220.08236766879793,0.057715486495641566,1,-67669.82861235387,0.001090751844458282,1.57542003E9,,,,0,,1,,1.57542003E9
Raw,2064048119,302292000000,,,-1311985616708233512,0.0,9.3807036467384,,,0,19,0.0,16431,174718926663770,6,43.61003875732422,-478.6166309515436,0.03197566395124016,1,-145544.56393493997,6.320370594039559E-4,1.57542003E9,,,,0,,1,,1.57542003E9
Raw,2064048120,302292000000,,,-1311985616708233512,0.0,9.3807036467384,,,0,21,0.0,16431,174718918750074,21,32.957786560058594,485.45479869845417,0.1082880106951018,4,144806.23338697405,3.4028234663852886E38,1.57542003E9,,,,0,,1,,1.57542003E9
Raw,2064048120,302292000000,,,-1311985616708233512,0.0,9.3807036467384,,,0,22,0.0,16431,174718924047111,31,29.491106033325195,9.588549563081273,0.1571050637190069,4,-2688.8661118622467,3.4028234663852886E38,1.57542003E9,,,,0,,1,,1.57542003E9
Raw,2064048120,302292000000,,,-1311985616708233512,0.0,9.3807036467384,,,0,24,0.0,16431,174718915621157,13,36.90001678466797,-510.23172211684164,0.06944871331102076,1,-156921.6841661871,0.0012982694897800684,1.57542003E9,,,,0,,1,,1.57542003E9
Raw,2064048121,302292000000,,,-1311985616708233512,0.0,9.3807036467384,,,0,30,0.0,16430,174718924217646,1000000000,11.285026550292969,444.81726331261166,2.99792458E8,4,126000.3528613785,3.4028234663852886E38,1.57542003E9,,,,1,,1,,1.57542003E9
Raw,2064048121,302292000000,,,-1311985616708233512,0.0,9.3807036467384,,,0,10,0.0,32995,12700918960130,33,35.17068862915039,-901.4834971301175,0.08472982732784257,4,-103889.00612777368,3.4028234663852886E38,1.59806246E9,,,,0,,3,,1.59806246E9
Raw,2064048121,302292000000,,,-1311985616708233512,0.0,9.3807036467384,,,0,2,0.0,32995,12700920592946,50,31.4742374420166,-184.15189218840771,0.1281603627778532,1,-60642.86225181179,0.0022512401919811964,1.59975002E9,,,,0,,3,,1.59975002E9
Raw,2064048122,302292000000,,,-1311985616708233512,0.0,9.3807036467384,,,0,18,0.0,32995,12700930583822,75,27.9700870513916,355.921014437861,0.18820858373549276,4,102229.69648546315,3.4028234663852886E38,1.60031245E9,,,,0,,3,,1.60031245E9
Raw,2064048122,302292000000,,,-1311985616708233512,0.0,9.3807036467384,,,0,9,0.0,32995,12700932073763,33,37.5181884765625,-559.1210973812479,0.06423279524026568,4,-172249.9058880309,3.4028234663852886E38,1.59862502E9,,,,0,,3,,1.59862502E9
Raw,2064048122,302292000000,,,-1311985616708233512,0.0,9.3807036467384,,,0,19,0.0,32995,12700933912376,56,30.40874671936035,-111.64821426252013,0.14320148504393504,4,-36903.45569570579,3.4028234663852886E38,1.60368755E9,,,,0,,3,,1.60368755E9
Raw,2064048122,302292000000,,,-1311985616708233512,0.0,9.3807036467384,,,0,3,0.0,32995,12700920989385,69,28.672988891601562,-607.3466486399593,0.1720000125198211,4,-179066.4823769095,3.4028234663852886E38,1.60481254E9,,,,0,,3,,1.60481254E9
Raw,2064048123,302292000000,,,-1311985616708233512,0.0,9.3807036467384,,,0,193,0.0,35,11552131,65,21.800243377685547,-177.5256832386125,4.202077987189652,4,-53219.7038822601,3.4028234663852886E38,1.57542003E9,,,,0,,4,,1.57542003E9
Raw,2064048123,302292000000,,,-1311985616708233512,0.0,9.3807036467384,,,0,194,0.0,35,16079568,10,38.765079498291016,-173.14145236134425,0.056654187423459346,1,-52845.694637861605,0.0010473979637026787,1.57542003E9,,,,0,,4,,1.57542003E9
Raw,2064048123,302292000000,,,-1311985616708233512,0.0,9.3807036467384,,,0,195,0.0,35,8404248,28,30.419954299926758,-101.01124147341949,0.1420292848534579,4,-29844.994753301922,3.4028234663852886E38,1.57542003E9,,,,0,,4,,1.57542003E9
Raw,2064048124,302292000000,,,-1311985616708233512,0.0,9.3807036467384,,,0,7,0.0,16431,174704880260077,16,29.069366455078125,-118.61347548980427,0.16780156311603978,4,-24624.961174967404,3.4028234663852886E38,1.56109798E9,,,,0,,5,,1.56109798E9
Raw,2064048124,302292000000,,,-1311985616708233512,0.0,9.3807036467384,,,0,8,0.0,16431,174704878085348,26,25.062870025634766,-243.603233275722,0.2636194470080524,1,-49972.877476519665,0.0048262751661241055,1.56109798E9,,,,0,,5,,1.56109798E9
Raw,2064048125,302292000000,,,-1311985616708233512,0.0,9.3807036467384,,,0,10,0.0,16431,174704880585028,7,35.456092834472656,-176.9322054231808,0.08239348991084594,4,-14382.977088946534,3.4028234663852886E38,1.56109798E9,,,,0,,5,,1.56109798E9
Raw,2064048125,302292000000,,,-1311985616708233512,0.0,9.3807036467384,,,0,28,0.0,16431,174704915387738,18,27.972999572753906,346.3296317705813,0.18901022042040672,4,55733.19890207514,3.4028234663852886E38,1.56109798E9,,,,0,,5,,1.56109798E9
Fix,gps,34.486719,109.464174,357.960205,0.566082,3.000000,1627950702000
Raw,2064049171,303292000000,,,-1311985616708233896,0.0,9.253329412111578,,,0,1,0.0,16431,174719928257028,34,28.715221405029297,436.286083620387,0.17247388847171907,4,128168.34075185898,3.4028234663852886E38,1.57542003E9,,,,0,,1,,1.57542003E9
Raw,2064049171,303292000000,,,-1311985616708233896,0.0,9.253329412111578,,,0,3,0.0,16431,174719925884161,26,30.987363815307617,-329.9076135792825,0.1326900094514044,4,-104919.30751796612,3.4028234663852886E38,1.57542003E9,,,,0,,1,,1.57542003E9
Raw,2064049172,303292000000,,,-1311985616708233896,0.0,9.253329412111578,,,0,6,0.0,16431,174719922609502,85,17.98172378540039,-719.7394112064485,4.20046945500329,4,-217126.01371647493,3.4028234663852886E38,1.57542003E9,,,,0,,1,,1.57542003E9
Raw,2064049172,303292000000,,,-1311985616708233896,0.0,9.253329412111578,,,0,7,0.0,16431,174719918337112,77,19.55771255493164,560.7657122382996,4.203298298894683,4,168518.43843626056,3.4028234663852886E38,1.57542003E9,,,,0,,1,,1.57542003E9
Raw,2064049172,303292000000,,,-1311985616708233896,0.0,9.253329412111578,,,0,14,0.0,16431,174719932867502,11,38.37803649902344,-202.6631479233265,0.058526222098086694,1,-65676.448328868,0.00109512556809932,1.57542003E9,,,,0,,1,,1.57542003E9
Raw,2064049172,303292000000,,,-1311985616708233896,0.0,9.253329412111578,,,0,17,0.0,16431,174719929609138,6,42.65083312988281,-220.41881263836285,0.036099025442994676,1,-67889.95070676779,7.058343617245555E-4,1.57542003E9,,,,0,,1,,1.57542003E9
Raw,2064049173,303292000000,,,-1311985616708233896,0.0,9.253329412111578,,,0,19,0.0,16431,174719926665374,6,46.231910705566406,-479.05660138279654,0.031198935917107706,1,-146023.39533431997,4.6735728392377496E-4,1.57542003E9,,,,0,,1,,1.57542003E9
Raw,2064049173,303292000000,,,-1311985616708233896,0.0,9.253329412111578,,,0,21,0.0,16431,174719918748464,23,32.24822235107422,485.4826781478898,0.1172182383724959,1,145291.7621695941,0.0020911169704049826,1.57542003E9,,,,0,,1,,1.57542003E9
Raw,2064049173,303292000000,,,-1311985616708233896,0.0,9.253329412111578,,,0,22,0.0,16431,174719924047160,40,27.321834564208984,9.530468796859338,0.20146925544748395,4,-2679.0042011712408,3.4028234663852886E38,1.57542003E9,,,,0,,1,,1.57542003E9
Raw,2064049174,303292000000,,,-1311985616708233896,0.0,9.253329412111578,,,0,24,0.0,16431,174719915622857,10,39.31892776489258,-510.5688657767653,0.053250963441713345,1,-157432.11742369787,9.826961904764175E-4,1.57542003E9,,,,0,,1,,1.57542003E9
Raw,2064049174,303292000000,,,-1311985616708233896,0.0,9.253329412111578,,,0,30,0.0,16430,174719924216124,1000000000,10.424795150756836,445.8042230885992,2.99792458E8,4,126447.68886277125,3.4028234663852886E38,1.57542003E9,,,,0,,1,,1.57542003E9
Raw,2064049174,303292000000,,,-1311985616708233896,0.0,9.253329412111578,,,0,10,0.0,32995,12701918963104,33,37.81654357910156,-901.8116430215191,0.06337646103876171,4,-104790.76417913333,3.4028234663852886E38,1.59806246E9,,,,0,,3,,1.59806246E9
Raw,2064049175,303292000000,,,-1311985616708233896,0.0,9.253329412111578,,,0,2,0.0,32995,12701920593542,53,30.965890884399414,-183.60219328837957,0.1356616984431705,1,-60826.83157096838,0.0023869271390140057,1.59975002E9,,,,0,,3,,1.59975002E9
Raw,2064049175,303292000000,,,-1311985616708233896,0.0,9.253329412111578,,,0,18,0.0,32995,12701930582582,80,27.410518646240234,355.87087914431595,0.2006056612500532,4,102585.48567453922,3.4028234663852886E38,1.60031245E9,,,,0,,3,,1.60031245E9
Raw,2064049175,303292000000,,,-1311985616708233896,0.0,9.253329412111578,,,0,9,0.0,32995,12701932075639,33,36.735233306884766,-559.4030615440611,0.07008726843700147,4,-172809.35854136728,3.4028234663852886E38,1.59862502E9,,,,0,,3,,1.59862502E9
Raw,2064049175,303292000000,,,-1311985616708233896,0.0,9.253329412111578,,,0,19,0.0,32995,12701933912793,75,27.954973220825195,-111.39468338906107,0.18913182223183844,4,-37015.167529750266,3.4028234663852886E38,1.60368755E9,,,,0,,3,,1.60368755E9
Raw,2064049176,303292000000,,,-1311985616708233896,0.0,9.253329412111578,,,0,3,0.0,32995,12701920991423,59,30.020917892456055,-607.1849614662151,0.14730198066886224,4,-179673.51640282487,3.4028234663852886E38,1.60481254E9,,,,0,,3,,1.60481254E9
Raw,2064049176,303292000000,,,-1311985616708233896,0.0,9.253329412111578,,,0,193,0.0,35,11552639,75,19.87706184387207,-177.77738218003344,4.202077987189652,4,-53397.669694490825,3.4028234663852886E38,1.57542003E9,,,,0,,4,,1.57542003E9
Raw,2064049176,303292000000,,,-1311985616708233896,0.0,9.253329412111578,,,0,194,0.0,35,16080140,14,36.2357292175293,-173.31786315630632,0.0748277171011652,1,-53018.58968671752,0.0014014554908499122,1.57542003E9,,,,0,,4,,1.57542003E9
Raw,2064049177,303292000000,,,-1311985616708233896,0.0,9.253329412111578,,,0,195,0.0,35,8404610,33,28.927452087402344,-101.18496827493038,0.16837312657760029,4,-29946.004756889797,3.4028234663852886E38,1.57542003E9,,,,0,,4,,1.57542003E9
Raw,2064049177,303292000000,,,-1311985616708233896,0.0,9.253329412111578,,,0,7,0.0,16431,174705880260458,18,28.052749633789062,-118.64161055766385,0.18818451965730332,1,-24743.4579908728,0.003420725231990218,1.56109798E9,,,,0,,5,,1.56109798E9
Raw,2064049177,303292000000,,,-1311985616708233896,0.0,9.253329412111578,,,0,8,0.0,16431,174705878086141,22,26.321998596191406,-243.71492148574725,0.22848441172908418,1,-50216.33344057876,0.00417499290779233,1.56109798E9,,,,0,,5,,1.56109798E9
Raw,2064049177,303292000000,,,-1311985616708233896,0.0,9.253329412111578,,,0,10,0.0,16431,174705880585623,10,33.08397674560547,-177.4260261357398,0.10710500996054101,1,-14559.865494586,0.0019167115679010749,1.56109798E9,,,,0,,5,,1.56109798E9
Raw,2064049178,303292000000,,,-1311985616708233896,0.0,9.253329412111578,,,0,28,0.0,16431,174705915386582,23,26.16884422302246,346.60304123680726,0.23200547230947466,4,56079.450199367624,3.4028234663852886E38,1.56109798E9,,,,0,,5,,1.56109798E9
Fix,gps,34.486719,109.464173,357.943817,0.559552,3.000000,1627950703000
Raw,2064050205,304292000000,,,-1311985616708234280,0.0,9.221664592359817,,,0,1,0.0,16431,174720928255508,49,25.540966033935547,437.02338940234495,0.2479073180582655,4,128605.25086876823,3.4028234663852886E38,1.57542003E9,,,,0,,1,,1.57542003E9
Raw,2064050205,304292000000,,,-1311985616708234280,0.0,9.221664592359817,,,0,3,0.0,16431,174720925885276,27,30.79009437561035,-329.8487531768676,0.13571397041384342,1,-105249.08966392405,0.0024733450263738632,1.57542003E9,,,,0,,1,,1.57542003E9
Raw,2064050206,304292000000,,,-1311985616708234280,0.0,9.221664592359817,,,0,6,0.0,16431,174720922611918,85,18.04364776611328,-719.5790873309652,4.200469721272482,4,-217845.40058520206,3.4028234663852886E38,1.57542003E9,,,,0,,1,,1.57542003E9
Raw,2064050206,304292000000,,,-1311985616708234280,0.0,9.221664592359817,,,0,7,0.0,16431,174720918335246,61,22.7567081451416,560.3049174261112,4.203298032625492,4,169079.07098277754,3.4028234663852886E38,1.57542003E9,,,,0,,1,,1.57542003E9
Raw,2064050206,304292000000,,,-1311985616708234280,0.0,9.221664592359817,,,0,14,0.0,16431,174720932868172,11,38.60978317260742,-201.89833759895464,0.05704640610311937,1,-65878.47346708272,0.001066292985342443,1.57542003E9,,,,0,,1,,1.57542003E9
Raw,2064050207,304292000000,,,-1311985616708234280,0.0,9.221664592359817,,,0,17,0.0,16431,174720929609903,9,40.298851013183594,-220.0196389075677,0.046788027698102,1,-68110.06162716646,9.253410389646888E-4,1.57542003E9,,,,0,,1,,1.57542003E9
Raw,2064050207,304292000000,,,-1311985616708234280,0.0,9.221664592359817,,,0,19,0.0,16431,174720926666976,6,46.61814880371094,-478.9143071268138,0.031199225068807943,1,-146502.38377737292,4.4703049934469163E-4,1.57542003E9,,,,0,,1,,1.57542003E9
Raw,2064050208,304292000000,,,-1311985616708234280,0.0,9.221664592359817,,,0,21,0.0,16431,174720918746817,28,30.308866500854492,486.62048687644733,0.14569835782072038,4,145777.57575886088,3.4028234663852886E38,1.57542003E9,,,,0,,1,,1.57542003E9
Raw,2064050208,304292000000,,,-1311985616708234280,0.0,9.221664592359817,,,0,22,0.0,16431,174720924047089,43,26.62864875793457,9.781626679282994,0.21814621081297714,4,-2668.86228981626,3.4028234663852886E38,1.57542003E9,,,,0,,1,,1.57542003E9
Raw,2064050208,304292000000,,,-1311985616708234280,0.0,9.221664592359817,,,0,24,0.0,16431,174720915624571,9,40.110565185546875,-510.3192117827357,0.04885735536232508,1,-157942.5534523058,8.970930939540267E-4,1.57542003E9,,,,0,,1,,1.57542003E9
Raw,2064050209,304292000000,,,-1311985616708234280,0.0,9.221664592359817,,,0,30,0.0,16430,174720924214638,1000000000,9.805688858032227,445.56523690346125,2.99792458E8,4,126891.85237790184,3.4028234663852886E38,1.57542003E9,,,,0,,1,,1.57542003E9
Raw,2064050209,304292000000,,,-1311985616708234280,0.0,9.221664592359817,,,0,10,0.0,32995,12702918966131,33,36.32322311401367,-901.672518433993,0.07462583512847076,4,-105692.51134682141,3.4028234663852886E38,1.59806246E9,,,,0,,3,,1.59806246E9
Raw,2064050209,304292000000,,,-1311985616708234280,0.0,9.221664592359817,,,0,2,0.0,32995,12702920594097,50,31.368186950683594,-183.48668784322376,0.1296894302523514,4,-61010.36401142442,3.4028234663852886E38,1.59975002E9,,,,0,,3,,1.59975002E9
Raw,2064050210,304292000000,,,-1311985616708234280,0.0,9.221664592359817,,,0,18,0.0,32995,12702930581523,73,28.21454620361328,356.06947761847437,0.18303780245316736,4,102941.34592505213,3.4028234663852886E38,1.60031245E9,,,,0,,3,,1.60031245E9
Raw,2064050210,304292000000,,,-1311985616708234280,0.0,9.221664592359817,,,0,9,0.0,32995,12702932077529,33,35.136077880859375,-559.3524490961247,0.08381649071705893,4,-173368.52338160275,3.4028234663852886E38,1.59862502E9,,,,0,,3,,1.59862502E9
Raw,2064050210,304292000000,,,-1311985616708234280,0.0,9.221664592359817,,,0,19,0.0,32995,12702933913092,76,27.846864700317383,-111.79354185713339,0.1914692663301626,4,-37126.92655895668,3.4028234663852886E38,1.60368755E9,,,,0,,3,,1.60368755E9
Raw,2064050211,304292000000,,,-1311985616708234280,0.0,9.221664592359817,,,0,3,0.0,32995,12702920993452,51,31.269187927246094,-606.3124505792312,0.12760792077261335,4,-180280.22741168336,3.4028234663852886E38,1.60481254E9,,,,0,,3,,1.60481254E9
Raw,2064050211,304292000000,,,-1311985616708234280,0.0,9.221664592359817,,,0,193,0.0,35,11553244,67,21.58234214782715,-177.5870998252666,4.2020782534588434,4,-53575.55639018847,3.4028234663852886E38,1.57542003E9,,,,0,,4,,1.57542003E9
Raw,2064050211,304292000000,,,-1311985616708234280,0.0,9.221664592359817,,,0,194,0.0,35,16080708,12,37.858768463134766,-172.84203798079136,0.06256718575641418,1,-53191.33926564481,0.001162592088803649,1.57542003E9,,,,0,,4,,1.57542003E9
Raw,2064050212,304292000000,,,-1311985616708234280,0.0,9.221664592359817,,,0,195,0.0,35,8404914,39,27.52601432800293,-100.93245987516701,0.19758929728048658,4,-30046.648394038246,3.4028234663852886E38,1.57542003E9,,,,0,,4,,1.57542003E9
Raw,2064050212,304292000000,,,-1311985616708234280,0.0,9.221664592359817,,,0,7,0.0,16431,174706880260871,17,28.68705177307129,-118.26015118364643,0.17518853616357155,1,-24861.864803323188,0.0031798232812434435,1.56109798E9,,,,0,,5,,1.56109798E9
Raw,2064050212,304292000000,,,-1311985616708234280,0.0,9.221664592359817,,,0,8,0.0,16431,174706878086942,24,25.64847755432129,-243.92916380744964,0.24664438664075594,4,-50459.780638533826,3.4028234663852886E38,1.56109798E9,,,,0,,5,,1.56109798E9
Raw,2064050213,304292000000,,,-1311985616708234280,0.0,9.221664592359817,,,0,10,0.0,16431,174706880586212,12,31.513029098510742,-177.24155483981008,0.1276045591240696,4,-14736.70557110019,3.4028234663852886E38,1.56109798E9,,,,0,,5,,1.56109798E9
Raw,2064050213,304292000000,,,-1311985616708234280,0.0,9.221664592359817,,,0,28,0.0,16431,174706915385432,16,29.06905746459961,346.3925479853224,0.16693056330671807,4,56425.97001634713,3.4028234663852886E38,1.56109798E9,,,,0,,5,,1.56109798E9
Raw,2064051048,305292000000,,,-1311985616708234666,0.0,9.481455129054341,,,0,1,0.0,16431,174721928254011,55,24.534269332885742,437.18909830595885,0.27818834918377144,4,129043.01797052215,3.4028234663852886E38,1.57542003E9,,,,0,,1,,1.57542003E9
Raw,2064051049,305292000000,,,-1311985616708234666,0.0,9.481455129054341,,,0,3,0.0,16431,174721925886349,26,31.051280975341797,-329.32422417098155,0.13172531617029393,4,-105578.55910683467,3.4028234663852886E38,1.57542003E9,,,,0,,1,,1.57542003E9
Raw,2064051049,305292000000,,,-1311985616708234666,0.0,9.481455129054341,,,0,6,0.0,16431,174721922614326,100,15.080554962158203,-719.5000841967453,4.200470253810865,4,-218564.63670171943,3.4028234663852886E38,1.57542003E9,,,,0,,1,,1.57542003E9
Raw,2064051049,305292000000,,,-1311985616708234666,0.0,9.481455129054341,,,0,7,0.0,16431,174721918333334,71,20.762901306152344,560.6706221846009,4.2032977663563,4,169639.56842591715,3.4028234663852886E38,1.57542003E9,,,,0,,1,,1.57542003E9
Raw,2064051050,305292000000,,,-1311985616708234666,0.0,9.481455129054341,,,0,14,0.0,16431,174721932868868,12,37.88189697265625,-201.48420166974597,0.061830764221157825,1,-66080.35168321713,0.001159500447101891,1.57542003E9,,,,0,,1,,1.57542003E9
Raw,2064051050,305292000000,,,-1311985616708234666,0.0,9.481455129054341,,,0,17,0.0,16431,174721929610621,7,42.256500244140625,-220.16982325223546,0.03769565040394521,1,-68330.23962794327,7.007140084169805E-4,1.57542003E9,,,,0,,1,,1.57542003E9
Raw,2064051050,305292000000,,,-1311985616708234666,0.0,9.481455129054341,,,0,19,0.0,16431,174721926668584,6,46.40597152709961,-479.2134488477145,0.03119951422050818,1,-146981.52263427532,4.5808471622876823E-4,1.57542003E9,,,,0,,1,,1.57542003E9
Raw,2064051050,305292000000,,,-1311985616708234666,0.0,9.481455129054341,,,0,21,0.0,16431,174721918745191,34,28.755970001220703,486.06824883340823,0.17356018356426128,4,146263.51095426854,3.4028234663852886E38,1.57542003E9,,,,0,,1,,1.57542003E9
Raw,2064051051,305292000000,,,-1311985616708234666,0.0,9.481455129054341,,,0,22,0.0,16431,174721924047081,48,25.79775619506836,10.897128440046316,0.23997168069964947,4,-2658.366806614004,3.4028234663852886E38,1.57542003E9,,,,0,,1,,1.57542003E9
Raw,2064051051,305292000000,,,-1311985616708234666,0.0,9.481455129054341,,,0,24,0.0,16431,174721915626268,8,40.84620666503906,-510.4438172437831,0.045118349288166604,1,-158453.0487690398,8.242434705607593E-4,1.57542003E9,,,,0,,1,,1.57542003E9
Raw,2064051051,305292000000,,,-1311985616708234666,0.0,9.481455129054341,,,0,30,0.0,16431,174721924213131,166,11.75499153137207,445.7470327265539,4.200757824537776,4,127337.09396835353,3.4028234663852886E38,1.57542003E9,,,,1,,1,,1.57542003E9
Raw,2064051052,305292000000,,,-1311985616708234666,0.0,9.481455129054341,,,0,10,0.0,32995,12703918969141,33,36.9239501953125,-901.8318880006937,0.06986756307029535,4,-106594.36335256087,3.4028234663852886E38,1.59806246E9,,,,0,,3,,1.59806246E9
Raw,2064051052,305292000000,,,-1311985616708234666,0.0,9.481455129054341,,,0,2,0.0,32995,12703920594809,63,29.469135284423828,-183.18519443282298,0.16047762929961562,4,-61194.67853567112,3.4028234663852886E38,1.59975002E9,,,,0,,3,,1.59975002E9
Raw,2064051052,305292000000,,,-1311985616708234666,0.0,9.481455129054341,,,0,18,0.0,32995,12703930580330,83,27.076990127563477,355.9323298134266,0.20838358403812884,4,103297.33548377911,3.4028234663852886E38,1.60031245E9,,,,0,,3,,1.60031245E9
Raw,2064051053,305292000000,,,-1311985616708234666,0.0,9.481455129054341,,,0,9,0.0,32995,12703932079291,33,37.939552307128906,-558.8446545763913,0.06129499732404095,4,-173927.6764675783,3.4028234663852886E38,1.59862502E9,,,,0,,3,,1.59862502E9
Raw,2064051053,305292000000,,,-1311985616708234666,0.0,9.481455129054341,,,0,19,0.0,32995,12703933913527,72,28.31097412109375,-111.7089832825003,0.18163739292367787,4,-37238.6070860125,3.4028234663852886E38,1.60368755E9,,,,0,,3,,1.60368755E9
Raw,2064051054,305292000000,,,-1311985616708234666,0.0,9.481455129054341,,,0,3,0.0,32995,12703920995542,43,32.80093002319336,-605.8109613139545,0.1070062740159366,4,-180886.52474772776,3.4028234663852886E38,1.60481254E9,,,,0,,3,,1.60481254E9
Raw,2064051054,305292000000,,,-1311985616708234666,0.0,9.481455129054341,,,0,193,0.0,35,11553902,46,26.184295654296875,-178.146529266632,0.2309086263002159,4,-53753.217224504515,3.4028234663852886E38,1.57542003E9,,,,0,,4,,1.57542003E9
Raw,2064051054,305292000000,,,-1311985616708234666,0.0,9.481455129054341,,,0,194,0.0,35,16081281,20,33.412349700927734,-172.98349721658929,0.10245859592556777,1,-53363.96782344416,0.0019397612195461988,1.57542003E9,,,,0,,4,,1.57542003E9
Raw,2064051055,305292000000,,,-1311985616708234666,0.0,9.481455129054341,,,0,195,0.0,35,8405333,56,24.501304626464844,-100.55827710561721,0.27926772127733246,4,-30147.057667061534,3.4028234663852886E38,1.57542003E9,,,,0,,4,,1.57542003E9
Raw,2064051055,305292000000,,,-1311985616708234666,0.0,9.481455129054341,,,0,7,0.0,16431,174707880261247,18,28.324960708618164,-118.13308326511526,0.18249096874277526,4,-24980.107492420826,3.4028234663852886E38,1.56109798E9,,,,0,,5,,1.56109798E9
Raw,2064051055,305292000000,,,-1311985616708234666,0.0,9.481455129054341,,,0,8,0.0,16431,174707878087727,31,23.62209701538086,-243.62320559524437,0.31059672137361694,4,-50703.48122040796,3.4028234663852886E38,1.56109798E9,,,,0,,5,,1.56109798E9
Raw,2064051055,305292000000,,,-1311985616708234666,0.0,9.481455129054341,,,0,10,0.0,16431,174707880586800,13,31.14432716369629,-176.9378971934201,0.1329773055882118,4,-14913.458006352717,3.4028234663852886E38,1.56109798E9,,,,0,,5,,1.56109798E9
Raw,2064051056,305292000000,,,-1311985616708234666,0.0,9.481455129054341,,,0,28,0.0,16431,174707915384285,17,28.409090042114258,346.4645982984116,0.17988983493566013,4,56771.878717154534,3.4028234663852886E38,1.56109798E9,,,,0,,5,,1.56109798E9
Fix,gps,34.486719,109.464172,357.970367,0.560348,3.000000,1627950704000
Fix,gps,34.486718,109.464169,358.013794,0.754615,3.000000,1627950705000
