# 
# Header Description:
# 
# Version: v2.0.0.1 Platform: 10 Manufacturer: HUAWEI Model: BLA-AL00
# 
# Raw,ElapsedRealtimeMillis,TimeNanos,LeapSecond,TimeUncertaintyNanos,FullBiasNanos,BiasNanos,BiasUncertaintyNanos,DriftNanosPerSecond,DriftUncertaintyNanosPerSecond,HardwareClockDiscontinuityCount,Svid,TimeOffsetNanos,State,ReceivedSvTimeNanos,ReceivedSvTimeUncertaintyNanos,Cn0DbHz,PseudorangeRateMetersPerSecond,PseudorangeRateUncertaintyMetersPerSecond,AccumulatedDeltaRangeState,AccumulatedDeltaRangeMeters,AccumulatedDeltaRangeUncertaintyMeters,CarrierFrequencyHz,CarrierCycles,CarrierPhase,CarrierPhaseUncertainty,MultipathIndicator,SnrInDb,ConstellationType,AgcDb,CarrierFrequencyHz
# 
# Fix,Provider,Latitude,Longitude,Altitude,Speed,Accuracy,(UTC)TimeInMs
# 
# Nav,Svid,Type,Status,MessageId,Sub-messageId,Data(Bytes)
# 
Fix,gps,34.486366,109.464183,359.249878,0.000000,3.000000,1627820363999
Raw,1933710452,1711824000000,,,-1311853870175847775,0.0,10.919311998850622,,,0,10,0.0,16431,44381931653756,6,43.35157775878906,-337.6711541032439,0.033802801063664636,1,-693226.2567916618,6.511267274618149E-4,1.57542003E9,,,,0,,1,,1.57542003E9
Raw,1933710452,1711824000000,,,-1311853870175847775,0.0,10.919311998850622,,,0,12,0.0,16431,44381923768900,14,36.465431213378906,-467.16932219677074,0.07073578369492989,4,-863725.2438803604,3.4028234663852886E38,1.57542003E9,,,,0,,1,,1.57542003E9
Raw,1933710452,1711824000000,,,-1311853870175847775,0.0,10.919311998850622,,,0,15,0.0,16431,44381916201152,59,23.9664306640625,415.5635069825835,0.2983117265468891,4,549204.9122201521,3.4028234663852886E38,1.57542003E9,,,,0,,1,,1.57542003E9
Raw,1933710452,1711824000000,,,-1311853870175847775,0.0,10.919311998850622,,,0,18,0.0,39,5920967376,9,39.9871826171875,564.857311143863,0.04687964094183153,1,1052530.008592384,9.591474081389606E-4,1.57542003E9,,,,0,,1,,1.57542003E9
Raw,1933710452,1711824000000,,,-1311853870175847775,0.0,10.919311998850622,,,0,23,0.0,16431,44381931298124,17,34.62515640258789,122.86469105987811,0.08862283268522758,4,68788.29976446382,3.4028234663852886E38,1.57542003E9,,,,0,,1,,1.57542003E9
Raw,1933710452,1711824000000,,,-1311853870175847775,0.0,10.919311998850622,,,0,24,0.0,16431,44381925906170,26,31.15207862854004,465.66505889568,0.13022130296254136,4,541942.2381010242,3.4028234663852886E38,1.57542003E9,,,,0,,1,,1.57542003E9
Raw,1933710453,1711824000000,,,-1311853870175847775,0.0,10.919311998850622,,,0,25,0.0,16431,44381923089522,9,40.22146224975586,-701.5981375783131,0.046018422364844436,4,-989164.173628593,3.4028234663852886E38,1.57542003E9,,,,0,,1,,1.57542003E9
Raw,1933710453,1711824000000,,,-1311853870175847775,0.0,10.919311998850622,,,0,31,0.0,16,1711018214392,1000000000,26.054689407348633,-827.8230606298457,2.99792458E8,2,-14.876589303172427,3.4028234663852886E38,1.57542003E9,,,,0,,1,,1.57542003E9
Raw,1933710453,1711824000000,,,-1311853870175847775,0.0,10.919311998850622,,,0,32,0.0,16431,44381927133819,7,41.548946380615234,-396.7177830605781,0.040302646293731315,4,-721050.2970546042,3.4028234663852886E38,1.57542003E9,,,,0,,1,,1.57542003E9
Raw,1933710453,1711824000000,,,-1311853870175847775,0.0,10.919311998850622,,,0,10,0.0,32995,55163930640994,33,43.49237823486328,-769.48834602436,0.033110823600894235,4,-1438261.239728968,3.4028234663852886E38,1.59806246E9,,,,0,,3,,1.59806246E9
Raw,1933710453,1711824000000,,,-1311853870175847775,0.0,10.919311998850622,,,0,9,0.0,32995,55163933676176,34,34.75252151489258,-88.7906358626006,0.08779011739310838,4,-394421.6069200736,3.4028234663852886E38,1.59862502E9,,,,0,,3,,1.59862502E9
Raw,1933710453,1711824000000,,,-1311853870175847775,0.0,10.919311998850622,,,0,16,0.0,32995,55163924718078,70,28.603551864624023,544.6539807311844,0.1740498526075851,4,551361.9419395399,3.4028234663852886E38,1.60143744E9,,,,0,,3,,1.60143744E9
Raw,1933710453,1711824000000,,,-1311853870175847775,0.0,10.919311998850622,,,0,23,0.0,32961,55163924507179,37,34.070045471191406,7.845278242778857,0.09311590894949712,4,-8146.329180718908,3.4028234663852886E38,1.60368755E9,,,,0,,3,,1.60368755E9
Raw,1933710454,1711824000000,,,-1311853870175847775,0.0,10.919311998850622,,,0,7,0.0,32995,55163932860229,60,29.90705680847168,-167.56482970139723,0.15137819587188184,4,-353714.29671652435,3.4028234663852886E38,1.60481254E9,,,,0,,3,,1.60481254E9
Raw,1933710454,1711824000000,,,-1311853870175847775,0.0,10.919311998850622,,,0,8,0.0,16,7591327,1000000000,19.70187759399414,-560.8870457835208,2.99792458E8,4,-524291.9396831815,3.4028234663852886E38,1.60537498E9,,,,0,,3,,1.60537498E9
Raw,1933710454,1711824000000,,,-1311853870175847775,0.0,10.919311998850622,,,0,193,0.0,35,9386089,19,33.82684326171875,-255.3184471799924,0.09661455299232108,4,-421753.64661674306,3.4028234663852886E38,1.57542003E9,,,,0,,4,,1.57542003E9
Raw,1933710454,1711824000000,,,-1311853870175847775,0.0,10.919311998850622,,,0,194,0.0,35,12399712,13,36.88471603393555,-102.06411672032215,0.06898674458453397,4,-71242.93313653188,3.4028234663852886E38,1.57542003E9,,,,0,,4,,1.57542003E9
Raw,1933710454,1711824000000,,,-1311853870175847775,0.0,10.919311998850622,,,0,6,0.0,16431,44367878598573,12,31.593017578125,-78.9764987801019,0.1261112632512783,1,-112056.84527215234,0.002275646198540926,1.56109798E9,,,,0,,5,,1.56109798E9
Raw,1933710454,1711824000000,,,-1311853870175847775,0.0,10.919311998850622,,,0,14,0.0,16431,44367924393365,11,32.440826416015625,134.2624694847092,0.11213947805859964,4,153654.20695460524,3.4028234663852886E38,1.56109798E9,,,,0,,5,,1.56109798E9
Raw,1933710454,1711824000000,,,-1311853870175847775,0.0,10.919311998850622,,,0,16,0.0,16431,44367877956533,8,34.55727767944336,-77.31911152246829,0.09049983910491655,4,-110847.92677018669,3.4028234663852886E38,1.56109798E9,,,,0,,5,,1.56109798E9
Raw,1933710454,1711824000000,,,-1311853870175847775,0.0,10.919311998850622,,,0,24,0.0,16431,44367924162439,9,33.528526306152344,33.22470120934729,0.09899184593934829,4,-78106.00716069758,3.4028234663852886E38,1.56109798E9,,,,0,,5,,1.56109798E9
Raw,1933710454,1711824000000,,,-1311853870175847775,0.0,10.919311998850622,,,0,25,0.0,16431,44367923029354,6,39.26392364501953,-576.4459939282924,0.051306137426836596,4,-733646.4272717236,3.4028234663852886E38,1.56109798E9,,,,0,,5,,1.56109798E9
Raw,1933710455,1711824000000,,,-1311853870175847775,0.0,10.919311998850622,,,0,26,0.0,16431,44367915139077,13,30.883771896362305,434.0436624759252,0.13593406686342469,4,624441.6431745838,3.4028234663852886E38,1.56109798E9,,,,0,,5,,1.56109798E9
Raw,1933710455,1711824000000,,,-1311853870175847775,0.0,10.919311998850622,,,0,27,0.0,16431,44367913128194,6,38.04214859008789,126.12545340217082,0.060789443659256676,4,95533.52583947369,3.4028234663852886E38,1.56109798E9,,,,0,,5,,1.56109798E9
Raw,1933710455,1711824000000,,,-1311853870175847775,0.0,10.919311998850622,,,0,33,0.0,16431,44367926030651,9,34.208892822265625,-110.25073129771533,0.09192615163419987,1,-239512.30953331108,0.001786023611202836,1.56109798E9,,,,0,,5,,1.56109798E9
Fix,gps,34.486366,109.464183,359.286438,0.000000,3.000000,1627820364999
Raw,1933711532,1712824000000,,,-1311853870175848163,0.0,10.718882660566562,,,0,10,0.0,16431,44382931654865,6,44.44096374511719,-337.66000913996095,0.032096423270307886,1,-693563.9365797048,5.743758520111442E-4,1.57542003E9,,,,0,,1,,1.57542003E9
Raw,1933711532,1712824000000,,,-1311853870175848163,0.0,10.718882660566562,,,0,12,0.0,16431,44382923770513,22,32.327064514160156,-467.7497805138107,0.11349539567035782,4,-864192.3317672493,3.4028234663852886E38,1.57542003E9,,,,0,,1,,1.57542003E9
Raw,1933711533,1712824000000,,,-1311853870175848163,0.0,10.718882660566562,,,0,15,0.0,16431,44382916199872,167,20.445837020874023,415.48801434138545,4.202914072451227,4,549620.7908391098,3.4028234663852886E38,1.57542003E9,,,,1,,1,,1.57542003E9
Raw,1933711533,1712824000000,,,-1311853870175848163,0.0,10.718882660566562,,,0,18,0.0,39,920965435,7,41.61846923828125,564.8680812001242,0.038882033589330345,1,1053094.8961967377,7.949154241941869E-4,1.57542003E9,,,,0,,1,,1.57542003E9
Raw,1933711533,1712824000000,,,-1311853870175848163,0.0,10.718882660566562,,,0,23,0.0,16431,44382931297697,16,35.37116241455078,122.79392735952263,0.08149615441429409,4,68911.15224766299,3.4028234663852886E38,1.57542003E9,,,,0,,1,,1.57542003E9
Raw,1933711534,1712824000000,,,-1311853870175848163,0.0,10.718882660566562,,,0,24,0.0,16431,44382925904563,23,32.160789489746094,465.85626147677294,0.11605968447808745,4,542407.9772078353,3.4028234663852886E38,1.57542003E9,,,,0,,1,,1.57542003E9
Raw,1933711534,1712824000000,,,-1311853870175848163,0.0,10.718882660566562,,,0,25,0.0,16431,44382923091948,14,36.10586166381836,-701.612997529357,0.07357506201026837,4,-989865.7637771679,3.4028234663852886E38,1.57542003E9,,,,0,,1,,1.57542003E9
Raw,1933711535,1712824000000,,,-1311853870175848163,0.0,10.718882660566562,,,0,31,0.0,16,1712018217091,1000000000,23.982820510864258,-827.4517663484862,2.99792458E8,2,-14.889328445087981,3.4028234663852886E38,1.57542003E9,,,,0,,1,,1.57542003E9
Raw,1933711535,1712824000000,,,-1311853870175848163,0.0,10.718882660566562,,,0,32,0.0,16431,44382927135104,10,39.35116958618164,-396.77916556477567,0.05153734645471039,4,-721447.0066667508,3.4028234663852886E38,1.57542003E9,,,,0,,1,,1.57542003E9
Raw,1933711535,1712824000000,,,-1311853870175848163,0.0,10.718882660566562,,,0,10,0.0,32995,55164930643550,33,43.7390022277832,-769.3768282266174,0.032237947425863084,4,-1439030.6372791347,3.4028234663852886E38,1.59806246E9,,,,0,,3,,1.59806246E9
Raw,1933711536,1712824000000,,,-1311853870175848163,0.0,10.718882660566562,,,0,9,0.0,32995,55164933676450,44,32.593780517578125,-88.83265953149322,0.11186562019505503,4,-394510.38720727636,3.4028234663852886E38,1.59862502E9,,,,0,,3,,1.59862502E9
Raw,1933711536,1712824000000,,,-1311853870175848163,0.0,10.718882660566562,,,0,16,0.0,32995,55164924716295,76,27.85262680053711,544.429241012873,0.18968972275550577,4,551906.054094657,3.4028234663852886E38,1.60143744E9,,,,0,,3,,1.60143744E9
Raw,1933711536,1712824000000,,,-1311853870175848163,0.0,10.718882660566562,,,0,23,0.0,32961,55164924507260,52,31.184751510620117,8.119716573161124,0.12948476077405757,4,-8138.347034740268,3.4028234663852886E38,1.60368755E9,,,,0,,3,,1.60368755E9
Raw,1933711537,1712824000000,,,-1311853870175848163,0.0,10.718882660566562,,,0,7,0.0,32995,55164932860822,92,26.226364135742188,-167.41996221994702,0.230038075820155,4,-353882.0102358626,3.4028234663852886E38,1.60481254E9,,,,0,,3,,1.60481254E9
Raw,1933711537,1712824000000,,,-1311853870175848163,0.0,10.718882660566562,,,0,8,0.0,17,593185,75,19.931201934814453,-560.7171788202111,4.201365983371355,4,-524852.8694972099,3.4028234663852886E38,1.60537498E9,,,,0,,3,,1.60537498E9
Raw,1933711537,1712824000000,,,-1311853870175848163,0.0,10.718882660566562,,,0,193,0.0,35,9386960,19,33.49079895019531,-255.47931637478007,0.10035922144725684,4,-422009.048655168,3.4028234663852886E38,1.57542003E9,,,,0,,4,,1.57542003E9
Raw,1933711538,1712824000000,,,-1311853870175848163,0.0,10.718882660566562,,,0,194,0.0,35,12400073,19,33.628665924072266,-102.37866371157116,0.09934743180288486,4,-71345.22899593133,3.4028234663852886E38,1.57542003E9,,,,0,,4,,1.57542003E9
Raw,1933711538,1712824000000,,,-1311853870175848163,0.0,10.718882660566562,,,0,6,0.0,16431,44368878598835,9,33.60696029663086,-79.15793673740109,0.10070542132179006,1,-112135.9800958031,0.0019141847733408213,1.56109798E9,,,,0,,5,,1.56109798E9
Raw,1933711538,1712824000000,,,-1311853870175848163,0.0,10.718882660566562,,,0,14,0.0,16431,44368924392902,12,31.394466400146484,134.16472099940177,0.1263946485593343,4,153788.44779430478,3.4028234663852886E38,1.56109798E9,,,,0,,5,,1.56109798E9
Raw,1933711539,1712824000000,,,-1311853870175848163,0.0,10.718882660566562,,,0,16,0.0,16431,44368877956776,6,36.951297760009766,-77.4337563855969,0.06947658004610252,4,-110925.32138457784,3.4028234663852886E38,1.56109798E9,,,,0,,5,,1.56109798E9
Raw,1933711539,1712824000000,,,-1311853870175848163,0.0,10.718882660566562,,,0,24,0.0,16431,44368924162338,12,31.78746795654297,33.97593606525541,0.12079671324732177,4,-78072.14315041725,3.4028234663852886E38,1.56109798E9,,,,0,,5,,1.56109798E9
Raw,1933711539,1712824000000,,,-1311853870175848163,0.0,10.718882660566562,,,0,25,0.0,16431,44368923031273,6,39.77512741088867,-576.5318817187299,0.04840517202862901,4,-734222.9607902151,3.4028234663852886E38,1.56109798E9,,,,0,,5,,1.56109798E9
Raw,1933711540,1712824000000,,,-1311853870175848163,0.0,10.718882660566562,,,0,26,0.0,16431,44368915137646,13,30.82902717590332,433.8876329899638,0.13677605997268816,4,624875.4751622942,3.4028234663852886E38,1.56109798E9,,,,0,,5,,1.56109798E9
Raw,1933711540,1712824000000,,,-1311853870175848163,0.0,10.718882660566562,,,0,27,0.0,16431,44368913127789,7,35.7480354309082,126.21775721504872,0.07845121643210556,4,95659.72061924354,3.4028234663852886E38,1.56109798E9,,,,0,,5,,1.56109798E9
Raw,1933711540,1712824000000,,,-1311853870175848163,0.0,10.718882660566562,,,0,33,0.0,16431,44368926031042,8,34.63775634765625,-110.35091667866413,0.08754990097773802,1,-239622.6826240141,0.0016999811632558703,1.56109798E9,,,,0,,5,,1.56109798E9
Fix,gps,34.486366,109.464183,359.310486,0.000000,3.000000,1627820365999
Raw,1933712528,1713824000000,,,-1311853870175848551,0.0,10.995329515949074,,,0,10,0.0,16431,44383931655986,6,43.38746643066406,-337.51372723656505,0.03367247893620852,1,-693901.5255400124,6.484420737251639E-4,1.57542003E9,,,,0,,1,,1.57542003E9
Raw,1933712529,1713824000000,,,-1311853870175848551,0.0,10.995329515949074,,,0,12,0.0,16431,44383923772099,166,29.900745391845703,-466.7271704883003,0.14985179108929947,4,-864659.3084188675,3.4028234663852886E38,1.57542003E9,,,,1,,1,,1.57542003E9
Raw,1933712529,1713824000000,,,-1311853870175848551,0.0,10.995329515949074,,,0,15,0.0,16431,44383916198455,167,16.97910499572754,415.4797323044504,4.2029138061820355,4,550036.8605638826,3.4028234663852886E38,1.57542003E9,,,,1,,1,,1.57542003E9
Raw,1933712529,1713824000000,,,-1311853870175848551,0.0,10.995329515949074,,,0,18,0.0,16431,44383920963564,7,42.364559173583984,564.9468798396049,0.03929308665383885,4,1053659.8211592631,3.4028234663852886E38,1.57542003E9,,,,0,,1,,1.57542003E9
Raw,1933712529,1713824000000,,,-1311853870175848551,0.0,10.995329515949074,,,0,23,0.0,16431,44383931297295,13,37.202049255371094,123.08137027722188,0.06639356556951742,4,69034.14528732818,3.4028234663852886E38,1.57542003E9,,,,0,,1,,1.57542003E9
Raw,1933712529,1713824000000,,,-1311853870175848551,0.0,10.995329515949074,,,0,24,0.0,16431,44383925903089,21,32.9205436706543,465.72490768933403,0.10642800389911306,4,542873.7193931239,3.4028234663852886E38,1.57542003E9,,,,0,,1,,1.57542003E9
Raw,1933712529,1713824000000,,,-1311853870175848551,0.0,10.995329515949074,,,0,25,0.0,16431,44383923094237,13,37.17040252685547,-701.409729758655,0.06515295915953978,4,-990567.259877698,3.4028234663852886E38,1.57542003E9,,,,0,,1,,1.57542003E9
Raw,1933712530,1713824000000,,,-1311853870175848551,0.0,10.995329515949074,,,0,31,0.0,16,1713018219938,1000000000,14.717262268066406,-827.4517663484862,2.99792458E8,2,-14.882857659496649,3.4028234663852886E38,1.57542003E9,,,,0,,1,,1.57542003E9
Raw,1933712530,1713824000000,,,-1311853870175848551,0.0,10.995329515949074,,,0,32,0.0,16431,44383927136447,9,40.22723388671875,-396.6292027560753,0.046716172460479266,4,-721843.6520020429,3.4028234663852886E38,1.57542003E9,,,,0,,1,,1.57542003E9
Raw,1933712530,1713824000000,,,-1311853870175848551,0.0,10.995329515949074,,,0,10,0.0,32995,55165930646121,33,43.59056854248047,-769.1799679577416,0.03276106029569552,4,-1439799.9002123014,3.4028234663852886E38,1.59806246E9,,,,0,,3,,1.59806246E9
Raw,1933712530,1713824000000,,,-1311853870175848551,0.0,10.995329515949074,,,0,9,0.0,32995,55165933676812,48,31.78656768798828,-88.38588112954983,0.12252057327728849,4,-394599.0571272511,3.4028234663852886E38,1.59862502E9,,,,0,,3,,1.59862502E9
Raw,1933712530,1713824000000,,,-1311853870175848551,0.0,10.995329515949074,,,0,16,0.0,32995,55165924714550,68,28.790363311767578,544.2613849144982,0.17036385490483252,4,552450.2022045891,3.4028234663852886E38,1.60143744E9,,,,0,,3,,1.60143744E9
Raw,1933712530,1713824000000,,,-1311853870175848551,0.0,10.995329515949074,,,0,23,0.0,32961,55165924507073,76,27.85490608215332,8.279551045870292,0.1896025029534374,4,-8130.18515466846,3.4028234663852886E38,1.60368755E9,,,,0,,3,,1.60368755E9
Raw,1933712531,1713824000000,,,-1311853870175848551,0.0,10.995329515949074,,,0,7,0.0,32995,55165932861411,84,27.016616821289062,-167.82176029989444,0.21023408835234292,4,-354049.88599839853,3.4028234663852886E38,1.60481254E9,,,,0,,3,,1.60481254E9
Raw,1933712531,1713824000000,,,-1311853870175848551,0.0,10.995329515949074,,,0,8,0.0,16,7594958,1000000000,20.97478485107422,-560.7212346325373,2.99792458E8,6,-524740.1554703455,3.4028234663852886E38,1.60537498E9,,,,0,,3,,1.60537498E9
Raw,1933712532,1713824000000,,,-1311853870175848551,0.0,10.995329515949074,,,0,193,0.0,35,9387800,21,32.907745361328125,-255.343259208341,0.1072101696493924,4,-422264.4268592372,3.4028234663852886E38,1.57542003E9,,,,0,,4,,1.57542003E9
Raw,1933712532,1713824000000,,,-1311853870175848551,0.0,10.995329515949074,,,0,194,0.0,35,12400407,19,33.723453521728516,-102.13708725973748,0.09829342184982226,4,-71447.4320269337,3.4028234663852886E38,1.57542003E9,,,,0,,4,,1.57542003E9
Raw,1933712532,1713824000000,,,-1311853870175848551,0.0,10.995329515949074,,,0,6,0.0,16431,44369878599100,8,35.115081787109375,-79.06850437148523,0.0851871529853011,1,-112215.10419712967,0.001609080471098423,1.56109798E9,,,,0,,5,,1.56109798E9
Raw,1933712532,1713824000000,,,-1311853870175848551,0.0,10.995329515949074,,,0,14,0.0,16431,44369924392462,10,33.09062194824219,134.31643905461306,0.10411318436116135,4,153922.7411494852,3.4028234663852886E38,1.56109798E9,,,,0,,5,,1.56109798E9
Raw,1933712532,1713824000000,,,-1311853870175848551,0.0,10.995329515949074,,,0,16,0.0,16431,44369877957037,6,37.60221481323242,-77.35188180441497,0.06469359487858317,4,-111002.70644446288,3.4028234663852886E38,1.56109798E9,,,,0,,5,,1.56109798E9
Raw,1933712532,1713824000000,,,-1311853870175848551,0.0,10.995329515949074,,,0,24,0.0,16431,44369924162231,13,31.02040672302246,34.03670508523558,0.13188050950442648,4,-78038.13872929142,3.4028234663852886E38,1.56109798E9,,,,0,,5,,1.56109798E9
Raw,1933712533,1713824000000,,,-1311853870175848551,0.0,10.995329515949074,,,0,25,0.0,16431,44369923033201,6,42.44816589355469,-576.3498814008981,0.03572755911845377,4,-734799.390467834,3.4028234663852886E38,1.56109798E9,,,,0,,5,,1.56109798E9
Raw,1933712533,1713824000000,,,-1311853870175848551,0.0,10.995329515949074,,,0,26,0.0,16431,44369915136249,19,27.70998764038086,433.852834801854,0.1946907407863716,4,625309.3429967649,3.4028234663852886E38,1.56109798E9,,,,0,,5,,1.56109798E9
Raw,1933712533,1713824000000,,,-1311853870175848551,0.0,10.995329515949074,,,0,27,0.0,16431,44369913127362,7,36.2415657043457,126.29111970271407,0.0742482404520673,4,95785.99536846371,3.4028234663852886E38,1.56109798E9,,,,0,,5,,1.56109798E9
Raw,1933712536,1713824000000,,,-1311853870175848551,0.0,10.995329515949074,,,0,33,0.0,16431,44369926031425,8,34.56075668334961,-110.24015721557913,0.08831986827067789,1,-239732.96370447782,0.0017151180654764175,1.56109798E9,,,,0,,5,,1.56109798E9
Fix,gps,34.486366,109.464183,359.322906,0.000000,3.000000,1627820366999
Raw,1933713481,1714824000000,,,-1311853870175848939,0.0,11.189225639086944,,,0,10,0.0,16431,44384931657113,6,44.96434020996094,-337.64388813802566,0.03209682683455138,4,-694239.1204366443,3.4028234663852886E38,1.57542003E9,,,,0,,1,,1.57542003E9
Raw,1933713482,1714824000000,,,-1311853870175848939,0.0,11.189225639086944,,,0,12,0.0,16431,44384923773631,42,26.92995834350586,-467.09151194852916,0.2106841831370675,4,-865126.388692956,3.4028234663852886E38,1.57542003E9,,,,0,,1,,1.57542003E9
Raw,1933713482,1714824000000,,,-1311853870175848939,0.0,11.189225639086944,,,0,15,0.0,16431,44384916197106,85,17.950681686401367,415.5269365067345,4.202913539912844,4,550452.4142993846,3.4028234663852886E38,1.57542003E9,,,,0,,1,,1.57542003E9
Raw,1933713482,1714824000000,,,-1311853870175848939,0.0,11.189225639086944,,,0,18,0.0,16431,44384920961655,7,42.312870025634766,565.0061492314981,0.039504758179780136,4,1054224.8113731982,3.4028234663852886E38,1.57542003E9,,,,0,,1,,1.57542003E9
Raw,1933713482,1714824000000,,,-1311853870175848939,0.0,11.189225639086944,,,0,23,0.0,16431,44384931296890,17,34.61598587036133,123.112734657837,0.08871407148790644,4,69157.23675182296,3.4028234663852886E38,1.57542003E9,,,,0,,1,,1.57542003E9
Raw,1933713483,1714824000000,,,-1311853870175848939,0.0,11.189225639086944,,,0,24,0.0,16431,44384925901497,22,32.637046813964844,466.21201415795804,0.10992346103255024,4,543339.7548494305,3.4028234663852886E38,1.57542003E9,,,,0,,1,,1.57542003E9
Raw,1933713483,1714824000000,,,-1311853870175848939,0.0,11.189225639086944,,,0,25,0.0,16431,44384923096618,16,35.03715133666992,-701.7009984320989,0.08313623949985854,4,-991268.8453368538,3.4028234663852886E38,1.57542003E9,,,,0,,1,,1.57542003E9
Raw,1933713484,1714824000000,,,-1311853870175848939,0.0,11.189225639086944,,,0,31,0.0,16,1714018222698,1000000000,17.32229232788086,-827.4517663484862,2.99792458E8,2,-14.876386873725856,3.4028234663852886E38,1.57542003E9,,,,0,,1,,1.57542003E9
Raw,1933713484,1714824000000,,,-1311853870175848939,0.0,11.189225639086944,,,0,32,0.0,16431,44384927137776,6,43.637290954589844,-396.62651024201,0.03196450768815838,4,-722240.3177985053,3.4028234663852886E38,1.57542003E9,,,,0,,1,,1.57542003E9
Raw,1933713484,1714824000000,,,-1311853870175848939,0.0,11.189225639086944,,,0,10,0.0,32995,55166930648712,33,43.85542297363281,-769.1801724524807,0.031915445509380885,4,-1440569.0655576317,3.4028234663852886E38,1.59806246E9,,,,0,,3,,1.59806246E9
Raw,1933713484,1714824000000,,,-1311853870175848939,0.0,11.189225639086944,,,0,9,0.0,32995,55166933677198,58,30.164587020874023,-88.83467039642807,0.14717034383727268,4,-394687.796838211,3.4028234663852886E38,1.59862502E9,,,,0,,3,,1.59862502E9
Raw,1933713484,1714824000000,,,-1311853870175848939,0.0,11.189225639086944,,,0,16,0.0,32995,55166924712759,74,28.131746292114258,544.3190865133913,0.1837171217281972,4,552994.4510148924,3.4028234663852886E38,1.60143744E9,,,,0,,3,,1.60143744E9
Raw,1933713485,1714824000000,,,-1311853870175848939,0.0,11.189225639086944,,,0,23,0.0,32961,55166924507013,97,25.76034927368164,8.328410377449273,0.2410869991340744,4,-8121.975074410769,3.4028234663852886E38,1.60368755E9,,,,0,,3,,1.60368755E9
Raw,1933713485,1714824000000,,,-1311853870175848939,0.0,11.189225639086944,,,0,7,0.0,32995,55166932862009,53,30.942323684692383,-167.70717508106475,0.13462952256381783,4,-354217.6284091375,3.4028234663852886E38,1.60481254E9,,,,0,,3,,1.60481254E9
Raw,1933713485,1714824000000,,,-1311853870175848939,0.0,11.189225639086944,,,0,8,0.0,17,596826,68,21.205575942993164,-560.162657252585,4.201366515909738,4,-525300.2900041202,3.4028234663852886E38,1.60537498E9,,,,0,,3,,1.60537498E9
Raw,1933713485,1714824000000,,,-1311853870175848939,0.0,11.189225639086944,,,0,193,0.0,35,9388692,21,32.712249755859375,-254.86867804248914,0.10961225059397367,4,-422519.511073485,3.4028234663852886E38,1.57542003E9,,,,0,,4,,1.57542003E9
Raw,1933713486,1714824000000,,,-1311853870175848939,0.0,11.189225639086944,,,0,194,0.0,35,12400782,18,34.114078521728516,-101.96984464558005,0.09406902784168591,4,-71549.48800785074,3.4028234663852886E38,1.57542003E9,,,,0,,4,,1.57542003E9
Raw,1933713486,1714824000000,,,-1311853870175848939,0.0,11.189225639086944,,,0,6,0.0,16431,44370878599354,7,36.08710479736328,-79.37091800821213,0.07652233744553105,4,-112294.40103066075,3.4028234663852886E38,1.56109798E9,,,,0,,5,,1.56109798E9
Raw,1933713486,1714824000000,,,-1311853870175848939,0.0,11.189225639086944,,,0,14,0.0,16431,44370924391996,11,32.4443359375,134.7392830514633,0.11209422893785476,4,154057.29875638537,3.4028234663852886E38,1.56109798E9,,,,0,,5,,1.56109798E9
Raw,1933713486,1714824000000,,,-1311853870175848939,0.0,11.189225639086944,,,0,16,0.0,16431,44370877957302,6,36.74538040161133,-77.56247730326942,0.07106595749249461,4,-111080.1929279344,3.4028234663852886E38,1.56109798E9,,,,0,,5,,1.56109798E9
Raw,1933713486,1714824000000,,,-1311853870175848939,0.0,11.189225639086944,,,0,24,0.0,16431,44370924162094,12,31.518177032470703,34.35226176925909,0.12457683710929945,4,-78003.88534670293,3.4028234663852886E38,1.56109798E9,,,,0,,5,,1.56109798E9
Raw,1933713487,1714824000000,,,-1311853870175848939,0.0,11.189225639086944,,,0,25,0.0,16431,44370923035109,6,40.47785949707031,-576.3111637302882,0.04468624847615457,4,-735375.7268931126,3.4028234663852886E38,1.56109798E9,,,,0,,5,,1.56109798E9
Raw,1933713488,1714824000000,,,-1311853870175848939,0.0,11.189225639086944,,,0,26,0.0,16431,44370915134805,21,26.913259506225586,434.18346871258177,0.21313191260618103,4,625743.4606727296,3.4028234663852886E38,1.56109798E9,,,,0,,5,,1.56109798E9
Raw,1933713488,1714824000000,,,-1311853870175848939,0.0,11.189225639086944,,,0,27,0.0,16431,44370913126941,7,36.226112365722656,126.06411350104389,0.07437618279862362,4,95912.12159990394,3.4028234663852886E38,1.56109798E9,,,,0,,5,,1.56109798E9
Raw,1933713488,1714824000000,,,-1311853870175848939,0.0,11.189225639086944,,,0,33,0.0,16431,44370926031793,9,34.269935607910156,-109.99344283342464,0.09129015934918816,4,-239843.10989520716,3.4028234663852886E38,1.56109798E9,,,,0,,5,,1.56109798E9
Fix,gps,34.486366,109.464183,359.111542,0.000000,3.000000,1627820367999
Raw,1933714500,1715824000000,,,-1311853870175849326,0.0,11.674799001449653,,,0,10,0.0,16431,44385931658235,6,42.9692268371582,-337.43424694795385,0.03523050942597572,4,-694576.6231267115,3.4028234663852886E38,1.57542003E9,,,,0,,1,,1.57542003E9
Raw,1933714501,1715824000000,,,-1311853870175849326,0.0,11.674799001449653,,,0,12,0.0,16431,44385923775162,61,22.550565719604492,-466.9994211510045,4.200679008857067,4,-865593.6117851657,3.4028234663852886E38,1.57542003E9,,,,0,,1,,1.57542003E9
Raw,1933714501,1715824000000,,,-1311853870175849326,0.0,11.674799001449653,,,0,15,0.0,16431,44385916195710,92,16.608713150024414,415.58586507406244,4.202913273643652,4,550867.9637806016,3.4028234663852886E38,1.57542003E9,,,,0,,1,,1.57542003E9
Raw,1933714501,1715824000000,,,-1311853870175849326,0.0,11.674799001449653,,,0,18,0.0,16431,44385920959766,7,42.27693176269531,564.9293614569522,0.03965257086475846,4,1054789.7543235195,3.4028234663852886E38,1.57542003E9,,,,0,,1,,1.57542003E9
Raw,1933714502,1715824000000,,,-1311853870175849326,0.0,11.674799001449653,,,0,23,0.0,16431,44385931296465,20,33.308799743652344,123.23268786356903,0.10279203984164165,4,69280.36486876702,3.4028234663852886E38,1.57542003E9,,,,0,,1,,1.57542003E9
Raw,1933714502,1715824000000,,,-1311853870175849326,0.0,11.674799001449653,,,0,24,0.0,16431,44385925899859,23,31.996238708496094,465.65398209731006,0.11825822758843912,4,543805.5169031043,3.4028234663852886E38,1.57542003E9,,,,0,,1,,1.57542003E9
Raw,1933714502,1715824000000,,,-1311853870175849326,0.0,11.674799001449653,,,0,25,0.0,16431,44385923098919,15,35.78501510620117,-701.7396479377958,0.0763239835396251,4,-991970.5199717908,3.4028234663852886E38,1.57542003E9,,,,0,,1,,1.57542003E9
Raw,1933714503,1715824000000,,,-1311853870175849326,0.0,11.674799001449653,,,0,31,0.0,16,1715018225458,1000000000,22.90814971923828,-827.4517663484862,2.99792458E8,2,-14.869916088143205,3.4028234663852886E38,1.57542003E9,,,,0,,1,,1.57542003E9
Raw,1933714503,1715824000000,,,-1311853870175849326,0.0,11.674799001449653,,,0,32,0.0,16431,44385927139092,7,42.007503509521484,-396.55023370431195,0.03829704849633153,4,-722636.8786543161,3.4028234663852886E38,1.57542003E9,,,,0,,1,,1.57542003E9
Raw,1933714503,1715824000000,,,-1311853870175849326,0.0,11.674799001449653,,,0,10,0.0,32995,55167930651228,33,42.25297546386719,-769.0635422862597,0.037897432525692804,4,-1441338.1869036052,3.4028234663852886E38,1.59806246E9,,,,0,,3,,1.59806246E9
Raw,1933714504,1715824000000,,,-1311853870175849326,0.0,11.674799001449653,,,0,9,0.0,32995,55167933677489,72,28.358171463012695,-88.69396097467364,0.1806241887242256,4,-394776.4181128185,3.4028234663852886E38,1.59862502E9,,,,0,,3,,1.59862502E9
Raw,1933714504,1715824000000,,,-1311853870175849326,0.0,11.674799001449653,,,0,16,0.0,32995,55167924710881,83,27.103736877441406,544.1612165747777,0.20669297437346124,4,553538.7347322898,3.4028234663852886E38,1.60143744E9,,,,0,,3,,1.60143744E9
Raw,1933714504,1715824000000,,,-1311853870175849326,0.0,11.674799001449653,,,0,23,0.0,32961,55167924507045,41,33.1571159362793,8.325576740712432,0.10334582151375166,4,-8113.634138251096,3.4028234663852886E38,1.60368755E9,,,,0,,3,,1.60368755E9
Raw,1933714505,1715824000000,,,-1311853870175849326,0.0,11.674799001449653,,,0,7,0.0,32995,55167932862598,84,27.02640151977539,-167.79822636366544,0.21000017086753597,4,-354385.385356009,3.4028234663852886E38,1.60481254E9,,,,0,,3,,1.60481254E9
Raw,1933714505,1715824000000,,,-1311853870175849326,0.0,11.674799001449653,,,0,8,0.0,17,598643,61,22.577442169189453,-560.4456779715504,4.20136678217893,4,-525860.3212320894,3.4028234663852886E38,1.60537498E9,,,,0,,3,,1.60537498E9
Raw,1933714505,1715824000000,,,-1311853870175849326,0.0,11.674799001449653,,,0,193,0.0,35,9389524,26,31.061796188354492,-254.88466271459833,0.13219736152149975,4,-422774.60636452667,3.4028234663852886E38,1.57542003E9,,,,0,,4,,1.57542003E9
Raw,1933714506,1715824000000,,,-1311853870175849326,0.0,11.674799001449653,,,0,194,0.0,35,12401149,28,30.528160095214844,-101.7888582808298,0.1410085918329923,4,-71651.52700256687,3.4028234663852886E38,1.57542003E9,,,,0,,4,,1.57542003E9
Raw,1933714506,1715824000000,,,-1311853870175849326,0.0,11.674799001449653,,,0,6,0.0,16431,44371878599601,12,31.805456161499023,-79.20551584670693,0.12314526576348234,4,-112373.62710507559,3.4028234663852886E38,1.56109798E9,,,,0,,5,,1.56109798E9
Raw,1933714506,1715824000000,,,-1311853870175849326,0.0,11.674799001449653,,,0,14,0.0,16431,44371924391535,15,29.485490798950195,134.26955863566593,0.15726815359885238,4,154191.57046456728,3.4028234663852886E38,1.56109798E9,,,,0,,5,,1.56109798E9
Raw,1933714507,1715824000000,,,-1311853870175849326,0.0,11.674799001449653,,,0,16,0.0,16431,44371877957550,11,32.09901809692383,-77.64909786652214,0.11904852286997403,4,-111157.69143008068,3.4028234663852886E38,1.56109798E9,,,,0,,5,,1.56109798E9
Raw,1933714507,1715824000000,,,-1311853870175849326,0.0,11.674799001449653,,,0,24,0.0,16431,44371924161984,20,27.22977066040039,34.26633989636508,0.20362893157677653,4,-77969.68273849743,3.4028234663852886E38,1.56109798E9,,,,0,,5,,1.56109798E9
Raw,1933714507,1715824000000,,,-1311853870175849326,0.0,11.674799001449653,,,0,25,0.0,16431,44371923037024,6,39.93116760253906,-576.3562889027244,0.04755409248320272,4,-735952.0322452639,3.4028234663852886E38,1.56109798E9,,,,0,,5,,1.56109798E9
Raw,1933714508,1715824000000,,,-1311853870175849326,0.0,11.674799001449653,,,0,26,0.0,16431,44371915133329,17,28.738868713378906,434.2399774254966,0.17324590270906925,4,626177.5717536171,3.4028234663852886E38,1.56109798E9,,,,0,,5,,1.56109798E9
Raw,1933714508,1715824000000,,,-1311853870175849326,0.0,11.674799001449653,,,0,27,0.0,16431,44371913126515,10,32.76774215698242,125.99608491782436,0.10959728959377152,4,96038.31283608946,3.4028234663852886E38,1.56109798E9,,,,0,,5,,1.56109798E9
Raw,1933714508,1715824000000,,,-1311853870175849326,0.0,11.674799001449653,,,0,33,0.0,16431,44371926032166,13,31.16088104248047,-110.03703429531731,0.13011313942437241,4,-239953.19458982046,3.4028234663852886E38,1.56109798E9,,,,0,,5,,1.56109798E9
Fix,gps,34.486366,109.464183,359.081482,0.000000,3.000000,1627820368999
Raw,1933715469,1716824000000,,,-1311853870175849712,0.0,11.76231465909389,,,0,10,0.0,16431,44386931659364,10,39.369895935058594,-337.37017192969097,0.052242922368304134,4,-694913.9049233862,3.4028234663852886E38,1.57542003E9,,,,0,,1,,1.57542003E9
Raw,1933715469,1716824000000,,,-1311853870175849712,0.0,11.76231465909389,,,0,12,0.0,16431,44386923776650,30,29.786252975463867,-466.6851809018642,0.1518319518579907,4,-866060.3642817212,3.4028234663852886E38,1.57542003E9,,,,0,,1,,1.57542003E9
Raw,1933715469,1716824000000,,,-1311853870175849712,0.0,11.76231465909389,,,0,15,0.0,16431,44386916194322,98,15.430158615112305,415.5887961653234,4.202913007374461,4,551283.5034827491,3.4028234663852886E38,1.57542003E9,,,,0,,1,,1.57542003E9
Raw,1933715470,1716824000000,,,-1311853870175849712,0.0,11.76231465909389,,,0,18,0.0,16431,44386920957885,6,43.291866302490234,564.9148082480169,0.035695128363010004,4,1055354.6850661235,3.4028234663852886E38,1.57542003E9,,,,0,,1,,1.57542003E9
Raw,1933715470,1716824000000,,,-1311853870175849712,0.0,11.76231465909389,,,0,23,0.0,16431,44386931296092,15,35.6030158996582,123.17225966815408,0.0794027709927938,4,69403.62009299529,3.4028234663852886E38,1.57542003E9,,,,0,,1,,1.57542003E9
Raw,1933715471,1716824000000,,,-1311853870175849712,0.0,11.76231465909389,,,0,24,0.0,16431,44386925898412,29,30.22321319580078,465.9686995008417,0.14479768563836148,4,544271.6281192275,3.4028234663852886E38,1.57542003E9,,,,0,,1,,1.57542003E9
Raw,1933715472,1716824000000,,,-1311853870175849712,0.0,11.76231465909389,,,0,25,0.0,16431,44386923101257,13,36.89844512939453,-701.5599652270075,0.06720876534137771,4,-992672.00018129,3.4028234663852886E38,1.57542003E9,,,,0,,1,,1.57542003E9
Raw,1933715472,1716824000000,,,-1311853870175849712,0.0,11.76231465909389,,,0,31,0.0,16,1716018228157,1000000000,13.14838981628418,-827.4517663484862,2.99792458E8,2,-14.889328445096885,3.4028234663852886E38,1.57542003E9,,,,0,,1,,1.57542003E9
Raw,1933715472,1716824000000,,,-1311853870175849712,0.0,11.76231465909389,,,0,32,0.0,16431,44386927140406,6,43.67686462402344,-396.62419263496645,0.031825517250379354,4,-723033.5335303814,3.4028234663852886E38,1.57542003E9,,,,0,,1,,1.57542003E9
Raw,1933715473,1716824000000,,,-1311853870175849712,0.0,11.76231465909389,,,0,10,0.0,32995,55168930653822,33,40.09190368652344,-768.7961994972948,0.04806227139579777,4,-1442107.0424021978,3.4028234663852886E38,1.59806246E9,,,,0,,3,,1.59806246E9
Raw,1933715473,1716824000000,,,-1311853870175849712,0.0,11.76231465909389,,,0,9,0.0,32995,55168933677695,62,29.62879753112793,-88.40148237402315,0.15637796576591212,4,-394864.75265620765,3.4028234663852886E38,1.59862502E9,,,,0,,3,,1.59862502E9
Raw,1933715473,1716824000000,,,-1311853870175849712,0.0,11.76231465909389,,,0,16,0.0,32995,55168924709088,115,24.26700210571289,544.1248165112113,0.286197343704669,4,554082.834797716,3.4028234663852886E38,1.60143744E9,,,,0,,3,,1.60143744E9
Raw,1933715474,1716824000000,,,-1311853870175849712,0.0,11.76231465909389,,,0,23,0.0,32961,55168924506993,33,36.53211212158203,8.234614392021733,0.07033277695255458,4,-8105.284377281889,3.4028234663852886E38,1.60368755E9,,,,0,,3,,1.60368755E9
Raw,1933715474,1716824000000,,,-1311853870175849712,0.0,11.76231465909389,,,0,7,0.0,32995,55168932863020,43,32.83828353881836,-167.78718364775204,0.10868251346517088,4,-354553.1216647882,3.4028234663852886E38,1.60481254E9,,,,0,,3,,1.60481254E9
Raw,1933715474,1716824000000,,,-1311853870175849712,0.0,11.76231465909389,,,0,8,0.0,17,600543,80,27.393604278564453,-560.4472457645504,0.20045658378641484,4,-526420.933681095,3.4028234663852886E38,1.60537498E9,,,,0,,3,,1.60537498E9
Raw,1933715475,1716824000000,,,-1311853870175849712,0.0,11.76231465909389,,,0,193,0.0,35,9390405,36,28.152496337890625,-255.09762694418112,0.1841221504522461,4,-423029.7660803824,3.4028234663852886E38,1.57542003E9,,,,0,,4,,1.57542003E9
Raw,1933715475,1716824000000,,,-1311853870175849712,0.0,11.76231465909389,,,0,194,0.0,35,12401472,166,29.064332962036133,-102.22399752387065,0.16648311457208487,4,-71753.65750230187,3.4028234663852886E38,1.57542003E9,,,,1,,4,,1.57542003E9
Raw,1933715475,1716824000000,,,-1311853870175849712,0.0,11.76231465909389,,,0,6,0.0,16431,44372878599906,12,31.786531448364258,-79.28611233576925,0.12340662561684695,4,-112452.78529248382,3.4028234663852886E38,1.56109798E9,,,,0,,5,,1.56109798E9
Raw,1933715476,1716824000000,,,-1311853870175849712,0.0,11.76231465909389,,,0,14,0.0,16431,44372924391089,21,26.95846176147461,134.33961512504857,0.21010724436620187,4,154325.98498304823,3.4028234663852886E38,1.56109798E9,,,,0,,5,,1.56109798E9
Raw,1933715476,1716824000000,,,-1311853870175849712,0.0,11.76231465909389,,,0,16,0.0,16431,44372877957853,9,33.799564361572266,-77.44462868922767,0.09845502228637731,4,-111235.05969856822,3.4028234663852886E38,1.56109798E9,,,,0,,5,,1.56109798E9
Raw,1933715476,1716824000000,,,-1311853870175849712,0.0,11.76231465909389,,,0,24,0.0,16431,44372924161882,70,21.616209030151367,34.30239487505915,299.7932070571403,4,-77935.45359108562,3.4028234663852886E38,1.56109798E9,,,,0,,5,,1.56109798E9
Raw,1933715477,1716824000000,,,-1311853870175849712,0.0,11.76231465909389,,,0,25,0.0,16431,44372923038944,6,41.57398223876953,-576.3245240532451,0.03945376762959171,4,-736528.3195113274,3.4028234663852886E38,1.56109798E9,,,,0,,5,,1.56109798E9
Raw,1933715477,1716824000000,,,-1311853870175849712,0.0,11.76231465909389,,,0,26,0.0,16431,44372915131857,18,28.28675079345703,434.18074211605995,0.18235681899569012,4,626611.6478020275,3.4028234663852886E38,1.56109798E9,,,,0,,5,,1.56109798E9
Raw,1933715477,1716824000000,,,-1311853870175849712,0.0,11.76231465909389,,,0,27,0.0,16431,44372913126102,9,33.4825553894043,125.8836980174404,0.10112551089698796,4,96164.42826149514,3.4028234663852886E38,1.56109798E9,,,,0,,5,,1.56109798E9
Raw,1933715478,1716824000000,,,-1311853870175849712,0.0,11.76231465909389,,,0,33,0.0,16431,44372926032496,11,32.41797637939453,-109.88981512436703,0.11272760013551181,4,-240063.1519716627,3.4028234663852886E38,1.56109798E9,,,,0,,5,,1.56109798E9
Fix,gps,34.486366,109.464183,359.138275,0.000000,3.000000,1627820369999
Raw,1933716517,1717824000000,,,-1311853870175850100,0.0,12.08665002126192,,,0,10,0.0,16431,44387931660508,15,35.754940032958984,-337.39106447553945,0.07812680070580885,4,-695251.21985091,3.4028234663852886E38,1.57542003E9,,,,0,,1,,1.57542003E9
Raw,1933716517,1717824000000,,,-1311853870175850100,0.0,12.08665002126192,,,0,12,0.0,16431,44387923778221,28,30.34906768798828,-466.3237364504398,0.1423486414651145,4,-866526.4410333552,3.4028234663852886E38,1.57542003E9,,,,0,,1,,1.57542003E9
Raw,1933716517,1717824000000,,,-1311853870175850100,0.0,12.08665002126192,,,0,15,0.0,16431,44387916192969,92,16.7176456451416,415.57618565640996,4.202912741105269,4,551698.9542080438,3.4028234663852886E38,1.57542003E9,,,,0,,1,,1.57542003E9
Raw,1933716518,1717824000000,,,-1311853870175850100,0.0,12.08665002126192,,,0,18,0.0,16431,44387920956054,8,41.245025634765625,565.0011731928457,0.04417839407913676,4,1055919.709127507,3.4028234663852886E38,1.57542003E9,,,,0,,1,,1.57542003E9
Raw,1933716518,1717824000000,,,-1311853870175850100,0.0,12.08665002126192,,,0,23,0.0,16431,44387931295637,17,34.39105987548828,123.52518350544779,0.09098784396579296,4,69527.26595607153,3.4028234663852886E38,1.57542003E9,,,,0,,1,,1.57542003E9
Raw,1933716518,1717824000000,,,-1311853870175850100,0.0,12.08665002126192,,,0,24,0.0,16431,44387925896846,43,26.70932960510254,466.14551928528203,0.216468748189644,4,544738.221313886,3.4028234663852886E38,1.57542003E9,,,,0,,1,,1.57542003E9
Raw,1933716518,1717824000000,,,-1311853870175850100,0.0,12.08665002126192,,,0,25,0.0,16431,44387923103564,9,39.535179138183594,-701.2451114936498,0.049758730661768,4,-993373.1823609924,3.4028234663852886E38,1.57542003E9,,,,0,,1,,1.57542003E9
Raw,1933716519,1717824000000,,,-1311853870175850100,0.0,12.08665002126192,,,0,31,0.0,16,1717018230917,1000000000,32.55633544921875,-827.4517663484862,2.99792458E8,2,-14.88285765948513,3.4028234663852886E38,1.57542003E9,,,,0,,1,,1.57542003E9
Raw,1933716519,1717824000000,,,-1311853870175850100,0.0,12.08665002126192,,,0,32,0.0,16431,44387927141791,8,41.231178283691406,-396.7132841763171,0.041758011288090174,4,-723430.3371789898,3.4028234663852886E38,1.57542003E9,,,,0,,1,,1.57542003E9
Raw,1933716519,1717824000000,,,-1311853870175850100,0.0,12.08665002126192,,,0,10,0.0,32995,55169930656366,33,37.620792388916016,-768.6446688955944,0.06324905955150079,4,-1442875.7722549527,3.4028234663852886E38,1.59806246E9,,,,0,,3,,1.59806246E9
Raw,1933716520,1717824000000,,,-1311853870175850100,0.0,12.08665002126192,,,0,9,0.0,32995,55169933677907,50,31.371845245361328,-88.15774168620027,0.12839234149010892,4,-394952.79081035126,3.4028234663852886E38,1.59862502E9,,,,0,,3,,1.59862502E9
Raw,1933716520,1717824000000,,,-1311853870175850100,0.0,12.08665002126192,,,0,16,0.0,32995,55169924707281,98,25.619808197021484,544.5332265877241,0.245042411333237,4,554627.2867406529,3.4028234663852886E38,1.60143744E9,,,,0,,3,,1.60143744E9
Raw,1933716520,1717824000000,,,-1311853870175850100,0.0,12.08665002126192,,,0,23,0.0,32961,55169924507034,33,38.095970153808594,8.101439855850767,0.05887777647964443,4,-8097.139845059181,3.4028234663852886E38,1.60368755E9,,,,0,,3,,1.60368755E9
Raw,1933716520,1717824000000,,,-1311853870175850100,0.0,12.08665002126192,,,0,7,0.0,32995,55169932863572,63,29.44471549987793,-167.91093704738637,0.1595283463479681,4,-354720.9221771105,3.4028234663852886E38,1.60481254E9,,,,0,,3,,1.60481254E9
Raw,1933716523,1717824000000,,,-1311853870175850100,0.0,12.08665002126192,,,0,8,0.0,17,602457,67,28.926713943481445,-560.6200779015776,0.16824302079386233,4,-526981.7533361753,3.4028234663852886E38,1.60537498E9,,,,0,,3,,1.60537498E9
Raw,1933716523,1717824000000,,,-1311853870175850100,0.0,12.08665002126192,,,0,193,0.0,35,9391257,45,26.358362197875977,-254.98285427184055,0.22597945102560446,4,-423284.43551802053,3.4028234663852886E38,1.57542003E9,,,,0,,4,,1.57542003E9
Raw,1933716524,1717824000000,,,-1311853870175850100,0.0,12.08665002126192,,,0,194,0.0,35,12401752,26,30.940410614013672,-101.91405166425221,0.13457586932171356,4,-71855.50233752355,3.4028234663852886E38,1.57542003E9,,,,0,,4,,1.57542003E9
Raw,1933716524,1717824000000,,,-1311853870175850100,0.0,12.08665002126192,,,0,6,0.0,16431,44373878600135,10,32.65287780761719,-79.42786127244761,0.11200943052124734,4,-112532.08099595152,3.4028234663852886E38,1.56109798E9,,,,0,,5,,1.56109798E9
Raw,1933716524,1717824000000,,,-1311853870175850100,0.0,12.08665002126192,,,0,14,0.0,16431,44373924390672,16,29.069992065429688,134.75988589643134,0.1649351752686331,4,154460.78453243538,3.4028234663852886E38,1.56109798E9,,,,0,,5,,1.56109798E9
Raw,1933716525,1717824000000,,,-1311853870175850100,0.0,12.08665002126192,,,0,16,0.0,16431,44373877958065,7,35.9177131652832,-77.60511445637945,0.07784805846678111,4,-111312.62876211846,3.4028234663852886E38,1.56109798E9,,,,0,,5,,1.56109798E9
Raw,1933716525,1717824000000,,,-1311853870175850100,0.0,12.08665002126192,,,0,24,0.0,16431,44373924161735,29,24.15037727355957,34.41158867529764,0.28995606618037306,4,-77901.2142002675,3.4028234663852886E38,1.56109798E9,,,,0,,5,,1.56109798E9
Raw,1933716526,1717824000000,,,-1311853870175850100,0.0,12.08665002126192,,,0,25,0.0,16431,44373923040883,6,43.60252380371094,-576.195828697415,0.03135064070878489,4,-737104.4970028651,3.4028234663852886E38,1.56109798E9,,,,0,,5,,1.56109798E9
Raw,1933716526,1717824000000,,,-1311853870175850100,0.0,12.08665002126192,,,0,26,0.0,16431,44373915130420,14,30.386348724365234,434.2803310540196,0.1437839156168771,4,627046.094059276,3.4028234663852886E38,1.56109798E9,,,,0,,5,,1.56109798E9
Raw,1933716526,1717824000000,,,-1311853870175850100,0.0,12.08665002126192,,,0,27,0.0,16431,44373913125650,6,37.20692443847656,126.03252758446138,0.06668634934794512,4,96290.49028323608,3.4028234663852886E38,1.56109798E9,,,,0,,5,,1.56109798E9
Raw,1933716527,1717824000000,,,-1311853870175850100,0.0,12.08665002126192,,,0,33,0.0,16431,44373926032871,12,31.75681495666504,-109.9093443719546,0.12155759410409883,4,-240173.0342370569,3.4028234663852886E38,1.56109798E9,,,,0,,5,,1.56109798E9
Fix,gps,34.486366,109.464183,359.113007,0.000000,3.000000,1627820370999
Raw,1933717523,1718824000000,,,-1311853870175850489,0.0,11.754217130594984,,,0,10,0.0,16431,44388931661649,11,37.98536682128906,-337.3418494083205,0.060908836268489475,4,-695588.4757010868,3.4028234663852886E38,1.57542003E9,,,,0,,1,,1.57542003E9
Raw,1933717523,1718824000000,,,-1311853870175850489,0.0,11.754217130594984,,,0,12,0.0,16431,44388923779817,28,30.445796966552734,-466.0487932736703,0.140780033015666,4,-866992.176040109,3.4028234663852886E38,1.57542003E9,,,,0,,1,,1.57542003E9
Raw,1933717523,1718824000000,,,-1311853870175850489,0.0,11.754217130594984,,,0,15,0.0,16,1718016191561,1000000000,7.0,415.67522927506525,2.99792458E8,2,524294.6410767076,3.4028234663852886E38,1.57542003E9,,,,0,,1,,1.57542003E9
Raw,1933717523,1718824000000,,,-1311853870175850489,0.0,11.754217130594984,,,0,18,0.0,16431,44388920954171,8,40.60083770751953,564.9064580461688,0.04728889668929684,4,1056484.650832118,3.4028234663852886E38,1.57542003E9,,,,0,,1,,1.57542003E9
Raw,1933717523,1718824000000,,,-1311853870175850489,0.0,11.754217130594984,,,0,23,0.0,16431,44388931295220,19,33.57752990722656,123.50296174379491,0.09972214744365432,4,69650.94279742529,3.4028234663852886E38,1.57542003E9,,,,0,,1,,1.57542003E9
Raw,1933717524,1718824000000,,,-1311853870175850489,0.0,11.754217130594984,,,0,24,0.0,16431,44388925895286,62,23.627796173095703,466.2025392350447,0.3082019961154532,4,545205.1566690551,3.4028234663852886E38,1.57542003E9,,,,0,,1,,1.57542003E9
Raw,1933717524,1718824000000,,,-1311853870175850489,0.0,11.754217130594984,,,0,25,0.0,16431,44388923105916,11,38.48668670654297,-700.9611364659017,0.05607160707409703,4,-994073.9988429848,3.4028234663852886E38,1.57542003E9,,,,0,,1,,1.57542003E9
Raw,1933717524,1718824000000,,,-1311853870175850489,0.0,11.754217130594984,,,0,31,0.0,17,233431,93,16.413949966430664,-827.6029561256214,4.2032796600512725,4,-676.7922797320919,3.4028234663852886E38,1.57542003E9,,,,0,,1,,1.57542003E9
Raw,1933717524,1718824000000,,,-1311853870175850489,0.0,11.754217130594984,,,0,32,0.0,16431,44388927143106,7,41.88093185424805,-396.95622392641167,0.03884107805929976,4,-723827.4347400701,3.4028234663852886E38,1.57542003E9,,,,0,,1,,1.57542003E9
Raw,1933717524,1718824000000,,,-1311853870175850489,0.0,11.754217130594984,,,0,10,0.0,32995,55170930659015,33,36.884830474853516,-768.6954517558133,0.06867276744263859,4,-1443644.3721154253,3.4028234663852886E38,1.59806246E9,,,,0,,3,,1.59806246E9
Raw,1933717524,1718824000000,,,-1311853870175850489,0.0,11.754217130594984,,,0,9,0.0,32995,55170933678286,56,30.50351905822754,-87.83532164749448,0.141632577041646,4,-395040.4147350207,3.4028234663852886E38,1.59862502E9,,,,0,,3,,1.59862502E9
Raw,1933717525,1718824000000,,,-1311853870175850489,0.0,11.754217130594984,,,0,16,0.0,32995,55170924705491,84,26.983482360839844,544.7557850288181,0.20956172535994322,4,555172.1213311736,3.4028234663852886E38,1.60143744E9,,,,0,,3,,1.60143744E9
Raw,1933717525,1718824000000,,,-1311853870175850489,0.0,11.754217130594984,,,0,23,0.0,32961,55170924507026,33,38.92234420776367,7.919144511754684,0.05360795137896185,4,-8089.308540951563,3.4028234663852886E38,1.60368755E9,,,,0,,3,,1.60368755E9
Raw,1933717525,1718824000000,,,-1311853870175850489,0.0,11.754217130594984,,,0,7,0.0,32995,55170932864135,57,30.321331024169922,-167.80139603212206,0.14443610871801427,4,-354888.5755047458,3.4028234663852886E38,1.60481254E9,,,,0,,3,,1.60481254E9
Raw,1933717525,1718824000000,,,-1311853870175850489,0.0,11.754217130594984,,,0,8,0.0,17,604336,33,36.045196533203125,-560.8829899711945,0.07489851974338996,4,-527542.8295428976,3.4028234663852886E38,1.60537498E9,,,,0,,3,,1.60537498E9
Raw,1933717525,1718824000000,,,-1311853870175850489,0.0,11.754217130594984,,,0,193,0.0,35,9392069,37,28.092042922973633,-254.83096580434665,0.18539663129594064,4,-423539.1403010256,3.4028234663852886E38,1.57542003E9,,,,0,,4,,1.57542003E9
Raw,1933717526,1718824000000,,,-1311853870175850489,0.0,11.754217130594984,,,0,194,0.0,35,12402100,30,29.817880630493164,-101.70064436273464,0.15283407260234327,4,-71956.90508287965,3.4028234663852886E38,1.57542003E9,,,,0,,4,,1.57542003E9
Raw,1933717526,1718824000000,,,-1311853870175850489,0.0,11.754217130594984,,,0,6,0.0,16431,44374878600431,11,32.34503173828125,-79.10524525961682,0.11592978671715543,4,-112611.1968082485,3.4028234663852886E38,1.56109798E9,,,,0,,5,,1.56109798E9
Raw,1933717526,1718824000000,,,-1311853870175850489,0.0,11.754217130594984,,,0,14,0.0,16431,44374924390230,16,29.302202224731445,135.0463574641197,0.1606049725404909,4,154595.54446975075,3.4028234663852886E38,1.56109798E9,,,,0,,5,,1.56109798E9
Raw,1933717526,1718824000000,,,-1311853870175850489,0.0,11.754217130594984,,,0,16,0.0,16431,44374877958368,8,35.01654052734375,-77.59289589571603,0.08600567280114396,4,-111390.18977383318,3.4028234663852886E38,1.56109798E9,,,,0,,5,,1.56109798E9
Raw,1933717526,1718824000000,,,-1311853870175850489,0.0,11.754217130594984,,,0,24,0.0,16431,44374924161641,18,28.15260887145996,34.57924027893334,0.18317930788667003,4,-77867.17042293416,3.4028234663852886E38,1.56109798E9,,,,0,,5,,1.56109798E9
Raw,1933717526,1718824000000,,,-1311853870175850489,0.0,11.754217130594984,,,0,25,0.0,16431,44374923042835,6,43.714054107666016,-576.0800846750635,0.030957976860320188,4,-737680.5442629576,3.4028234663852886E38,1.56109798E9,,,,0,,5,,1.56109798E9
Raw,1933717527,1718824000000,,,-1311853870175850489,0.0,11.754217130594984,,,0,26,0.0,16431,44374915129014,13,30.812829971313477,434.4167290450239,0.13702469715124238,4,627480.6675532142,3.4028234663852886E38,1.56109798E9,,,,0,,5,,1.56109798E9
Raw,1933717527,1718824000000,,,-1311853870175850489,0.0,11.754217130594984,,,0,27,0.0,16431,44374913125269,6,37.805389404296875,125.74389178078383,0.06240342604313362,4,96416.09141355251,3.4028234663852886E38,1.56109798E9,,,,0,,5,,1.56109798E9
Raw,1933717527,1718824000000,,,-1311853870175850489,0.0,11.754217130594984,,,0,33,0.0,16431,44374926033295,14,30.187641143798828,-109.67998648078435,0.14541183552875103,4,-240282.70687607423,3.4028234663852886E38,1.56109798E9,,,,0,,5,,1.56109798E9
Fix,gps,34.486366,109.464183,359.051849,0.000000,3.000000,1627820371999
Raw,1933718501,1719824000000,,,-1311853870175850878,0.0,11.56548475255075,,,0,10,0.0,16431,44389931662779,8,40.65826416015625,-337.1554865360538,0.04533083626350712,4,-695926.3363182361,3.4028234663852886E38,1.57542003E9,,,,0,,1,,1.57542003E9
Raw,1933718502,1719824000000,,,-1311853870175850878,0.0,11.56548475255075,,,0,12,0.0,16431,44389923781345,26,31.008197784423828,-465.7424601544433,0.1319964198118881,4,-867457.696586054,3.4028234663852886E38,1.57542003E9,,,,0,,1,,1.57542003E9
Raw,1933718502,1719824000000,,,-1311853870175850878,0.0,11.56548475255075,,,0,15,0.0,16,1719016190298,1000000000,23.460168838500977,415.4895821343855,2.99792458E8,2,524294.6348616513,3.4028234663852886E38,1.57542003E9,,,,0,,1,,1.57542003E9
Raw,1933718502,1719824000000,,,-1311853870175850878,0.0,11.56548475255075,,,0,18,0.0,16431,44389920952301,9,40.02775955200195,564.867024643972,0.0502567580614339,4,1057049.535080372,3.4028234663852886E38,1.57542003E9,,,,0,,1,,1.57542003E9
Raw,1933718503,1719824000000,,,-1311853870175850878,0.0,11.56548475255075,,,0,23,0.0,16431,44389931294844,16,35.383914947509766,123.91046011459576,0.08137906253729482,4,69774.88311216456,3.4028234663852886E38,1.57542003E9,,,,0,,1,,1.57542003E9
Raw,1933718503,1719824000000,,,-1311853870175850878,0.0,11.56548475255075,,,0,24,0.0,16431,44389925893700,39,27.453147888183594,466.3851530370939,0.1987893891687822,4,545671.8034009724,3.4028234663852886E38,1.57542003E9,,,,0,,1,,1.57542003E9
Raw,1933718504,1719824000000,,,-1311853870175850878,0.0,11.56548475255075,,,0,25,0.0,16431,44389923108277,11,38.21826171875,-700.8407572294632,0.05781435973529789,4,-994774.7676610501,3.4028234663852886E38,1.57542003E9,,,,0,,1,,1.57542003E9
Raw,1933718504,1719824000000,,,-1311853870175850878,0.0,11.56548475255075,,,0,31,0.0,17,236263,70,21.00567054748535,-827.7242896708426,4.203280192589656,4,-1504.4502029993423,3.4028234663852886E38,1.57542003E9,,,,0,,1,,1.57542003E9
Raw,1933718504,1719824000000,,,-1311853870175850878,0.0,11.56548475255075,,,0,32,0.0,16431,44389927144402,6,44.32729721069336,-397.0914631138942,0.03128510104355005,4,-724224.5235696089,3.4028234663852886E38,1.57542003E9,,,,0,,1,,1.57542003E9
Raw,1933718505,1719824000000,,,-1311853870175850878,0.0,11.56548475255075,,,0,10,0.0,32995,55171930661545,33,38.742000579833984,-768.3906864295864,0.055822670342702274,4,-1444412.7277319676,3.4028234663852886E38,1.59806246E9,,,,0,,3,,1.59806246E9
Raw,1933718505,1719824000000,,,-1311853870175850878,0.0,11.56548475255075,,,0,9,0.0,32995,55171933678599,68,28.803918838500977,-87.76130307254107,0.17171189261270225,4,-395127.88696407643,3.4028234663852886E38,1.59862502E9,,,,0,,3,,1.59862502E9
Raw,1933718505,1719824000000,,,-1311853870175850878,0.0,11.56548475255075,,,0,16,0.0,32995,55171924703571,87,26.672624588012695,544.83192523669,0.21716632354612186,4,555717.6016011575,3.4028234663852886E38,1.60143744E9,,,,0,,3,,1.60143744E9
Raw,1933718506,1719824000000,,,-1311853870175850878,0.0,11.56548475255075,,,0,23,0.0,32961,55171924506974,33,36.22541046142578,7.939361266394926,0.0728314886509443,4,-8081.441295247433,3.4028234663852886E38,1.60368755E9,,,,0,,3,,1.60368755E9
Raw,1933718506,1719824000000,,,-1311853870175850878,0.0,11.56548475255075,,,0,7,0.0,32995,55171932864853,53,30.991384506225586,-167.57513964449538,0.13388477595586834,4,-355056.0239883939,3.4028234663852886E38,1.60481254E9,,,,0,,3,,1.60481254E9
Raw,1933718506,1719824000000,,,-1311853870175850878,0.0,11.56548475255075,,,0,8,0.0,17,606211,33,38.46965789794922,-561.1703050796818,0.05699001528088912,4,-528104.0337403866,3.4028234663852886E38,1.60537498E9,,,,0,,3,,1.60537498E9
Raw,1933718506,1719824000000,,,-1311853870175850878,0.0,11.56548475255075,,,0,193,0.0,35,9392921,52,25.142677307128906,-254.96773870237269,0.2596745857256063,4,-423794.2111495125,3.4028234663852886E38,1.57542003E9,,,,0,,4,,1.57542003E9
Raw,1933718507,1719824000000,,,-1311853870175850878,0.0,11.56548475255075,,,0,194,0.0,35,12402467,35,28.396259307861328,-101.59326758345952,0.17961529475731208,4,-72058.24006116472,3.4028234663852886E38,1.57542003E9,,,,0,,4,,1.57542003E9
Raw,1933718507,1719824000000,,,-1311853870175850878,0.0,11.56548475255075,,,0,6,0.0,16431,44375878600683,11,32.50439453125,-79.06761822761564,0.11388307529239255,4,-112690.25568007301,3.4028234663852886E38,1.56109798E9,,,,0,,5,,1.56109798E9
Raw,1933718507,1719824000000,,,-1311853870175850878,0.0,11.56548475255075,,,0,14,0.0,16431,44375924389787,18,28.310949325561523,135.16094268294938,0.17992481605070454,4,154730.14227417516,3.4028234663852886E38,1.56109798E9,,,,0,,5,,1.56109798E9
Raw,1933718507,1719824000000,,,-1311853870175850878,0.0,11.56548475255075,,,0,16,0.0,16431,44375877958614,9,34.063201904296875,-77.38139721176373,0.09560823850820105,4,-111467.8974326869,3.4028234663852886E38,1.56109798E9,,,,0,,5,,1.56109798E9
Raw,1933718507,1719824000000,,,-1311853870175850878,0.0,11.56548475255075,,,0,24,0.0,16431,44375924161530,20,27.283559799194336,34.677382842644306,0.2023763680159143,4,-77832.81368530985,3.4028234663852886E38,1.56109798E9,,,,0,,5,,1.56109798E9
Raw,1933718508,1719824000000,,,-1311853870175850878,0.0,11.56548475255075,,,0,25,0.0,16431,44375923044739,6,40.89789962768555,-576.0601123555412,0.04260420645803334,4,-738256.5809767181,3.4028234663852886E38,1.56109798E9,,,,0,,5,,1.56109798E9
Raw,1933718508,1719824000000,,,-1311853870175850878,0.0,11.56548475255075,,,0,26,0.0,16431,44375915127558,11,32.27129364013672,434.6571807757923,0.11626497802479907,4,627915.3984183245,3.4028234663852886E38,1.56109798E9,,,,0,,5,,1.56109798E9
Raw,1933718508,1719824000000,,,-1311853870175850878,0.0,11.56548475255075,,,0,27,0.0,16431,44375913124844,6,37.25586700439453,125.76446054329534,0.06632476410668567,4,96541.80955400855,3.4028234663852886E38,1.56109798E9,,,,0,,5,,1.56109798E9
Raw,1933718508,1719824000000,,,-1311853870175850878,0.0,11.56548475255075,,,0,33,0.0,16431,44375926033625,13,31.182905197143555,-109.68109416062134,0.1297866517909287,4,-240392.27403991699,3.4028234663852886E38,1.56109798E9,,,,0,,5,,1.56109798E9
Fix,gps,34.486366,109.464183,359.008728,0.000000,3.000000,1627820372999
Raw,1933719453,1720824000000,,,-1311853870175851263,0.0,11.266646823225326,,,0,10,0.0,16431,44390931663854,8,41.000396728515625,-337.1181662461613,0.043661199458132904,4,-696263.4910632827,3.4028234663852886E38,1.57542003E9,,,,0,,1,,1.57542003E9
Raw,1933719453,1720824000000,,,-1311853870175851263,0.0,11.266646823225326,,,0,12,0.0,16431,44390923782865,29,30.068796157836914,-465.7127743348119,0.14699537169475274,4,-867923.175312591,3.4028234663852886E38,1.57542003E9,,,,0,,1,,1.57542003E9
Raw,1933719454,1720824000000,,,-1311853870175851263,0.0,11.266646823225326,,,0,15,0.0,16,1720016188912,1000000000,19.825422286987305,415.4895821343855,2.99792458E8,2,524294.644609207,3.4028234663852886E38,1.57542003E9,,,,0,,1,,1.57542003E9
Raw,1933719454,1720824000000,,,-1311853870175851263,0.0,11.266646823225326,,,0,18,0.0,16431,44390920950372,8,40.59614181518555,564.8925524039075,0.047311758395668035,4,1057614.4101479435,3.4028234663852886E38,1.57542003E9,,,,0,,1,,1.57542003E9
Raw,1933719454,1720824000000,,,-1311853870175851263,0.0,11.266646823225326,,,0,23,0.0,16431,44390931294400,16,35.287288665771484,124.16733106879406,0.08226660432014371,4,69899.02134605363,3.4028234663852886E38,1.57542003E9,,,,0,,1,,1.57542003E9
Raw,1933719455,1720824000000,,,-1311853870175851263,0.0,11.266646823225326,,,0,24,0.0,16431,44390925892110,39,27.44856071472168,466.5021581103367,0.19889358363181409,4,546138.885034701,3.4028234663852886E38,1.57542003E9,,,,0,,1,,1.57542003E9
Raw,1933719456,1720824000000,,,-1311853870175851263,0.0,11.266646823225326,,,0,25,0.0,16431,44390923110575,10,38.68429946899414,-700.6093373496733,0.054823707384543646,4,-995475.3754389248,3.4028234663852886E38,1.57542003E9,,,,0,,1,,1.57542003E9
Raw,1933719456,1720824000000,,,-1311853870175851263,0.0,11.266646823225326,,,0,31,0.0,17,239077,40,27.359344482421875,-827.5522414303155,0.20315698607651755,4,-2332.154688611538,3.4028234663852886E38,1.57542003E9,,,,0,,1,,1.57542003E9
Raw,1933719456,1720824000000,,,-1311853870175851263,0.0,11.266646823225326,,,0,32,0.0,16431,44390927145698,6,44.84746551513672,-397.09112228932895,0.031285334029092685,4,-724621.6720808923,3.4028234663852886E38,1.57542003E9,,,,0,,1,,1.57542003E9
Raw,1933719457,1720824000000,,,-1311853870175851263,0.0,11.266646823225326,,,0,10,0.0,32995,55172930664080,33,39.17427444458008,-768.4897982131547,0.05320607212019465,4,-1445181.168418835,3.4028234663852886E38,1.59806246E9,,,,0,,3,,1.59806246E9
Raw,1933719457,1720824000000,,,-1311853870175851263,0.0,11.266646823225326,,,0,9,0.0,32995,55172933678777,59,30.095232009887695,-87.57006640899158,0.14833074497419774,4,-395215.1221542846,3.4028234663852886E38,1.59862502E9,,,,0,,3,,1.59862502E9
Raw,1933719457,1720824000000,,,-1311853870175851263,0.0,11.266646823225326,,,0,16,0.0,32995,55172924701726,131,23.112125396728516,544.8737444108435,0.32677403924292636,4,556262.3508131899,3.4028234663852886E38,1.60143744E9,,,,0,,3,,1.60143744E9
Raw,1933719458,1720824000000,,,-1311853870175851263,0.0,11.266646823225326,,,0,23,0.0,32961,55172924506898,33,38.28168869018555,8.10173434957666,0.057649356045637895,4,-8073.312829311432,3.4028234663852886E38,1.60368755E9,,,,0,,3,,1.60368755E9
Raw,1933719458,1720824000000,,,-1311853870175851263,0.0,11.266646823225326,,,0,7,0.0,32995,55172932865389,50,31.538002014160156,-167.465138516068,0.12586006323175508,4,-355223.4045558728,3.4028234663852886E38,1.60481254E9,,,,0,,3,,1.60481254E9
Raw,1933719458,1720824000000,,,-1311853870175851263,0.0,11.266646823225326,,,0,8,0.0,17,608061,33,38.722877502441406,-561.2031264853133,0.05539222955268153,4,-528665.297531186,3.4028234663852886E38,1.60537498E9,,,,0,,3,,1.60537498E9
