# 
# Header Description:
# 
# Version: v2.0.0.1 Platform: 10 Manufacturer: HUAWEI Model: BLA-AL00
# 
# Raw,ElapsedRealtimeMillis,TimeNanos,LeapSecond,TimeUncertaintyNanos,FullBiasNanos,BiasNanos,BiasUncertaintyNanos,DriftNanosPerSecond,DriftUncertaintyNanosPerSecond,HardwareClockDiscontinuityCount,Svid,TimeOffsetNanos,State,ReceivedSvTimeNanos,ReceivedSvTimeUncertaintyNanos,Cn0DbHz,PseudorangeRateMetersPerSecond,PseudorangeRateUncertaintyMetersPerSecond,AccumulatedDeltaRangeState,AccumulatedDeltaRangeMeters,AccumulatedDeltaRangeUncertaintyMeters,CarrierFrequencyHz,CarrierCycles,CarrierPhase,CarrierPhaseUncertainty,MultipathIndicator,SnrInDb,ConstellationType,AgcDb,CarrierFrequencyHz
# 
# Fix,Provider,Latitude,Longitude,Altitude,Speed,Accuracy,(UTC)TimeInMs
# 
# Nav,Svid,Type,Status,MessageId,Sub-messageId,Data(Bytes)
# 
Fix,gps,34.486436,109.464218,360.129730,0.381129,4.000000,1627820115999
Raw,1933462476,1463824000000,,,-1311853870175751726,0.0,14.431160483430565,,,0,10,0.0,16431,44133931365479,6,44.212501525878906,-359.3330773252726,0.032044369723581184,4,-606808.9849955884,3.4028234663852886E38,1.57542003E9,,,,0,,1,,1.57542003E9
Raw,1933462477,1463824000000,,,-1311853870175751726,0.0,14.431160483430565,,,0,12,0.0,16431,44133923373292,15,35.60152053833008,-487.75485327689603,0.0779909867762763,4,-745100.587195829,3.4028234663852886E38,1.57542003E9,,,,0,,1,,1.57542003E9
Raw,1933462477,1463824000000,,,-1311853870175751726,0.0,14.431160483430565,,,0,15,0.0,16431,44133916545140,17,34.612030029296875,415.6655839398693,0.08969757835158482,4,706475.1218666409,3.4028234663852886E38,1.57542003E9,,,,0,,1,,1.57542003E9
Raw,1933462477,1463824000000,,,-1311853870175751726,0.0,14.431160483430565,,,0,18,0.0,16431,44133921433408,9,39.56907653808594,561.5916324072168,0.04926667767708828,1,789568.9562998478,9.547987719997764E-4,1.57542003E9,,,,0,,1,,1.57542003E9
Raw,1933462477,1463824000000,,,-1311853870175751726,0.0,14.431160483430565,,,0,23,0.0,16431,44133931389703,13,37.086463928222656,98.22395261714166,0.06727239119679804,1,41334.82272431134,0.0012706987326964736,1.57542003E9,,,,0,,1,,1.57542003E9
Raw,1933462477,1463824000000,,,-1311853870175751726,0.0,14.431160483430565,,,0,24,0.0,16431,44133926285872,18,34.25247573852539,451.8972460885516,0.09151737849964431,4,537812.3607592616,3.4028234663852886E38,1.57542003E9,,,,0,,1,,1.57542003E9
Raw,1933462477,1463824000000,,,-1311853870175751726,0.0,14.431160483430565,,,0,25,0.0,16431,44133922505353,12,37.58489990234375,-710.7186711087302,0.06203686073590031,4,-814028.6677826935,3.4028234663852886E38,1.57542003E9,,,,0,,1,,1.57542003E9
Raw,1933462477,1463824000000,,,-1311853870175751726,0.0,14.431160483430565,,,0,31,0.0,16,1463017526956,1000000000,23.62812614440918,-834.5065621890558,2.99792458E8,2,-14.161373930296376,3.4028234663852886E38,1.57542003E9,,,,0,,1,,1.57542003E9
Raw,1933462478,1463824000000,,,-1311853870175751726,0.0,14.431160483430565,,,0,32,0.0,16431,44133926802680,6,45.93117141723633,-404.15760841248584,0.031223634464855224,4,-621774.2436573565,3.4028234663852886E38,1.57542003E9,,,,0,,1,,1.57542003E9
Raw,1933462478,1463824000000,,,-1311853870175751726,0.0,14.431160483430565,,,0,10,0.0,32995,54915929994171,33,38.2366943359375,-794.3009878571834,0.05893157949816896,1,-1244356.0776639485,0.0010973208118230104,1.59806246E9,,,,0,,3,,1.59806246E9
Raw,1933462478,1463824000000,,,-1311853870175751726,0.0,14.431160483430565,,,0,9,0.0,32995,54915933585480,33,35.56612777709961,-130.61406180254016,0.08014386472027124,4,-367210.9891065869,3.4028234663852886E38,1.59862502E9,,,,0,,3,,1.59862502E9
Raw,1933462478,1463824000000,,,-1311853870175751726,0.0,14.431160483430565,,,0,16,0.0,32995,54915925158691,114,24.3203182220459,520.1389809911748,0.2845320296132019,4,542952.2799332371,3.4028234663852886E38,1.60143744E9,,,,0,,3,,1.60143744E9
Raw,1933462478,1463824000000,,,-1311853870175751726,0.0,14.431160483430565,,,0,23,0.0,32961,54915924498178,33,36.58335876464844,-29.981139856830936,0.0699222231427803,4,-5448.084961115869,3.4028234663852886E38,1.60368755E9,,,,0,,3,,1.60368755E9
Raw,1933462478,1463824000000,,,-1311853870175751726,0.0,14.431160483430565,,,0,7,0.0,32995,54915932716174,33,36.04973602294922,-180.62389782513378,0.07577958785651845,4,-310502.9438489631,3.4028234663852886E38,1.60481254E9,,,,0,,3,,1.60481254E9
Raw,1933462478,1463824000000,,,-1311853870175751726,0.0,14.431160483430565,,,0,8,0.0,16,7126630,1000000000,16.36333465576172,-562.6686721157942,2.99792458E8,4,-524741.8546224796,3.4028234663852886E38,1.60537498E9,,,,0,,3,,1.60537498E9
Raw,1933462479,1463824000000,,,-1311853870175751726,0.0,14.431160483430565,,,0,193,0.0,35,9175832,166,34.17758560180664,-252.7782135304343,0.09281989249666533,4,-358690.67157584836,3.4028234663852886E38,1.57542003E9,,,,1,,4,,1.57542003E9
Raw,1933462479,1463824000000,,,-1311853870175751726,0.0,14.431160483430565,,,0,194,0.0,35,12313703,17,34.73143005371094,-105.27195752824906,0.08775251519070931,4,-45455.20445474416,3.4028234663852886E38,1.57542003E9,,,,0,,4,,1.57542003E9
Raw,1933462479,1463824000000,,,-1311853870175751726,0.0,14.431160483430565,,,0,6,0.0,16431,44119878533608,7,35.9046745300293,-78.19898422006116,0.07806366994466662,4,-92586.39291007562,3.4028234663852886E38,1.56109798E9,,,,0,,5,,1.56109798E9
Raw,1933462479,1463824000000,,,-1311853870175751726,0.0,14.431160483430565,,,0,14,0.0,16431,44119924499293,166,34.71501159667969,122.78037106244068,0.08650873019225713,4,121889.5994369307,3.4028234663852886E38,1.56109798E9,,,,1,,5,,1.56109798E9
Raw,1933462479,1463824000000,,,-1311853870175751726,0.0,14.431160483430565,,,0,16,0.0,16431,44119877892834,7,36.16270446777344,-76.9405491572553,0.07576108214770333,4,-91743.76021838617,3.4028234663852886E38,1.56109798E9,,,,0,,5,,1.56109798E9
Raw,1933462479,1463824000000,,,-1311853870175751726,0.0,14.431160483430565,,,0,24,0.0,16431,44119924180029,166,36.34829330444336,8.890883275674494,0.07176094504526676,4,-83368.87569979024,3.4028234663852886E38,1.56109798E9,,,,1,,5,,1.56109798E9
Raw,1933462479,1463824000000,,,-1311853870175751726,0.0,14.431160483430565,,,0,25,0.0,16431,44119922545090,6,39.65770721435547,-594.3177434902454,0.04896912601594877,1,-588470.4628633478,9.537762962281704E-4,1.56109798E9,,,,0,,5,,1.56109798E9
Raw,1933462480,1463824000000,,,-1311853870175751726,0.0,14.431160483430565,,,0,26,0.0,16431,44119915493487,166,26.67527198791504,422.69808985387294,0.2190412081331904,4,518218.7907834026,3.4028234663852886E38,1.56109798E9,,,,1,,5,,1.56109798E9
Raw,1933462480,1463824000000,,,-1311853870175751726,0.0,14.431160483430565,,,0,27,0.0,16431,44119913225304,7,35.42721939086914,108.26190919162565,0.08133170822575397,4,66434.28584460169,3.4028234663852886E38,1.56109798E9,,,,0,,5,,1.56109798E9
Raw,1933462480,1463824000000,,,-1311853870175751726,0.0,14.431160483430565,,,0,33,0.0,16431,44119925934050,12,31.794551849365234,-123.60678542697752,0.1210175419371799,4,-210535.3201757886,3.4028234663852886E38,1.56109798E9,,,,0,,5,,1.56109798E9
Fix,gps,34.486435,109.464215,360.087830,0.456955,4.000000,1627820116999
Raw,1933463534,1464824000000,,,-1311853870175752111,0.0,13.76891594094293,,,0,10,0.0,16431,44134931366693,6,43.29462432861328,-359.0165876340018,0.033959758431191436,4,-607168.2324759897,3.4028234663852886E38,1.57542003E9,,,,0,,1,,1.57542003E9
Raw,1933463534,1464824000000,,,-1311853870175752111,0.0,13.76891594094293,,,0,12,0.0,16431,44134923374923,23,32.02908706665039,-487.6140586490003,0.11736165761581308,4,-745588.5964971859,3.4028234663852886E38,1.57542003E9,,,,0,,1,,1.57542003E9
Raw,1933463534,1464824000000,,,-1311853870175752111,0.0,13.76891594094293,,,0,15,0.0,16431,44134916543742,16,35.333980560302734,415.8169441292871,0.08278067027814645,4,706890.4302316329,3.4028234663852886E38,1.57542003E9,,,,0,,1,,1.57542003E9
Raw,1933463534,1464824000000,,,-1311853870175752111,0.0,13.76891594094293,,,0,18,0.0,16431,44134921431535,6,43.3007926940918,560.9085177311301,0.03215000994511426,1,790130.1104896034,6.549451500177383E-4,1.57542003E9,,,,0,,1,,1.57542003E9
Raw,1933463534,1464824000000,,,-1311853870175752111,0.0,13.76891594094293,,,0,23,0.0,16431,44134931389375,18,34.22852325439453,98.2845171423827,0.09268498554656662,4,41433.128784554625,3.4028234663852886E38,1.57542003E9,,,,0,,1,,1.57542003E9
Raw,1933463535,1464824000000,,,-1311853870175752111,0.0,13.76891594094293,,,0,24,0.0,16431,44134926284377,22,32.5804328918457,452.28837635960735,0.11070421222774929,4,538264.4429476417,3.4028234663852886E38,1.57542003E9,,,,0,,1,,1.57542003E9
Raw,1933463535,1464824000000,,,-1311853870175752111,0.0,13.76891594094293,,,0,25,0.0,16431,44134922507697,14,36.507408142089844,-710.7413018598613,0.07017115155326281,4,-814739.7534599502,3.4028234663852886E38,1.57542003E9,,,,0,,1,,1.57542003E9
Raw,1933463535,1464824000000,,,-1311853870175752111,0.0,13.76891594094293,,,0,31,0.0,16,1464017529679,1000000000,28.567237854003906,-834.5065621890558,2.99792458E8,2,-14.180951796145841,3.4028234663852886E38,1.57542003E9,,,,0,,1,,1.57542003E9
Raw,1933463535,1464824000000,,,-1311853870175752111,0.0,13.76891594094293,,,0,32,0.0,16431,44134926804009,6,45.29920196533203,-403.6900311914494,0.031223873691082038,4,-622178.2931680954,3.4028234663852886E38,1.57542003E9,,,,0,,1,,1.57542003E9
Raw,1933463536,1464824000000,,,-1311853870175752111,0.0,13.76891594094293,,,0,10,0.0,32995,54916929996855,33,39.65733337402344,-794.7509444481975,0.05031160119398806,1,-1245150.5769560519,9.317548829130828E-4,1.59806246E9,,,,0,,3,,1.59806246E9
Raw,1933463536,1464824000000,,,-1311853870175752111,0.0,13.76891594094293,,,0,9,0.0,32995,54916933585815,40,33.2942008972168,-130.52508102917324,0.10337332212869499,4,-367341.7339158107,3.4028234663852886E38,1.59862502E9,,,,0,,3,,1.59862502E9
Raw,1933463536,1464824000000,,,-1311853870175752111,0.0,13.76891594094293,,,0,16,0.0,32995,54916925156870,121,23.85391616821289,521.2720181758191,0.3001765428301508,4,543473.0732151846,3.4028234663852886E38,1.60143744E9,,,,0,,3,,1.60143744E9
Raw,1933463536,1464824000000,,,-1311853870175752111,0.0,13.76891594094293,,,0,23,0.0,32961,54916924498289,33,36.46119689941406,-29.030190326313274,0.07090113686290384,4,-5477.932529657399,3.4028234663852886E38,1.60368755E9,,,,0,,3,,1.60368755E9
Raw,1933463536,1464824000000,,,-1311853870175752111,0.0,13.76891594094293,,,0,7,0.0,32995,54916932716795,41,33.10504150390625,-180.45334921269364,0.10543913836795404,4,-310682.50390717713,3.4028234663852886E38,1.60481254E9,,,,0,,3,,1.60481254E9
Raw,1933463536,1464824000000,,,-1311853870175752111,0.0,13.76891594094293,,,0,8,0.0,16,7128625,1000000000,16.204362869262695,-562.3461157472623,2.99792458E8,4,-524291.9411174891,3.4028234663852886E38,1.60537498E9,,,,0,,3,,1.60537498E9
Raw,1933463537,1464824000000,,,-1311853870175752111,0.0,13.76891594094293,,,0,193,0.0,35,9176627,29,29.959213256835938,-253.17266684100105,0.1498231837930286,4,-358943.73853798414,3.4028234663852886E38,1.57542003E9,,,,0,,4,,1.57542003E9
Raw,1933463537,1464824000000,,,-1311853870175752111,0.0,13.76891594094293,,,0,194,0.0,35,12314020,20,33.105735778808594,-104.8801370874487,0.10535843384016724,4,-45558.8018601193,3.4028234663852886E38,1.57542003E9,,,,0,,4,,1.57542003E9
Raw,1933463537,1464824000000,,,-1311853870175752111,0.0,13.76891594094293,,,0,6,0.0,16431,44120878533865,8,35.29376983642578,-78.04194930163231,0.08350894980077889,4,-92664.56994131597,3.4028234663852886E38,1.56109798E9,,,,0,,5,,1.56109798E9
Raw,1933463541,1464824000000,,,-1311853870175752111,0.0,13.76891594094293,,,0,14,0.0,16431,44120924498877,166,30.141916275024414,122.71851140385178,0.14589761038514792,4,122013.39228272892,3.4028234663852886E38,1.56109798E9,,,,1,,5,,1.56109798E9
Raw,1933463541,1464824000000,,,-1311853870175752111,0.0,13.76891594094293,,,0,16,0.0,16431,44120877893071,7,35.936222076416016,-76.56646863507507,0.07767752969139574,4,-91820.64638704371,3.4028234663852886E38,1.56109798E9,,,,0,,5,,1.56109798E9
Raw,1933463541,1464824000000,,,-1311853870175752111,0.0,13.76891594094293,,,0,24,0.0,16431,44120924179995,166,31.769451141357422,9.164478597796204,0.12104917804550502,4,-83360.44005830272,3.4028234663852886E38,1.56109798E9,,,,1,,5,,1.56109798E9
Raw,1933463542,1464824000000,,,-1311853870175752111,0.0,13.76891594094293,,,0,25,0.0,16431,44120922547084,6,43.017425537109375,-594.6584998905605,0.033408298293595554,1,-589065.0129272374,6.828721379861236E-4,1.56109798E9,,,,0,,5,,1.56109798E9
Raw,1933463542,1464824000000,,,-1311853870175752111,0.0,13.76891594094293,,,0,26,0.0,16431,44120915492070,22,26.26158332824707,422.9046636228577,0.22958987820342047,4,518641.5291492819,3.4028234663852886E38,1.56109798E9,,,,0,,5,,1.56109798E9
Raw,1933463542,1464824000000,,,-1311853870175752111,0.0,13.76891594094293,,,0,27,0.0,16431,44120913224950,7,35.98869705200195,108.74541144047237,0.0763893775888958,4,66542.64111756091,3.4028234663852886E38,1.56109798E9,,,,0,,5,,1.56109798E9
Raw,1933463542,1464824000000,,,-1311853870175752111,0.0,13.76891594094293,,,0,33,0.0,16431,44120925934424,11,32.18113708496094,-123.23820070091159,0.11579601141112095,4,-210658.712916061,3.4028234663852886E38,1.56109798E9,,,,0,,5,,1.56109798E9
Fix,gps,34.486434,109.464211,360.001495,0.513457,4.000000,1627820117999
Raw,1933464521,1465824000000,,,-1311853870175752499,0.0,13.411998007315445,,,0,10,0.0,16431,44135931367904,7,41.90747833251953,-359.206699576486,0.03948640224738528,4,-607527.4881307518,3.4028234663852886E38,1.57542003E9,,,,0,,1,,1.57542003E9
Raw,1933464521,1465824000000,,,-1311853870175752499,0.0,13.411998007315445,,,0,12,0.0,16431,44135923376582,28,30.258663177490234,-488.9903423258479,0.14375865332732551,4,-746075.8971353901,3.4028234663852886E38,1.57542003E9,,,,0,,1,,1.57542003E9
Raw,1933464526,1465824000000,,,-1311853870175752499,0.0,13.411998007315445,,,0,15,0.0,16431,44135916542385,22,32.468055725097656,416.9134108380824,0.11397627783035935,4,707305.7872923054,3.4028234663852886E38,1.57542003E9,,,,0,,1,,1.57542003E9
Raw,1933464527,1465824000000,,,-1311853870175752499,0.0,13.411998007315445,,,0,18,0.0,16431,44135921429652,6,43.7449836730957,561.4497471407124,0.030559713037919975,1,790691.5037443222,6.222935044206679E-4,1.57542003E9,,,,0,,1,,1.57542003E9
Raw,1933464527,1465824000000,,,-1311853870175752499,0.0,13.411998007315445,,,0,23,0.0,16431,44135931389041,17,34.49673843383789,98.48874774248151,0.08992888306994934,4,41531.53041055531,3.4028234663852886E38,1.57542003E9,,,,0,,1,,1.57542003E9
Raw,1933464527,1465824000000,,,-1311853870175752499,0.0,13.411998007315445,,,0,24,0.0,16431,44135926282567,41,27.196495056152344,453.7349039793485,0.20478906644451,4,538717.0201672224,3.4028234663852886E38,1.57542003E9,,,,0,,1,,1.57542003E9
Raw,1933464527,1465824000000,,,-1311853870175752499,0.0,13.411998007315445,,,0,25,0.0,16431,44135922510087,10,38.96340560913086,-710.7526854003399,0.05299973429899729,4,-815450.5760198018,3.4028234663852886E38,1.57542003E9,,,,0,,1,,1.57542003E9
Raw,1933464527,1465824000000,,,-1311853870175752499,0.0,13.411998007315445,,,0,31,0.0,16,1465017532516,1000000000,28.36556625366211,-834.5065621890558,2.99792458E8,2,-14.174425840818378,3.4028234663852886E38,1.57542003E9,,,,0,,1,,1.57542003E9
Raw,1933464527,1465824000000,,,-1311853870175752499,0.0,13.411998007315445,,,0,32,0.0,16431,44135926805408,10,39.08522033691406,-404.21203809555277,0.053040527571239254,4,-622582.4333039242,3.4028234663852886E38,1.57542003E9,,,,0,,1,,1.57542003E9
Raw,1933464528,1465824000000,,,-1311853870175752499,0.0,13.411998007315445,,,0,10,0.0,32995,54917929999501,33,39.281341552734375,-794.1389598588739,0.052458205170156286,1,-1245944.7592643811,9.729740559123456E-4,1.59806246E9,,,,0,,3,,1.59806246E9
Raw,1933464528,1465824000000,,,-1311853870175752499,0.0,13.411998007315445,,,0,9,0.0,32995,54917933586303,35,34.52186965942383,-130.53362720514633,0.09007025536885621,4,-367472.2830736631,3.4028234663852886E38,1.59862502E9,,,,0,,3,,1.59862502E9
Raw,1933464528,1465824000000,,,-1311853870175752499,0.0,13.411998007315445,,,0,16,0.0,32995,54917925155172,128,23.325260162353516,520.6474571600386,0.3189553107012404,4,543994.3508087129,3.4028234663852886E38,1.60143744E9,,,,0,,3,,1.60143744E9
Raw,1933464528,1465824000000,,,-1311853870175752499,0.0,13.411998007315445,,,0,23,0.0,32961,54917924498394,33,40.668556213378906,-29.726141307587866,0.04399094888917354,4,-5507.7198403712055,3.4028234663852886E38,1.60368755E9,,,,0,,3,,1.60368755E9
Raw,1933464528,1465824000000,,,-1311853870175752499,0.0,13.411998007315445,,,0,7,0.0,32995,54917932717355,46,32.09159469604492,-180.64980049209112,0.11820494046647329,4,-310863.1711496026,3.4028234663852886E38,1.60481254E9,,,,0,,3,,1.60481254E9
Raw,1933464529,1465824000000,,,-1311853870175752499,0.0,13.411998007315445,,,0,8,0.0,16,7130508,1000000000,18.352493286132812,-562.5883397657699,2.99792458E8,6,-524741.9961507301,3.4028234663852886E38,1.60537498E9,,,,0,,3,,1.60537498E9
Raw,1933464529,1465824000000,,,-1311853870175752499,0.0,13.411998007315445,,,0,193,0.0,35,9177485,32,29.2004451751709,-253.4463148844227,0.16334934253085398,4,-359197.2256084131,3.4028234663852886E38,1.57542003E9,,,,0,,4,,1.57542003E9
Raw,1933464530,1465824000000,,,-1311853870175752499,0.0,13.411998007315445,,,0,194,0.0,35,12314429,16,35.02613067626953,-106.27060758682393,0.08489914957095357,4,-45664.08249061377,3.4028234663852886E38,1.57542003E9,,,,0,,4,,1.57542003E9
Raw,1933464530,1465824000000,,,-1311853870175752499,0.0,13.411998007315445,,,0,6,0.0,16431,44121878534148,10,32.83414840698242,-78.33477724746217,0.10975329005639106,4,-92742.84171067344,3.4028234663852886E38,1.56109798E9,,,,0,,5,,1.56109798E9
Raw,1933464530,1465824000000,,,-1311853870175752499,0.0,13.411998007315445,,,0,14,0.0,16431,44121924498484,12,31.28740882873535,121.62235995777928,0.12797133661456495,4,122136.74044124188,3.4028234663852886E38,1.56109798E9,,,,0,,5,,1.56109798E9
Raw,1933464530,1465824000000,,,-1311853870175752499,0.0,13.411998007315445,,,0,16,0.0,16431,44121877893340,8,35.40740966796875,-77.03797385922576,0.08235161075955705,4,-91897.64263608103,3.4028234663852886E38,1.56109798E9,,,,0,,5,,1.56109798E9
Raw,1933464530,1465824000000,,,-1311853870175752499,0.0,13.411998007315445,,,0,24,0.0,16431,44121924179964,12,31.397457122802734,8.534331254376262,0.12631310361941156,4,-83351.98634393646,3.4028234663852886E38,1.56109798E9,,,,0,,5,,1.56109798E9
Raw,1933464530,1465824000000,,,-1311853870175752499,0.0,13.411998007315445,,,0,25,0.0,16431,44121922549055,6,42.38977813720703,-594.2705733704179,0.035877776547068585,1,-589659.3205510483,7.340433076024055E-4,1.56109798E9,,,,0,,5,,1.56109798E9
Raw,1933464530,1465824000000,,,-1311853870175752499,0.0,13.411998007315445,,,0,26,0.0,16431,44121915490657,29,23.93430519104004,423.6759496139689,0.29927854998153225,4,519065.4656438966,3.4028234663852886E38,1.56109798E9,,,,0,,5,,1.56109798E9
Raw,1933464531,1465824000000,,,-1311853870175752499,0.0,13.411998007315445,,,0,27,0.0,16431,44121913224618,11,31.966886520385742,108.08951160591914,0.11997249360659656,4,66650.92803947967,3.4028234663852886E38,1.56109798E9,,,,0,,5,,1.56109798E9
Raw,1933464531,1465824000000,,,-1311853870175752499,0.0,13.411998007315445,,,0,33,0.0,16431,44121925934881,15,29.64301300048828,-123.36226936326875,0.15473353716415994,4,-210782.0802957461,3.4028234663852886E38,1.56109798E9,,,,0,,5,,1.56109798E9
Fix,gps,34.486432,109.464208,359.903473,0.425007,4.000000,1627820118999
Raw,1933465496,1466824000000,,,-1311853870175752886,0.0,13.242994905150297,,,0,10,0.0,16431,44136931369085,8,40.980712890625,-359.1242200317008,0.043702471182828495,4,-607886.6556515552,3.4028234663852886E38,1.57542003E9,,,,0,,1,,1.57542003E9
Raw,1933465497,1466824000000,,,-1311853870175752886,0.0,13.242994905150297,,,0,12,0.0,16431,44136923378196,35,28.60721206665039,-489.61947039080246,0.17373585466340913,4,-746564.2668727977,3.4028234663852886E38,1.57542003E9,,,,0,,1,,1.57542003E9
Raw,1933465497,1466824000000,,,-1311853870175752886,0.0,13.242994905150297,,,0,15,0.0,16431,44136916540991,30,29.850744247436523,417.0276552323469,0.15300984355243796,4,707721.2171353297,3.4028234663852886E38,1.57542003E9,,,,0,,1,,1.57542003E9
Raw,1933465498,1466824000000,,,-1311853870175752886,0.0,13.242994905150297,,,0,18,0.0,16431,44136921427795,6,43.81654739379883,561.3765380241014,0.030310734701964034,1,791252.9265683062,6.171875284053385E-4,1.57542003E9,,,,0,,1,,1.57542003E9
Raw,1933465498,1466824000000,,,-1311853870175752886,0.0,13.242994905150297,,,0,23,0.0,16431,44136931388709,20,33.186954498291016,98.70461750148286,0.10423202362973039,4,41630.14914650051,3.4028234663852886E38,1.57542003E9,,,,0,,1,,1.57542003E9
Raw,1933465498,1466824000000,,,-1311853870175752886,0.0,13.242994905150297,,,0,24,0.0,16431,44136926281322,63,23.39611053466797,453.43930683392614,0.3165742650227943,4,539171.1705983753,3.4028234663852886E38,1.57542003E9,,,,0,,1,,1.57542003E9
Raw,1933465499,1466824000000,,,-1311853870175752886,0.0,13.242994905150297,,,0,25,0.0,16431,44136922512456,10,38.90227127075195,-710.7236471473825,0.05337132127676564,4,-816161.3004385966,3.4028234663852886E38,1.57542003E9,,,,0,,1,,1.57542003E9
Raw,1933465499,1466824000000,,,-1311853870175752886,0.0,13.242994905150297,,,0,31,0.0,16,1466017535238,1000000000,30.251638412475586,-834.5065621890558,2.99792458E8,2,-14.167899885651703,3.4028234663852886E38,1.57542003E9,,,,0,,1,,1.57542003E9
Raw,1933465499,1466824000000,,,-1311853870175752886,0.0,13.242994905150297,,,0,32,0.0,16431,44136926806738,8,41.18446731567383,-404.21111786922665,0.04191598380690989,4,-622986.610632243,3.4028234663852886E38,1.57542003E9,,,,0,,1,,1.57542003E9
Raw,1933465500,1466824000000,,,-1311853870175752886,0.0,13.242994905150297,,,0,10,0.0,32995,54918930002123,33,38.502315521240234,-793.9883154010431,0.057212258525827536,1,-1246738.8061740766,0.00106427154969424,1.59806246E9,,,,0,,3,,1.59806246E9
Raw,1933465500,1466824000000,,,-1311853870175752886,0.0,13.242994905150297,,,0,9,0.0,32995,54918933586715,38,33.86185073852539,-130.16166831588464,0.09698835333274447,4,-367602.5901775921,3.4028234663852886E38,1.59862502E9,,,,0,,3,,1.59862502E9
Raw,1933465500,1466824000000,,,-1311853870175752886,0.0,13.242994905150297,,,0,16,0.0,32995,54918925153328,62,22.53148078918457,520.689855735953,4.200926905474432,4,544515.0807225993,3.4028234663852886E38,1.60143744E9,,,,0,,3,,1.60143744E9
Raw,1933465501,1466824000000,,,-1311853870175752886,0.0,13.242994905150297,,,0,23,0.0,32961,54918924498464,33,40.159629821777344,-29.522364430191516,0.04659665919801903,4,-5537.386440643629,3.4028234663852886E38,1.60368755E9,,,,0,,3,,1.60368755E9
Raw,1933465501,1466824000000,,,-1311853870175752886,0.0,13.242994905150297,,,0,7,0.0,32995,54918932717947,38,33.88176345825195,-180.5226899704893,0.09661554318087728,4,-311043.74476446956,3.4028234663852886E38,1.60481254E9,,,,0,,3,,1.60481254E9
Raw,1933465501,1466824000000,,,-1311853870175752886,0.0,13.242994905150297,,,0,8,0.0,17,132156,71,20.70040512084961,-562.2329960740631,4.201282907383581,4,-524291.9579298105,3.4028234663852886E38,1.60537498E9,,,,0,,3,,1.60537498E9
Raw,1933465502,1466824000000,,,-1311853870175752886,0.0,13.242994905150297,,,0,193,0.0,35,9178300,34,28.745033264160156,-253.35908083695256,0.17205374897104775,4,-359450.629670038,3.4028234663852886E38,1.57542003E9,,,,0,,4,,1.57542003E9
Raw,1933465502,1466824000000,,,-1311853870175752886,0.0,13.242994905150297,,,0,194,0.0,35,12314762,19,33.836063385009766,-105.95721939909669,0.0970406502661541,4,-45769.9231604008,3.4028234663852886E38,1.57542003E9,,,,0,,4,,1.57542003E9
Raw,1933465502,1466824000000,,,-1311853870175752886,0.0,13.242994905150297,,,0,6,0.0,16431,44122878534407,12,31.536067962646484,-78.27987041000392,0.1269072916413445,4,-92821.0904030436,3.4028234663852886E38,1.56109798E9,,,,0,,5,,1.56109798E9
Raw,1933465502,1466824000000,,,-1311853870175752886,0.0,13.242994905150297,,,0,14,0.0,16431,44122924498079,14,30.052846908569336,121.89762691788576,0.14739291159778833,4,122258.64555821837,3.4028234663852886E38,1.56109798E9,,,,0,,5,,1.56109798E9
Raw,1933465502,1466824000000,,,-1311853870175752886,0.0,13.242994905150297,,,0,16,0.0,16431,44122877893603,9,33.8820686340332,-76.86857552969326,0.09754321672344529,4,-91974.5965346364,3.4028234663852886E38,1.56109798E9,,,,0,,5,,1.56109798E9
Raw,1933465502,1466824000000,,,-1311853870175752886,0.0,13.242994905150297,,,0,24,0.0,16431,44122924179956,14,30.147199630737305,8.719483134359663,0.14575201106282465,4,-83343.36896665485,3.4028234663852886E38,1.56109798E9,,,,0,,5,,1.56109798E9
Raw,1933465503,1466824000000,,,-1311853870175752886,0.0,13.242994905150297,,,0,25,0.0,16431,44122922551040,6,42.99886703491211,-594.1638952815015,0.03347947953732709,1,-590253.5348338303,6.843326846137643E-4,1.56109798E9,,,,0,,5,,1.56109798E9
Raw,1933465504,1466824000000,,,-1311853870175752886,0.0,13.242994905150297,,,0,26,0.0,16431,44122915489238,68,21.324447631835938,423.401176849482,4.2027862632392665,4,519490.8012302101,3.4028234663852886E38,1.56109798E9,,,,0,,5,,1.56109798E9
Raw,1933465504,1466824000000,,,-1311853870175752886,0.0,13.242994905150297,,,0,27,0.0,16431,44122913224190,166,27.019670486450195,108.6935805447153,0.21022625005301565,4,66759.29278266843,3.4028234663852886E38,1.56109798E9,,,,1,,5,,1.56109798E9
Raw,1933465504,1466824000000,,,-1311853870175752886,0.0,13.242994905150297,,,0,33,0.0,16431,44122925935260,13,30.647911071777344,-123.28489366634784,0.1379453395229701,4,-210905.3998337772,3.4028234663852886E38,1.56109798E9,,,,0,,5,,1.56109798E9
Fix,gps,34.486430,109.464204,359.979675,0.363542,4.000000,1627820119999
Raw,1933466532,1467824000000,,,-1311853870175753275,0.0,13.15763763410457,,,0,10,0.0,16431,44137931370280,11,38.19132995605469,-359.16133582685416,0.05947828839487751,1,-608245.7316598098,0.001118920394219458,1.57542003E9,,,,0,,1,,1.57542003E9
Raw,1933466533,1467824000000,,,-1311853870175753275,0.0,13.15763763410457,,,0,12,0.0,16431,44137923379794,35,28.476825714111328,-489.1584370014184,0.1763545788789933,4,-747053.2157426042,3.4028234663852886E38,1.57542003E9,,,,0,,1,,1.57542003E9
Raw,1933466534,1467824000000,,,-1311853870175753275,0.0,13.15763763410457,,,0,15,0.0,16431,44137916539538,34,28.752384185791016,415.6096887111719,0.1732337042517298,4,708136.4927141251,3.4028234663852886E38,1.57542003E9,,,,0,,1,,1.57542003E9
Raw,1933466534,1467824000000,,,-1311853870175753275,0.0,13.15763763410457,,,0,18,0.0,16431,44137921425925,6,43.95196533203125,561.3455229886656,0.03025649067509094,1,791814.3091151754,6.076398422010243E-4,1.57542003E9,,,,0,,1,,1.57542003E9
Raw,1933466534,1467824000000,,,-1311853870175753275,0.0,13.15763763410457,,,0,23,0.0,16431,44137931388377,17,34.43424606323242,99.04612371584142,0.09056332766528497,4,41728.904145892986,3.4028234663852886E38,1.57542003E9,,,,0,,1,,1.57542003E9
Raw,1933466534,1467824000000,,,-1311853870175753275,0.0,13.15763763410457,,,0,24,0.0,16431,44137926279866,166,26.03499412536621,452.41311815048084,0.23392727019973547,4,539622.8693704051,3.4028234663852886E38,1.57542003E9,,,,1,,1,,1.57542003E9
Raw,1933466535,1467824000000,,,-1311853870175753275,0.0,13.15763763410457,,,0,25,0.0,16431,44137922514823,14,36.01036071777344,-710.367212817067,0.07427852025169779,4,-816871.8928077633,3.4028234663852886E38,1.57542003E9,,,,0,,1,,1.57542003E9
Raw,1933466535,1467824000000,,,-1311853870175753275,0.0,13.15763763410457,,,0,31,0.0,16,1467017538082,1000000000,29.790006637573242,-834.3209491308326,2.99792458E8,2,-14.15822420896255,3.4028234663852886E38,1.57542003E9,,,,0,,1,,1.57542003E9
Raw,1933466535,1467824000000,,,-1311853870175753275,0.0,13.15763763410457,,,0,32,0.0,16431,44137926808077,7,42.011051177978516,-404.3966286800803,0.03822239743219716,1,-623390.8849496283,7.597870426252484E-4,1.57542003E9,,,,0,,1,,1.57542003E9
Raw,1933466535,1467824000000,,,-1311853870175753275,0.0,13.15763763410457,,,0,10,0.0,32995,54919930004811,33,41.09893798828125,-793.8743436664308,0.0428939239803017,1,-1247532.744836936,8.319556945934892E-4,1.59806246E9,,,,0,,3,,1.59806246E9
Raw,1933466536,1467824000000,,,-1311853870175753275,0.0,13.15763763410457,,,0,9,0.0,32995,54919933587223,49,31.711288452148438,-129.42493341507344,0.12354955392634215,4,-367732.59529753064,3.4028234663852886E38,1.59862502E9,,,,0,,3,,1.59862502E9
Raw,1933466536,1467824000000,,,-1311853870175753275,0.0,13.15763763410457,,,0,16,0.0,32995,54919925151714,66,21.73141860961914,520.4481429542932,4.200926639205241,4,545035.8521235124,3.4028234663852886E38,1.60143744E9,,,,0,,3,,1.60143744E9
Raw,1933466536,1467824000000,,,-1311853870175753275,0.0,13.15763763410457,,,0,23,0.0,32961,54919924498600,33,42.937355041503906,-29.977371615231633,0.034064464630325905,1,-5567.0782821312705,6.708930595777929E-4,1.60368755E9,,,,0,,3,,1.60368755E9
Raw,1933466536,1467824000000,,,-1311853870175753275,0.0,13.15763763410457,,,0,7,0.0,32995,54919932718543,43,32.84628677368164,-180.70492886551676,0.10855856515648832,4,-311224.26662013,3.4028234663852886E38,1.60481254E9,,,,0,,3,,1.60481254E9
Raw,1933466536,1467824000000,,,-1311853870175753275,0.0,13.15763763410457,,,0,8,0.0,17,133963,77,19.60689926147461,-562.3787326581546,4.201283173652772,4,-524853.9099095992,3.4028234663852886E38,1.60537498E9,,,,0,,3,,1.60537498E9
Raw,1933466537,1467824000000,,,-1311853870175753275,0.0,13.15763763410457,,,0,193,0.0,35,9179119,38,27.860950469970703,-252.95605578857032,0.19031154452697785,4,-359703.93022742466,3.4028234663852886E38,1.57542003E9,,,,0,,4,,1.57542003E9
Raw,1933466537,1467824000000,,,-1311853870175753275,0.0,13.15763763410457,,,0,194,0.0,35,12315084,166,30.084108352661133,-105.62363735587968,0.14827236545394284,4,-45875.64175224344,3.4028234663852886E38,1.57542003E9,,,,1,,4,,1.57542003E9
Raw,1933466537,1467824000000,,,-1311853870175753275,0.0,13.15763763410457,,,0,6,0.0,16431,44123878534654,14,30.122236251831055,-78.35447690733236,0.14875138372960328,1,-92899.33673400327,0.0026955276262015104,1.56109798E9,,,,0,,5,,1.56109798E9
Raw,1933466537,1467824000000,,,-1311853870175753275,0.0,13.15763763410457,,,0,14,0.0,16431,44123924497702,24,25.670536041259766,121.96788790200753,0.24358265705767312,4,122381.22579714781,3.4028234663852886E38,1.56109798E9,,,,0,,5,,1.56109798E9
Raw,1933466538,1467824000000,,,-1311853870175753275,0.0,13.15763763410457,,,0,16,0.0,16431,44123877893852,10,33.234371185302734,-77.10644551438008,0.10484583236271822,1,-92051.59277044408,0.001998082036152482,1.56109798E9,,,,0,,5,,1.56109798E9
Raw,1933466538,1467824000000,,,-1311853870175753275,0.0,13.15763763410457,,,0,24,0.0,16431,44123924179899,20,27.04092025756836,9.207912428327461,0.20809152001860964,4,-83334.70442886901,3.4028234663852886E38,1.56109798E9,,,,0,,5,,1.56109798E9
Raw,1933466538,1467824000000,,,-1311853870175753275,0.0,13.15763763410457,,,0,25,0.0,16431,44123922553026,6,44.37721252441406,-594.1769829448062,0.03045922970174579,1,-590847.7140756039,5.839155055582523E-4,1.56109798E9,,,,0,,5,,1.56109798E9
Raw,1933466538,1467824000000,,,-1311853870175753275,0.0,13.15763763410457,,,0,26,0.0,16431,44123915487811,76,19.698135375976562,423.13397039034317,4.202785996970075,4,519912.99625826837,3.4028234663852886E38,1.56109798E9,,,,0,,5,,1.56109798E9
Raw,1933466538,1467824000000,,,-1311853870175753275,0.0,13.15763763410457,,,0,27,0.0,16431,44123913223845,166,25.722806930541992,108.64469778144746,0.2436957049713252,4,66868.84871542676,3.4028234663852886E38,1.56109798E9,,,,1,,5,,1.56109798E9
Raw,1933466539,1467824000000,,,-1311853870175753275,0.0,13.15763763410457,,,0,33,0.0,16431,44123925935693,13,31.182849884033203,-123.14968004070772,0.1297698601900344,4,-211028.65204783296,3.4028234663852886E38,1.56109798E9,,,,0,,5,,1.56109798E9
Fix,gps,34.486428,109.464201,359.995361,0.316580,4.000000,1627820120999
Raw,1933467458,1468824000000,,,-1311853870175753662,0.0,13.043860280713831,,,0,10,0.0,16431,44138931371467,9,39.79380416870117,-359.45536517927644,0.04980257770880095,4,-608605.0724306894,3.4028234663852886E38,1.57542003E9,,,,0,,1,,1.57542003E9
Raw,1933467458,1468824000000,,,-1311853870175753662,0.0,13.043860280713831,,,0,12,0.0,16431,44138923381451,32,29.144561767578125,-488.03576088355703,0.1633504908167427,4,-747541.2885621439,3.4028234663852886E38,1.57542003E9,,,,0,,1,,1.57542003E9
Raw,1933467458,1468824000000,,,-1311853870175753662,0.0,13.043860280713831,,,0,15,0.0,16431,44138916538211,36,28.274179458618164,415.52298294177785,0.18286993636969784,4,708552.3797293537,3.4028234663852886E38,1.57542003E9,,,,0,,1,,1.57542003E9
Raw,1933467459,1468824000000,,,-1311853870175753662,0.0,13.043860280713831,,,0,18,0.0,16431,44138921424033,6,43.84872055053711,561.3817526399494,0.03025614951768922,1,792375.6409605158,6.149056134745479E-4,1.57542003E9,,,,0,,1,,1.57542003E9
Raw,1933467459,1468824000000,,,-1311853870175753662,0.0,13.043860280713831,,,0,23,0.0,16431,44138931388036,16,35.39397048950195,99.17256962954104,0.08130399958800472,4,41827.900016104606,3.4028234663852886E38,1.57542003E9,,,,0,,1,,1.57542003E9
Raw,1933467460,1468824000000,,,-1311853870175753662,0.0,13.043860280713831,,,0,24,0.0,16431,44138926278128,62,22.419462203979492,452.0448572077519,4.2011292700600364,4,540075.2988093145,3.4028234663852886E38,1.57542003E9,,,,0,,1,,1.57542003E9
Raw,1933467460,1468824000000,,,-1311853870175753662,0.0,13.043860280713831,,,0,25,0.0,16431,44138922517208,18,33.9587516784668,-710.1786005026697,0.09394831636786355,4,-817582.1188459046,3.4028234663852886E38,1.57542003E9,,,,0,,1,,1.57542003E9
Raw,1933467460,1468824000000,,,-1311853870175753662,0.0,13.043860280713831,,,0,31,0.0,16,1468017540886,1000000000,14.043936729431152,-834.692243412192,2.99792458E8,2,-14.184106909117725,3.4028234663852886E38,1.57542003E9,,,,0,,1,,1.57542003E9
Raw,1933467461,1468824000000,,,-1311853870175753662,0.0,13.043860280713831,,,0,32,0.0,16431,44138926809424,7,42.08600997924805,-404.5860930558906,0.037904725805268547,1,-623795.5896248057,7.532583549618721E-4,1.57542003E9,,,,0,,1,,1.57542003E9
Raw,1933467461,1468824000000,,,-1311853870175753662,0.0,13.043860280713831,,,0,10,0.0,32995,54920930007435,33,41.84952163696289,-793.7052265171646,0.03949237250191534,1,-1248326.5479774957,7.630814798176289E-4,1.59806246E9,,,,0,,3,,1.59806246E9
Raw,1933467461,1468824000000,,,-1311853870175753662,0.0,13.043860280713831,,,0,9,0.0,32995,54920933587554,50,31.475181579589844,-129.6824348947174,0.1268867223462946,4,-367862.06367609475,3.4028234663852886E38,1.59862502E9,,,,0,,3,,1.59862502E9
Raw,1933467461,1468824000000,,,-1311853870175753662,0.0,13.043860280713831,,,0,16,0.0,32995,54920925149979,108,24.80049705505371,521.59242734959,0.2692776007619242,4,545555.8025264845,3.4028234663852886E38,1.60143744E9,,,,0,,3,,1.60143744E9
Raw,1933467461,1468824000000,,,-1311853870175753662,0.0,13.043860280713831,,,0,23,0.0,32961,54920924498646,33,42.72502517700195,-30.085994534323362,0.03488743821444362,1,-5597.1800852905735,6.874954560771585E-4,1.60368755E9,,,,0,,3,,1.60368755E9
Raw,1933467461,1468824000000,,,-1311853870175753662,0.0,13.043860280713831,,,0,7,0.0,32995,54920932719120,53,30.906564712524414,-180.06874573206198,0.1351496627877536,4,-311404.5299301158,3.4028234663852886E38,1.60481254E9,,,,0,,3,,1.60481254E9
Raw,1933467462,1468824000000,,,-1311853870175753662,0.0,13.043860280713831,,,0,8,0.0,16,7135940,1000000000,21.60574722290039,-562.206786664997,2.99792458E8,6,-524742.2517640418,3.4028234663852886E38,1.60537498E9,,,,0,,3,,1.60537498E9
Raw,1933467462,1468824000000,,,-1311853870175753662,0.0,13.043860280713831,,,0,193,0.0,35,9179963,42,27.006315231323242,-253.03652446842068,0.20981857527887537,4,-359957.0216353459,3.4028234663852886E38,1.57542003E9,,,,0,,4,,1.57542003E9
Raw,1933467462,1468824000000,,,-1311853870175753662,0.0,13.043860280713831,,,0,194,0.0,35,12315416,35,28.504060745239258,-105.40729044248701,0.17741170085323255,4,-45981.06789983499,3.4028234663852886E38,1.57542003E9,,,,0,,4,,1.57542003E9
Raw,1933467462,1468824000000,,,-1311853870175753662,0.0,13.043860280713831,,,0,3,0.0,16,611595641,1000000000,33.72048568725586,-116.53506764674438,2.99792458E8,6,-71.08417835000489,3.4028234663852886E38,1.56109798E9,,,,0,,5,,1.56109798E9
Raw,1933467462,1468824000000,,,-1311853870175753662,0.0,13.043860280713831,,,0,6,0.0,16431,44124878534905,13,30.632492065429688,-78.62826128058009,0.14045493497456585,4,-92977.79097706049,3.4028234663852886E38,1.56109798E9,,,,0,,5,,1.56109798E9
Raw,1933467462,1468824000000,,,-1311853870175753662,0.0,13.043860280713831,,,0,14,0.0,16431,44124924497257,24,25.702804565429688,123.91886144012864,0.24268236763727713,4,122505.72220182902,3.4028234663852886E38,1.56109798E9,,,,0,,5,,1.56109798E9
Raw,1933467462,1468824000000,,,-1311853870175753662,0.0,13.043860280713831,,,0,16,0.0,16431,44124877894122,8,34.51183319091797,-77.1913704754208,0.09094640582285263,1,-92128.80479645378,0.0017248060321435332,1.56109798E9,,,,0,,5,,1.56109798E9
Raw,1933467463,1468824000000,,,-1311853870175753662,0.0,13.043860280713831,,,0,24,0.0,16431,44124924179857,20,27.050134658813477,9.573580974207161,0.2078716981591322,4,-83325.82754761515,3.4028234663852886E38,1.56109798E9,,,,0,,5,,1.56109798E9
Raw,1933467463,1468824000000,,,-1311853870175753662,0.0,13.043860280713831,,,0,25,0.0,16431,44124922555011,6,45.087730407714844,-594.0468561258022,0.030459587500971982,1,-591441.8594435033,5.38051943294704E-4,1.56109798E9,,,,0,,5,,1.56109798E9
Raw,1933467463,1468824000000,,,-1311853870175753662,0.0,13.043860280713831,,,0,26,0.0,16431,44124915486348,166,19.70903778076172,423.1858779716274,4.202785730700883,4,520335.7118980094,3.4028234663852886E38,1.56109798E9,,,,1,,5,,1.56109798E9
Raw,1933467463,1468824000000,,,-1311853870175753662,0.0,13.043860280713831,,,0,27,0.0,16431,44124913223521,13,30.55594825744629,107.1937735248149,0.14071323273222724,4,66976.45362463393,3.4028234663852886E38,1.56109798E9,,,,0,,5,,1.56109798E9
Raw,1933467463,1468824000000,,,-1311853870175753662,0.0,13.043860280713831,,,0,33,0.0,16431,44124925936079,13,30.852590560913086,-122.84021985609473,0.13475773950047798,4,-211151.76375491262,3.4028234663852886E38,1.56109798E9,,,,0,,5,,1.56109798E9
Fix,gps,34.486425,109.464195,360.049652,0.451132,4.000000,1627820121999
Raw,1933468554,1469824000000,,,-1311853870175754050,0.0,13.063832911898425,,,0,10,0.0,16431,44139931372666,8,40.68500900268555,-359.0650528871772,0.0451457292498825,4,-608964.1176381506,3.4028234663852886E38,1.57542003E9,,,,0,,1,,1.57542003E9
Raw,1933468554,1469824000000,,,-1311853870175754050,0.0,13.063832911898425,,,0,12,0.0,16431,44139923383056,37,27.946231842041016,-488.30729581467426,0.18742570238676104,4,-748028.4492400545,3.4028234663852886E38,1.57542003E9,,,,0,,1,,1.57542003E9
Raw,1933468555,1469824000000,,,-1311853870175754050,0.0,13.063832911898425,,,0,15,0.0,16431,44139916536774,38,27.789268493652344,415.77400023406835,0.19319841846031205,4,708968.607987043,3.4028234663852886E38,1.57542003E9,,,,0,,1,,1.57542003E9
Raw,1933468555,1469824000000,,,-1311853870175754050,0.0,13.063832911898425,,,0,18,0.0,16431,44139921422172,6,43.59059143066406,560.9614818685666,0.03110180174810892,1,792937.0097854713,6.334536010399461E-4,1.57542003E9,,,,0,,1,,1.57542003E9
Raw,1933468557,1469824000000,,,-1311853870175754050,0.0,13.063832911898425,,,0,23,0.0,16431,44139931387717,18,34.02140426635742,99.02627068491688,0.09487191266343542,1,41927.17224003483,0.0018084042239934206,1.57542003E9,,,,0,,1,,1.57542003E9
Raw,1933468558,1469824000000,,,-1311853870175754050,0.0,13.063832911898425,,,0,24,0.0,16431,44139926276719,66,21.634666442871094,452.9974618675644,4.201129003790845,4,540527.803171822,3.4028234663852886E38,1.57542003E9,,,,0,,1,,1.57542003E9
Raw,1933468558,1469824000000,,,-1311853870175754050,0.0,13.063832911898425,,,0,25,0.0,16431,44139922519548,19,33.835880279541016,-710.005734283186,0.0952807357234644,4,-818292.087617709,3.4028234663852886E38,1.57542003E9,,,,0,,1,,1.57542003E9
Raw,1933468558,1469824000000,,,-1311853870175754050,0.0,13.063832911898425,,,0,31,0.0,16,1469017543610,1000000000,24.518747329711914,-834.8778564704153,2.99792458E8,2,-14.180732126092833,3.4028234663852886E38,1.57542003E9,,,,0,,1,,1.57542003E9
Raw,1933468559,1469824000000,,,-1311853870175754050,0.0,13.063832911898425,,,0,32,0.0,16431,44139926810761,7,42.31875991821289,-404.9896293411207,0.03693512734639434,1,-624200.4471527381,7.333419634960592E-4,1.57542003E9,,,,0,,1,,1.57542003E9
Raw,1933468559,1469824000000,,,-1311853870175754050,0.0,13.063832911898425,,,0,10,0.0,32995,54921930010101,33,40.43743896484375,-793.8743436664308,0.046146764115188144,1,-1249120.1118405792,8.977905381470919E-4,1.59806246E9,,,,0,,3,,1.59806246E9
Raw,1933468559,1469824000000,,,-1311853870175754050,0.0,13.063832911898425,,,0,9,0.0,32995,54921933587991,49,31.573434829711914,-129.24562561130693,0.12548707001981868,4,-367991.29487242753,3.4028234663852886E38,1.59862502E9,,,,0,,3,,1.59862502E9
Raw,1933468559,1469824000000,,,-1311853870175754050,0.0,13.063832911898425,,,0,16,0.0,32995,54921925148181,111,24.606407165527344,522.0344086457778,0.27534113271815885,4,546077.1649552878,3.4028234663852886E38,1.60143744E9,,,,0,,3,,1.60143744E9
Raw,1933468560,1469824000000,,,-1311853870175754050,0.0,13.063832911898425,,,0,23,0.0,32961,54921924498770,33,41.09319305419922,-30.183826095618556,0.04193069517974493,1,-5627.376364570953,8.295860607177019E-4,1.60368755E9,,,,0,,3,,1.60368755E9
Raw,1933468561,1469824000000,,,-1311853870175754050,0.0,13.063832911898425,,,0,7,0.0,32995,54921932719771,56,30.463205337524414,-180.31337256375446,0.14210760127943267,4,-311584.84618059837,3.4028234663852886E38,1.60481254E9,,,,0,,3,,1.60481254E9
Raw,1933468562,1469824000000,,,-1311853870175754050,0.0,13.063832911898425,,,0,8,0.0,17,137800,73,20.411191940307617,-562.7344171744267,4.201283972460347,4,-524291.9350262295,3.4028234663852886E38,1.60537498E9,,,,0,,3,,1.60537498E9
Raw,1933468562,1469824000000,,,-1311853870175754050,0.0,13.063832911898425,,,0,193,0.0,35,9180826,38,27.7231388092041,-253.08942044094408,0.1933290401406087,4,-360209.8409868334,3.4028234663852886E38,1.57542003E9,,,,0,,4,,1.57542003E9
Raw,1933468562,1469824000000,,,-1311853870175754050,0.0,13.063832911898425,,,0,194,0.0,35,12315806,34,28.790563583374023,-105.04444008973104,0.17172721973304284,4,-46085.95911747031,3.4028234663852886E38,1.57542003E9,,,,0,,4,,1.57542003E9
Raw,1933468562,1469824000000,,,-1311853870175754050,0.0,13.063832911898425,,,0,2,0.0,16,622672072,1000000000,30.73090934753418,-116.53506764674438,2.99792458E8,6,-72.36606050181577,3.4028234663852886E38,1.56109798E9,,,,0,,5,,1.56109798E9
Raw,1933468563,1469824000000,,,-1311853870175754050,0.0,13.063832911898425,,,0,6,0.0,16431,44125878535182,13,31.004770278930664,-78.20487196442548,0.1347021058812613,4,-93056.22244839979,3.4028234663852886E38,1.56109798E9,,,,0,,5,,1.56109798E9
Raw,1933468563,1469824000000,,,-1311853870175754050,0.0,13.063832911898425,,,0,14,0.0,16431,44125924496860,21,26.847021102905273,123.28878758700557,0.21282911460987608,4,122630.50738390678,3.4028234663852886E38,1.56109798E9,,,,0,,5,,1.56109798E9
Raw,1933468563,1469824000000,,,-1311853870175754050,0.0,13.063832911898425,,,0,16,0.0,16431,44125877894361,7,35.48775100708008,-77.20953642474745,0.08162322306506553,4,-92205.95875035376,3.4028234663852886E38,1.56109798E9,,,,0,,5,,1.56109798E9
Raw,1933468563,1469824000000,,,-1311853870175754050,0.0,13.063832911898425,,,0,24,0.0,16431,44125924179829,19,27.79596710205078,9.261453837371263,0.1908290719844712,4,-83316.22618975822,3.4028234663852886E38,1.56109798E9,,,,0,,5,,1.56109798E9
Raw,1933468563,1469824000000,,,-1311853870175754050,0.0,13.063832911898425,,,0,25,0.0,16431,44125922556988,6,44.75141906738281,-594.4277616599011,0.030459943219970115,1,-592035.8955264053,5.59293373953551E-4,1.56109798E9,,,,0,,5,,1.56109798E9
Raw,1933468563,1469824000000,,,-1311853870175754050,0.0,13.063832911898425,,,0,26,0.0,16431,44125915485038,26,25.10317611694336,422.9203756353147,0.2619463944682049,4,520759.07310376543,3.4028234663852886E38,1.56109798E9,,,,0,,5,,1.56109798E9
Raw,1933468564,1469824000000,,,-1311853870175754050,0.0,13.063832911898425,,,0,27,0.0,16431,44125913223137,7,36.24110412597656,107.0182147912659,0.07426930900185141,4,67083.87908705544,3.4028234663852886E38,1.56109798E9,,,,0,,5,,1.56109798E9
Raw,1933468564,1469824000000,,,-1311853870175754050,0.0,13.063832911898425,,,0,33,0.0,16431,44125925936499,13,30.567955017089844,-122.88483379168309,0.13921139960348078,4,-211274.6948458374,3.4028234663852886E38,1.56109798E9,,,,0,,5,,1.56109798E9
Fix,gps,34.486420,109.464187,360.129150,0.667828,4.000000,1627820122999
Raw,1933469508,1470824000000,,,-1311853870175754438,0.0,13.045671925765934,,,0,10,0.0,16431,44140931373865,7,41.595458984375,-358.7747385225159,0.040856927220575545,4,-609323.022964902,3.4028234663852886E38,1.57542003E9,,,,0,,1,,1.57542003E9
Raw,1933469508,1470824000000,,,-1311853870175754438,0.0,13.045671925765934,,,0,12,0.0,16431,44140923384712,31,29.446788787841797,-488.0628905189492,0.15778578090729256,4,-748517.4641834348,3.4028234663852886E38,1.57542003E9,,,,0,,1,,1.57542003E9
Raw,1933469508,1470824000000,,,-1311853870175754438,0.0,13.045671925765934,,,0,15,0.0,16431,44140916535357,38,27.8241024017334,416.30848131725907,0.19243680536325813,4,709384.9277300825,3.4028234663852886E38,1.57542003E9,,,,0,,1,,1.57542003E9
Raw,1933469508,1470824000000,,,-1311853870175754438,0.0,13.045671925765934,,,0,18,0.0,16431,44140921420304,6,42.78845977783203,561.3728230363404,0.03408574536337207,1,793498.4609253169,6.947388756088912E-4,1.57542003E9,,,,0,,1,,1.57542003E9
Raw,1933469509,1470824000000,,,-1311853870175754438,0.0,13.045671925765934,,,0,23,0.0,16431,44140931387397,17,34.620819091796875,100.22466950055781,0.08868214414765302,4,42026.61021852684,3.4028234663852886E38,1.57542003E9,,,,0,,1,,1.57542003E9
Raw,1933469509,1470824000000,,,-1311853870175754438,0.0,13.045671925765934,,,0,24,0.0,16431,44140926275307,166,22.61235237121582,452.25923585928035,4.201128737521653,4,540981.8357107932,3.4028234663852886E38,1.57542003E9,,,,1,,1,,1.57542003E9
Raw,1933469509,1470824000000,,,-1311853870175754438,0.0,13.045671925765934,,,0,25,0.0,16431,44140922521932,16,34.98992919921875,-710.2027990468009,0.08348303015916059,4,-819001.9625520188,3.4028234663852886E38,1.57542003E9,,,,0,,1,,1.57542003E9
Raw,1933469509,1470824000000,,,-1311853870175754438,0.0,13.045671925765934,,,0,31,0.0,16,1470017546457,1000000000,24.214534759521484,-835.0635376935516,2.99792458E8,2,-14.177356512777168,3.4028234663852886E38,1.57542003E9,,,,0,,1,,1.57542003E9
Raw,1933469509,1470824000000,,,-1311853870175754438,0.0,13.045671925765934,,,0,32,0.0,16431,44140926812113,7,42.261783599853516,-404.8848939522261,0.03717039281898368,1,-624605.2086639019,7.381683099083602E-4,1.57542003E9,,,,0,,1,,1.57542003E9
Raw,1933469509,1470824000000,,,-1311853870175754438,0.0,13.045671925765934,,,0,10,0.0,32995,54922930012713,33,40.46482467651367,-793.3866918785025,0.0460076467834975,4,-1249913.5309678158,3.4028234663852886E38,1.59806246E9,,,,0,,3,,1.59806246E9
Raw,1933469510,1470824000000,,,-1311853870175754438,0.0,13.045671925765934,,,0,9,0.0,32995,54922933588429,46,32.10298156738281,-128.65365594457637,0.11820974995374628,4,-368120.3061175023,3.4028234663852886E38,1.59862502E9,,,,0,,3,,1.59862502E9
Raw,1933469510,1470824000000,,,-1311853870175754438,0.0,13.045671925765934,,,0,16,0.0,32995,54922925146483,99,25.550588607788086,521.2342888964483,0.24707524347638854,4,546598.8919308797,3.4028234663852886E38,1.60143744E9,,,,0,,3,,1.60143744E9
Raw,1933469510,1470824000000,,,-1311853870175754438,0.0,13.045671925765934,,,0,23,0.0,32961,54922924498902,33,37.84263610839844,-29.75321342883464,0.06059485496613798,4,-5657.441430519435,3.4028234663852886E38,1.60368755E9,,,,0,,3,,1.60368755E9
Raw,1933469510,1470824000000,,,-1311853870175754438,0.0,13.045671925765934,,,0,7,0.0,32995,54922932720368,52,31.107177734375,-180.3075274224608,0.13211640736634583,4,-311764.8772870147,3.4028234663852886E38,1.60481254E9,,,,0,,3,,1.60481254E9
Raw,1933469510,1470824000000,,,-1311853870175754438,0.0,13.045671925765934,,,0,8,0.0,17,139658,71,20.692771911621094,-562.5168006895285,4.201284238729539,4,-524854.6465456365,3.4028234663852886E38,1.60537498E9,,,,0,,3,,1.60537498E9
Raw,1933469510,1470824000000,,,-1311853870175754438,0.0,13.045671925765934,,,0,193,0.0,35,9181669,34,28.835996627807617,-253.3122174592337,0.17027911473461077,4,-360462.5722293911,3.4028234663852886E38,1.57542003E9,,,,0,,4,,1.57542003E9
Raw,1933469511,1470824000000,,,-1311853870175754438,0.0,13.045671925765934,,,0,194,0.0,35,12316162,30,29.6796932220459,-105.08372864148771,0.1552338070496737,4,-46190.95958335554,3.4028234663852886E38,1.57542003E9,,,,0,,4,,1.57542003E9
Raw,1933469511,1470824000000,,,-1311853870175754438,0.0,13.045671925765934,,,0,6,0.0,16431,44126878535455,13,31.18181800842285,-77.94460980580317,0.13205155417637054,4,-93134.52204174436,3.4028234663852886E38,1.56109798E9,,,,0,,5,,1.56109798E9
Raw,1933469511,1470824000000,,,-1311853870175754438,0.0,13.045671925765934,,,0,14,0.0,16431,44126924496454,22,26.321502685546875,122.58242867557033,0.22605280818788598,4,122753.27174913578,3.4028234663852886E38,1.56109798E9,,,,0,,5,,1.56109798E9
Raw,1933469511,1470824000000,,,-1311853870175754438,0.0,13.045671925765934,,,0,16,0.0,16431,44126877894635,7,35.47536849975586,-77.27719862155936,0.0817351226928289,4,-92283.05309370423,3.4028234663852886E38,1.56109798E9,,,,0,,5,,1.56109798E9
Raw,1933469512,1470824000000,,,-1311853870175754438,0.0,13.045671925765934,,,0,24,0.0,16431,44126924179808,17,28.64708137512207,9.53706162204297,0.1730871563454115,4,-83306.63391517766,3.4028234663852886E38,1.56109798E9,,,,0,,5,,1.56109798E9
Raw,1933469512,1470824000000,,,-1311853870175754438,0.0,13.045671925765934,,,0,25,0.0,16431,44126922558969,6,44.507789611816406,-593.8881000433189,0.030460298938968247,1,-592629.7868665459,5.752030410803854E-4,1.56109798E9,,,,0,,5,,1.56109798E9
Raw,1933469512,1470824000000,,,-1311853870175754438,0.0,13.045671925765934,,,0,26,0.0,16431,44126915483584,24,25.71169662475586,423.23451363708546,0.24441110372181474,4,521181.81293421204,3.4028234663852886E38,1.56109798E9,,,,0,,5,,1.56109798E9
Raw,1933469512,1470824000000,,,-1311853870175754438,0.0,13.045671925765934,,,0,27,0.0,16431,44126913222786,8,34.801719665527344,107.53674528480394,0.08722659193276883,4,67191.40913534671,3.4028234663852886E38,1.56109798E9,,,,0,,5,,1.56109798E9
Raw,1933469513,1470824000000,,,-1311853870175754438,0.0,13.045671925765934,,,0,33,0.0,16431,44126925936909,13,31.062429428100586,-122.95798326399517,0.13156681943400328,4,-211397.5183484271,3.4028234663852886E38,1.56109798E9,,,,0,,5,,1.56109798E9
Fix,gps,34.486412,109.464174,360.130005,0.845137,4.000000,1627820123999
Raw,1933470568,1471824000000,,,-1311853870175754825,0.0,12.998268539033878,,,0,10,0.0,16431,44141931375067,8,41.36054229736328,-358.70095000414403,0.041921151093409076,4,-609681.8946981677,3.4028234663852886E38,1.57542003E9,,,,0,,1,,1.57542003E9
Raw,1933470569,1471824000000,,,-1311853870175754825,0.0,12.998268539033878,,,0,12,0.0,16431,44141923386319,34,28.819168090820312,-487.49657642136617,0.16956369934229676,4,-749005.7503839025,3.4028234663852886E38,1.57542003E9,,,,0,,1,,1.57542003E9
Raw,1933470569,1471824000000,,,-1311853870175754825,0.0,12.998268539033878,,,0,15,0.0,16431,44141916533975,39,27.55840301513672,416.35176603704303,0.19832172061741304,4,709802.1795948935,3.4028234663852886E38,1.57542003E9,,,,0,,1,,1.57542003E9
Raw,1933470570,1471824000000,,,-1311853870175754825,0.0,12.998268539033878,,,0,18,0.0,16431,44141921418418,6,43.61363983154297,561.6458575955446,0.031019387272857413,1,794059.9093288819,6.317751249298453E-4,1.57542003E9,,,,0,,1,,1.57542003E9
Raw,1933470570,1471824000000,,,-1311853870175754825,0.0,12.998268539033878,,,0,23,0.0,16431,44141931387067,17,34.870872497558594,99.55446355487913,0.08622356420898242,4,42126.11905058647,3.4028234663852886E38,1.57542003E9,,,,0,,1,,1.57542003E9
Raw,1933470570,1471824000000,,,-1311853870175754825,0.0,12.998268539033878,,,0,24,0.0,16431,44141926273839,53,24.876724243164062,453.34264898722745,0.267134965860893,4,541435.4579393404,3.4028234663852886E38,1.57542003E9,,,,0,,1,,1.57542003E9
Raw,1933470570,1471824000000,,,-1311853870175754825,0.0,12.998268539033878,,,0,25,0.0,16431,44141922524286,15,35.92477798461914,-709.7623173787001,0.07501124314146479,4,-819711.8446313491,3.4028234663852886E38,1.57542003E9,,,,0,,1,,1.57542003E9
Raw,1933470571,1471824000000,,,-1311853870175754825,0.0,12.998268539033878,,,0,31,0.0,16,1471017549180,1000000000,25.0921630859375,-834.8778564704153,2.99792458E8,2,-14.1676744087138,3.4028234663852886E38,1.57542003E9,,,,0,,1,,1.57542003E9
Raw,1933470571,1471824000000,,,-1311853870175754825,0.0,12.998268539033878,,,0,32,0.0,16431,44141926813476,7,42.04252624511719,-404.58677470502107,0.03808954574742099,1,-625009.9091116273,7.570387679152191E-4,1.57542003E9,,,,0,,1,,1.57542003E9
Raw,1933470571,1471824000000,,,-1311853870175754825,0.0,12.998268539033878,,,0,10,0.0,32995,54923930015390,33,40.59089660644531,-792.8603224199642,0.04537112612055874,4,-1250706.8749051772,3.4028234663852886E38,1.59806246E9,,,,0,,3,,1.59806246E9
Raw,1933470571,1471824000000,,,-1311853870175754825,0.0,12.998268539033878,,,0,9,0.0,32995,54923933588908,43,32.84447479248047,-128.86802607549072,0.10873730667225162,4,-368249.1727432207,3.4028234663852886E38,1.59862502E9,,,,0,,3,,1.59862502E9
Raw,1933470572,1471824000000,,,-1311853870175754825,0.0,12.998268539033878,,,0,16,0.0,32995,54923925144720,131,23.16161346435547,521.9328088428833,0.32500205105658075,4,547120.3987960315,3.4028234663852886E38,1.60143744E9,,,,0,,3,,1.60143744E9
Raw,1933470572,1471824000000,,,-1311853870175754825,0.0,12.998268539033878,,,0,23,0.0,32961,54923924498966,33,38.94185256958008,-29.592614763545626,0.053488047033626474,4,-5687.236342437306,3.4028234663852886E38,1.60368755E9,,,,0,,3,,1.60368755E9
Raw,1933470572,1471824000000,,,-1311853870175754825,0.0,12.998268539033878,,,0,7,0.0,32995,54923932720938,36,34.27825164794922,-179.87921319133864,0.09240707539876258,4,-311944.86256902525,3.4028234663852886E38,1.60481254E9,,,,0,,3,,1.60481254E9
Raw,1933470572,1471824000000,,,-1311853870175754825,0.0,12.998268539033878,,,0,8,0.0,17,141807,62,22.52303695678711,-562.8188053367771,4.201284771267922,4,-525418.1527221994,3.4028234663852886E38,1.60537498E9,,,,0,,3,,1.60537498E9
Raw,1933470573,1471824000000,,,-1311853870175754825,0.0,12.998268539033878,,,0,193,0.0,35,9182531,36,28.266389846801758,-252.76628467065132,0.18170825381228828,4,-360715.34384941484,3.4028234663852886E38,1.57542003E9,,,,0,,4,,1.57542003E9
Raw,1933470573,1471824000000,,,-1311853870175754825,0.0,12.998268539033878,,,0,194,0.0,35,12316508,30,29.86295509338379,-105.14414831628852,0.1520391758563413,4,-46296.0261505191,3.4028234663852886E38,1.57542003E9,,,,0,,4,,1.57542003E9
Raw,1933470574,1471824000000,,,-1311853870175754825,0.0,12.998268539033878,,,0,6,0.0,16431,44127878535693,12,31.535280227661133,-78.45715030760732,0.12691872457475817,4,-93212.92202982517,3.4028234663852886E38,1.56109798E9,,,,0,,5,,1.56109798E9
Raw,1933470574,1471824000000,,,-1311853870175754825,0.0,12.998268539033878,,,0,14,0.0,16431,44127924496046,21,26.985824584960938,122.84802473863846,0.20946776561896285,4,122876.02621976324,3.4028234663852886E38,1.56109798E9,,,,0,,5,,1.56109798E9
Raw,1933470574,1471824000000,,,-1311853870175754825,0.0,12.998268539033878,,,0,16,0.0,16431,44127877894876,7,35.675209045410156,-76.94230440376623,0.07994934675490656,4,-92360.16900044518,3.4028234663852886E38,1.56109798E9,,,,0,,5,,1.56109798E9
Raw,1933470575,1471824000000,,,-1311853870175754825,0.0,12.998268539033878,,,0,24,0.0,16431,44127924179785,17,28.6727237701416,9.92477193160203,0.17257916465334178,4,-83297.01806822706,3.4028234663852886E38,1.56109798E9,,,,0,,5,,1.56109798E9
Raw,1933470575,1471824000000,,,-1311853870175754825,0.0,12.998268539033878,,,0,25,0.0,16431,44127922560952,6,44.603004455566406,-593.4596835648272,0.03046065673819444,1,-593223.6233177107,5.68932096939534E-4,1.56109798E9,,,,0,,5,,1.56109798E9
Raw,1933470575,1471824000000,,,-1311853870175754825,0.0,12.998268539033878,,,0,26,0.0,16431,44127915482189,21,26.69980239868164,424.3177222702934,0.21842933817275378,4,521604.9159420312,3.4028234663852886E38,1.56109798E9,,,,0,,5,,1.56109798E9
Raw,1933470576,1471824000000,,,-1311853870175754825,0.0,12.998268539033878,,,0,27,0.0,16431,44127913222431,12,31.691436767578125,107.76781581941447,0.12376102991084587,4,67298.9186228586,3.4028234663852886E38,1.56109798E9,,,,0,,5,,1.56109798E9
Raw,1933470576,1471824000000,,,-1311853870175754825,0.0,12.998268539033878,,,0,33,0.0,16431,44127925937320,12,31.824369430541992,-122.56093116611856,0.12060705469470351,4,-211520.2947222535,3.4028234663852886E38,1.56109798E9,,,,0,,5,,1.56109798E9
Fix,gps,34.486407,109.464156,360.109680,0.951532,4.000000,1627820124999
Raw,1933471504,1472824000000,,,-1311853870175755213,0.0,12.935905958522168,,,0,10,0.0,16431,44142931376277,7,41.78873062133789,-358.7999595403428,0.040003309796916964,4,-610040.7004499125,3.4028234663852886E38,1.57542003E9,,,,0,,1,,1.57542003E9
Raw,1933471505,1472824000000,,,-1311853870175755213,0.0,12.935905958522168,,,0,12,0.0,16431,44142923387964,40,27.34893226623535,-487.8229159425721,0.20072539917714383,4,-749492.052481119,3.4028234663852886E38,1.57542003E9,,,,0,,1,,1.57542003E9
Raw,1933471505,1472824000000,,,-1311853870175755213,0.0,12.935905958522168,,,0,15,0.0,16431,44142916532554,35,28.373699188232422,415.0990312650906,0.1808195471017262,4,710217.5983820907,3.4028234663852886E38,1.57542003E9,,,,0,,1,,1.57542003E9
Raw,1933471506,1472824000000,,,-1311853870175755213,0.0,12.935905958522168,,,0,18,0.0,16431,44142921416533,6,44.05101013183594,561.4418740932556,0.030254801529906825,1,794621.3735048155,6.007504416629672E-4,1.57542003E9,,,,0,,1,,1.57542003E9
Raw,1933471506,1472824000000,,,-1311853870175755213,0.0,12.935905958522168,,,0,23,0.0,16431,44142931386717,17,34.675865173339844,99.2809007175988,0.08813470301066761,4,42225.69475650879,3.4028234663852886E38,1.57542003E9,,,,0,,1,,1.57542003E9
Raw,1933471506,1472824000000,,,-1311853870175755213,0.0,12.935905958522168,,,0,24,0.0,16431,44142926272302,66,23.0689697265625,453.4798649571883,0.32867996083263895,4,541887.8084040487,3.4028234663852886E38,1.57542003E9,,,,0,,1,,1.57542003E9
Raw,1933471507,1472824000000,,,-1311853870175755213,0.0,12.935905958522168,,,0,25,0.0,16431,44142922526659,16,34.97166061401367,-709.8698816114861,0.08365870125830843,4,-820421.6619575464,3.4028234663852886E38,1.57542003E9,,,,0,,1,,1.57542003E9
Raw,1933471507,1472824000000,,,-1311853870175755213,0.0,12.935905958522168,,,0,31,0.0,16,1472017552026,1000000000,31.341825485229492,-834.692243412192,2.99792458E8,2,-14.184106909117137,3.4028234663852886E38,1.57542003E9,,,,0,,1,,1.57542003E9
Raw,1933471507,1472824000000,,,-1311853870175755213,0.0,12.935905958522168,,,0,32,0.0,16431,44142926814813,7,42.41645050048828,-404.46854266334344,0.03653647244111899,1,-625414.5936702422,7.25140271242708E-4,1.57542003E9,,,,0,,1,,1.57542003E9
Raw,1933471507,1472824000000,,,-1311853870175755213,0.0,12.935905958522168,,,0,10,0.0,32995,54924930018024,33,40.013023376464844,-793.3460655903273,0.048368880369907274,4,-1251500.1723041625,3.4028234663852886E38,1.59806246E9,,,,0,,3,,1.59806246E9
Raw,1933471507,1472824000000,,,-1311853870175755213,0.0,12.935905958522168,,,0,9,0.0,32995,54924933589282,45,32.44321060180664,-128.61174304366745,0.11376298788698797,4,-368377.8384944546,3.4028234663852886E38,1.59862502E9,,,,0,,3,,1.59862502E9
Raw,1933471508,1472824000000,,,-1311853870175755213,0.0,12.935905958522168,,,0,16,0.0,32995,54924925142842,64,21.9749698638916,521.8700630404248,4.200925041590091,4,547642.138900536,3.4028234663852886E38,1.60143744E9,,,,0,,3,,1.60143744E9
Raw,1933471508,1472824000000,,,-1311853870175755213,0.0,12.935905958522168,,,0,23,0.0,32961,54924924499087,33,38.87686538696289,-29.610806274714676,0.05388368144775979,4,-5716.86797742051,3.4028234663852886E38,1.60368755E9,,,,0,,3,,1.60368755E9
