# 
# Header Description:
# 
# Version: v2.0.0.1 Platform: 10 Manufacturer: HUAWEI Model: BLA-AL00
# 
# Raw,ElapsedRealtimeMillis,TimeNanos,LeapSecond,TimeUncertaintyNanos,FullBiasNanos,BiasNanos,BiasUncertaintyNanos,DriftNanosPerSecond,DriftUncertaintyNanosPerSecond,HardwareClockDiscontinuityCount,Svid,TimeOffsetNanos,State,ReceivedSvTimeNanos,ReceivedSvTimeUncertaintyNanos,Cn0DbHz,PseudorangeRateMetersPerSecond,PseudorangeRateUncertaintyMetersPerSecond,AccumulatedDeltaRangeState,AccumulatedDeltaRangeMeters,AccumulatedDeltaRangeUncertaintyMeters,CarrierFrequencyHz,CarrierCycles,CarrierPhase,CarrierPhaseUncertainty,MultipathIndicator,SnrInDb,ConstellationType,AgcDb,CarrierFrequencyHz
# 
# Fix,Provider,Latitude,Longitude,Altitude,Speed,Accuracy,(UTC)TimeInMs
# 
# Nav,Svid,Type,Status,MessageId,Sub-messageId,Data(Bytes)
# 
Fix,gps,34.486742,109.464180,358.679673,0.021664,3.000000,1627951183000
Raw,2064530083,784292000000,,,-1311985616708418589,0.0,10.012928801262154,,,0,1,0.0,16431,175200927533308,14,36.38298416137695,463.97661399953995,0.0720810755017614,4,345070.83489151567,3.4028234663852886E38,1.57542003E9,,,,0,,1,,1.57542003E9
Raw,2064530083,784292000000,,,-1311985616708418589,0.0,10.012928801262154,,,0,3,0.0,16431,175200926369802,166,29.739564895629883,-275.43928100665744,0.1531130561478259,4,-44327.752714704664,3.4028234663852886E38,1.57542003E9,,,,1,,1,,1.57542003E9
Raw,2064530083,784292000000,,,-1311985616708418589,0.0,10.012928801262154,,,0,6,0.0,17,741603,91,16.79901123046875,-692.0690917240136,4.200673150934852,4,-524290.0765250475,3.4028234663852886E38,1.57542003E9,,,,0,,1,,1.57542003E9
Raw,2064530083,784292000000,,,-1311985616708418589,0.0,10.012928801262154,,,0,7,0.0,16,784017444785,1000000000,7.0,550.0874400325074,2.99792458E8,2,9.341302770242228,3.4028234663852886E38,1.57542003E9,,,,0,,1,,1.57542003E9
Raw,2064530084,784292000000,,,-1311985616708418589,0.0,10.012928801262154,,,0,14,0.0,16431,175200933152954,9,39.618896484375,-154.07334041052752,0.05109445757998307,4,-151247.72382093783,3.4028234663852886E38,1.57542003E9,,,,0,,1,,1.57542003E9
Raw,2064530084,784292000000,,,-1311985616708418589,0.0,10.012928801262154,,,0,17,0.0,16431,175200929951688,8,40.694313049316406,-207.770557404324,0.04484399633034389,4,-170633.63775158484,3.4028234663852886E38,1.57542003E9,,,,0,,1,,1.57542003E9
Raw,2064530084,784292000000,,,-1311985616708418589,0.0,10.012928801262154,,,0,19,0.0,16431,175200927420804,10,39.17491149902344,-463.7394001021412,0.052618927750470335,1,-566598.9746562764,0.0010531709995120764,1.57542003E9,,,,0,,1,,1.57542003E9
Raw,2064530084,784292000000,,,-1311985616708418589,0.0,10.012928801262154,,,0,21,0.0,16431,175200917970330,12,37.579978942871094,483.3532744292577,0.06485353529314694,4,588171.1641847495,3.4028234663852886E38,1.57542003E9,,,,0,,1,,1.57542003E9
Raw,2064530085,784292000000,,,-1311985616708418589,0.0,10.012928801262154,,,0,22,0.0,16431,175200923987271,49,25.540874481201172,64.10822735645795,0.24714212696894966,4,15199.659351084998,3.4028234663852886E38,1.57542003E9,,,,0,,1,,1.57542003E9
Raw,2064530088,784292000000,,,-1311985616708418589,0.0,10.012928801262154,,,0,24,0.0,16431,175200916406586,166,28.226852416992188,-467.27484148216536,0.18382917113238084,4,-569074.7526163673,3.4028234663852886E38,1.57542003E9,,,,1,,1,,1.57542003E9
Raw,2064530088,784292000000,,,-1311985616708418589,0.0,10.012928801262154,,,0,30,0.0,16,784003483612,1000000000,18.119384765625,465.2443791348189,2.99792458E8,2,1.3953067024466292,3.4028234663852886E38,1.57542003E9,,,,0,,1,,1.57542003E9
Raw,2064530089,784292000000,,,-1311985616708418589,0.0,10.012928801262154,,,0,10,0.0,32995,13182920398494,33,37.931514739990234,-887.4021938878923,0.06284615682052844,4,-625680.4016255379,3.4028234663852886E38,1.59806246E9,,,,0,,3,,1.59806246E9
Raw,2064530089,784292000000,,,-1311985616708418589,0.0,10.012928801262154,,,0,2,0.0,32995,13182920835417,35,34.40321350097656,-118.01121292120382,0.09257945141666457,4,-133408.17178108706,3.4028234663852886E38,1.59975002E9,,,,0,,3,,1.59975002E9
Raw,2064530089,784292000000,,,-1311985616708418589,0.0,10.012928801262154,,,0,18,0.0,32995,13182930001670,47,31.950138092041016,366.96546855653423,0.11961973685322058,4,44273.7890859897,3.4028234663852886E38,1.60031245E9,,,,0,,3,,1.60031245E9
Raw,2064530089,784292000000,,,-1311985616708418589,0.0,10.012928801262154,,,0,9,0.0,32995,13182932920189,33,40.31769561767578,-493.6682276485167,0.047285809630856906,4,-426066.5720648747,3.4028234663852886E38,1.59862502E9,,,,0,,3,,1.59862502E9
Raw,2064530090,784292000000,,,-1311985616708418589,0.0,10.012928801262154,,,0,16,0.0,51,14518591,128,23.314510345458984,280.1271524890874,0.3210334086069613,4,9188.043261452678,3.4028234663852886E38,1.60143744E9,,,,0,,3,,1.60143744E9
Raw,2064530090,784292000000,,,-1311985616708418589,0.0,10.012928801262154,,,0,19,0.0,32995,13182934059682,66,29.127601623535156,-72.81778184520181,0.16558931546323374,4,-10255.517772974801,3.4028234663852886E38,1.60368755E9,,,,0,,3,,1.60368755E9
Raw,2064530090,784292000000,,,-1311985616708418589,0.0,10.012928801262154,,,0,3,0.0,32995,13182921938939,98,25.606403350830078,-573.7094453291629,0.24492159168755556,4,-463741.1448456295,3.4028234663852886E38,1.60481254E9,,,,0,,3,,1.60481254E9
Raw,2064530090,784292000000,,,-1311985616708418589,0.0,10.012928801262154,,,0,193,0.0,35,11839295,31,29.583127975463867,-179.57966248095966,0.15685869814949338,4,-28860.581882420793,3.4028234663852886E38,1.57542003E9,,,,0,,4,,1.57542003E9
Raw,2064530091,784292000000,,,-1311985616708418589,0.0,10.012928801262154,,,0,194,0.0,35,16349789,10,38.83729553222656,-163.75003146648385,0.05625765435080443,4,-28240.743314591058,3.4028234663852886E38,1.57542003E9,,,,0,,4,,1.57542003E9
Raw,2064530091,784292000000,,,-1311985616708418589,0.0,10.012928801262154,,,0,195,0.0,35,8572317,24,31.75981330871582,-108.72007113404766,0.1219727993038136,4,-80232.14017376216,3.4028234663852886E38,1.57542003E9,,,,0,,4,,1.57542003E9
Raw,2064530091,784292000000,,,-1311985616708418589,0.0,10.012928801262154,,,0,7,0.0,16431,175186880444450,9,34.10719299316406,-111.34738546002154,0.09558872596900525,4,-79912.28750945018,3.4028234663852886E38,1.56109798E9,,,,0,,5,,1.56109798E9
Raw,2064530092,784292000000,,,-1311985616708418589,0.0,10.012928801262154,,,0,8,0.0,16431,175186878464012,6,38.88942337036133,-228.3017780899802,0.056318954511254515,4,-163509.9520275661,3.4028234663852886E38,1.56109798E9,,,,0,,5,,1.56109798E9
Raw,2064530092,784292000000,,,-1311985616708418589,0.0,10.012928801262154,,,0,10,0.0,16431,175186880865160,8,34.500267028808594,-172.20009491218423,0.09159772522820492,4,-98356.8867260299,3.4028234663852886E38,1.56109798E9,,,,0,,5,,1.56109798E9
Raw,2064530092,784292000000,,,-1311985616708418589,0.0,10.012928801262154,,,0,30,0.0,16,784003214682,1000000000,9.793514251708984,-393.07167594422435,2.99792458E8,2,-1.171346469410822,3.4028234663852886E38,1.56109798E9,,,,0,,5,,1.56109798E9
Raw,2064530092,784292000000,,,-1311985616708418589,0.0,10.012928801262154,,,0,32,0.0,16431,175186912461072,166,27.41160011291504,-639.8495877976766,0.20091881046118099,4,-37720.42457470395,3.4028234663852886E38,1.56109798E9,,,,1,,5,,1.56109798E9
Raw,2064530093,784292000000,,,-1311985616708418589,0.0,10.012928801262154,,,0,36,0.0,16431,175186920738942,6,43.37963104248047,-398.3323712734332,0.035334778777217746,4,-74790.86604644351,3.4028234663852886E38,1.56109798E9,,,,0,,5,,1.56109798E9
Fix,gps,34.486742,109.464180,358.525604,0.000000,3.000000,1627951184000
Raw,2064531190,785292000000,,,-1311985616708418973,0.0,9.51506997236526,,,0,1,0.0,16431,175201927531785,14,36.283382415771484,463.9981881945189,0.07289649993825209,1,345534.75341299735,0.0013937875628471375,1.57542003E9,,,,0,,1,,1.57542003E9
Raw,2064531190,785292000000,,,-1311985616708418973,0.0,9.51506997236526,,,0,3,0.0,16431,175201926370709,166,28.336223602294922,-275.2651878187389,0.17976064445226825,4,-44602.9413474692,3.4028234663852886E38,1.57542003E9,,,,1,,1,,1.57542003E9
Raw,2064531191,785292000000,,,-1311985616708418973,0.0,9.51506997236526,,,0,6,0.0,17,743914,98,15.528095245361328,-692.1521847530162,4.200673417204044,4,-524982.4830094316,3.4028234663852886E38,1.57542003E9,,,,0,,1,,1.57542003E9
Raw,2064531191,785292000000,,,-1311985616708418973,0.0,9.51506997236526,,,0,7,0.0,16,785017442888,1000000000,7.0,550.2730871731872,2.99792458E8,2,9.340152494523839,3.4028234663852886E38,1.57542003E9,,,,0,,1,,1.57542003E9
Raw,2064531191,785292000000,,,-1311985616708418973,0.0,9.51506997236526,,,0,14,0.0,16431,175201933153456,9,39.81691360473633,-153.97511477082878,0.04999620949701239,1,-151401.74374990878,9.279403602704406E-4,1.57542003E9,,,,0,,1,,1.57542003E9
Raw,2064531192,785292000000,,,-1311985616708418973,0.0,9.51506997236526,,,0,17,0.0,16431,175201929952383,8,40.794410705566406,-207.73415734075763,0.044350786738863224,4,-170841.42549042968,3.4028234663852886E38,1.57542003E9,,,,0,,1,,1.57542003E9
Raw,2064531192,785292000000,,,-1311985616708418973,0.0,9.51506997236526,,,0,19,0.0,16431,175201927422340,9,39.495548248291016,-463.7676885410551,0.050760580976472874,1,-567062.7271037342,9.629157138988376E-4,1.57542003E9,,,,0,,1,,1.57542003E9
Raw,2064531192,785292000000,,,-1311985616708418973,0.0,9.51506997236526,,,0,21,0.0,16431,175201917968758,12,37.47127151489258,483.2313614822756,0.06562931474328437,4,588654.4346813873,3.4028234663852886E38,1.57542003E9,,,,0,,1,,1.57542003E9
Raw,2064531193,785292000000,,,-1311985616708418973,0.0,9.51506997236526,,,0,22,0.0,16431,175201923987011,43,26.68701934814453,64.22691951129863,0.21667920070194258,4,15263.79272514661,3.4028234663852886E38,1.57542003E9,,,,0,,1,,1.57542003E9
Raw,2064531193,785292000000,,,-1311985616708418973,0.0,9.51506997236526,,,0,24,0.0,16431,175201916408178,14,36.029911041259766,-467.04829539365824,0.07661162083383422,4,-569541.849225564,3.4028234663852886E38,1.57542003E9,,,,0,,1,,1.57542003E9
Raw,2064531193,785292000000,,,-1311985616708418973,0.0,9.51506997236526,,,0,30,0.0,16,785003482120,1000000000,18.150928497314453,465.6156734161784,2.99792458E8,2,1.3927791060686798,3.4028234663852886E38,1.57542003E9,,,,0,,1,,1.57542003E9
Raw,2064531194,785292000000,,,-1311985616708418973,0.0,9.51506997236526,,,0,10,0.0,32995,13183920401435,33,38.25556564331055,-887.3938777685007,0.06067959929681585,1,-626567.890704202,0.0010949393035843968,1.59806246E9,,,,0,,3,,1.59806246E9
Raw,2064531194,785292000000,,,-1311985616708418973,0.0,9.51506997236526,,,0,2,0.0,32995,13183920835882,45,32.32369613647461,-117.86988149461786,0.11660877315569579,1,-133526.17445760866,0.0021653352305293083,1.59975002E9,,,,0,,3,,1.59975002E9
Raw,2064531194,785292000000,,,-1311985616708418973,0.0,9.51506997236526,,,0,18,0.0,32995,13183930000524,72,28.271434783935547,366.65528411972014,0.18175084024111732,1,44640.6927369129,0.003253938164561987,1.60031245E9,,,,0,,3,,1.60031245E9
Raw,2064531194,785292000000,,,-1311985616708418973,0.0,9.51506997236526,,,0,9,0.0,32995,13183932921898,33,41.65200424194336,-493.5560622841001,0.04088355413973399,1,-426560.2168519713,7.792616379447281E-4,1.59862502E9,,,,0,,3,,1.59862502E9
Raw,2064531196,785292000000,,,-1311985616708418973,0.0,9.51506997236526,,,0,16,0.0,51,14517551,69,21.03029441833496,280.8349939873814,4.2026113243803955,4,9468.64017584071,3.4028234663852886E38,1.60143744E9,,,,0,,3,,1.60143744E9
Raw,2064531197,785292000000,,,-1311985616708418973,0.0,9.51506997236526,,,0,19,0.0,32995,13183934059898,53,30.88325309753418,-72.80821319553303,0.1357478864521215,4,-10328.386601198237,3.4028234663852886E38,1.60368755E9,,,,0,,3,,1.60368755E9
Raw,2064531197,785292000000,,,-1311985616708418973,0.0,9.51506997236526,,,0,3,0.0,32995,13183921940841,73,28.16106414794922,-573.161194933537,0.182602319190331,4,-464314.3912531303,3.4028234663852886E38,1.60481254E9,,,,0,,3,,1.60481254E9
Raw,2064531197,785292000000,,,-1311985616708418973,0.0,9.51506997236526,,,0,193,0.0,35,11839874,27,30.627227783203125,-179.61473332872163,0.1393337669388383,4,-29040.183109917263,3.4028234663852886E38,1.57542003E9,,,,0,,4,,1.57542003E9
Raw,2064531198,785292000000,,,-1311985616708418973,0.0,9.51506997236526,,,0,194,0.0,35,16350329,10,39.13612365722656,-163.74848071471206,0.054454641643183116,1,-28404.468842548504,0.0010035973973572254,1.57542003E9,,,,0,,4,,1.57542003E9
Raw,2064531198,785292000000,,,-1311985616708418973,0.0,9.51506997236526,,,0,195,0.0,35,8572714,26,30.944669723510742,-108.7665681253589,0.13382221933767047,4,-80340.92813717868,3.4028234663852886E38,1.57542003E9,,,,0,,4,,1.57542003E9
Raw,2064531198,785292000000,,,-1311985616708418973,0.0,9.51506997236526,,,0,7,0.0,16431,175187880444822,9,33.706050872802734,-111.30100775730813,0.0999330992106871,4,-80023.6529370968,3.4028234663852886E38,1.56109798E9,,,,0,,5,,1.56109798E9
Raw,2064531198,785292000000,,,-1311985616708418973,0.0,9.51506997236526,,,0,8,0.0,16431,175187878464780,6,36.70181655883789,-228.17938798860678,0.07149830377141764,4,-163738.2153515942,3.4028234663852886E38,1.56109798E9,,,,0,,5,,1.56109798E9
Raw,2064531199,785292000000,,,-1311985616708418973,0.0,9.51506997236526,,,0,10,0.0,16431,175187880865723,7,35.82713317871094,-172.1654500951288,0.07915331004392812,1,-98529.07191210832,0.0014824334066361189,1.56109798E9,,,,0,,5,,1.56109798E9
Raw,2064531199,785292000000,,,-1311985616708418973,0.0,9.51506997236526,,,0,30,0.0,16,785003215993,1000000000,7.0,-393.07167594422435,2.99792458E8,2,-1.1682725952959676,3.4028234663852886E38,1.56109798E9,,,,0,,5,,1.56109798E9
Raw,2064531199,785292000000,,,-1311985616708418973,0.0,9.51506997236526,,,0,32,0.0,16431,175187912463236,17,28.506406784057617,-639.6728361781493,0.17739101506541133,4,-38360.205449406705,3.4028234663852886E38,1.56109798E9,,,,0,,5,,1.56109798E9
Raw,2064531200,785292000000,,,-1311985616708418973,0.0,9.51506997236526,,,0,36,0.0,16431,175187920740262,6,43.352603912353516,-398.27569214823575,0.03543351056136604,1,-75189.19683011911,6.570228724740446E-4,1.56109798E9,,,,0,,5,,1.56109798E9
Fix,gps,34.486742,109.464180,358.318420,0.000000,3.000000,1627951185000
Raw,2064532109,786292000000,,,-1311985616708419360,0.0,9.762486766581443,,,0,1,0.0,16431,175202927530207,15,35.577816009521484,464.0301916211938,0.0789501965762226,1,345998.7480015177,0.0015117322327569127,1.57542003E9,,,,0,,1,,1.57542003E9
Raw,2064532110,786292000000,,,-1311985616708419360,0.0,9.762486766581443,,,0,3,0.0,16431,175202926371541,52,25.012176513671875,-274.74048840057026,0.2630364672549027,4,-44877.987770229294,3.4028234663852886E38,1.57542003E9,,,,0,,1,,1.57542003E9
Raw,2064532110,786292000000,,,-1311985616708419360,0.0,9.762486766581443,,,0,6,0.0,17,746217,102,14.638749122619629,-692.1872896832347,4.200673949742427,4,-525675.5408723283,3.4028234663852886E38,1.57542003E9,,,,0,,1,,1.57542003E9
Raw,2064532110,786292000000,,,-1311985616708419360,0.0,9.762486766581443,,,0,7,0.0,16,786017441114,1000000000,7.0,550.0874400325074,2.99792458E8,2,9.349906287789901,3.4028234663852886E38,1.57542003E9,,,,0,,1,,1.57542003E9
Raw,2064532110,786292000000,,,-1311985616708419360,0.0,9.762486766581443,,,0,14,0.0,16431,175202933153994,11,38.66228103637695,-153.94718419770834,0.056768005021493345,1,-151555.74188143588,0.0010598677909001708,1.57542003E9,,,,0,,1,,1.57542003E9
Raw,2064532111,786292000000,,,-1311985616708419360,0.0,9.762486766581443,,,0,17,0.0,16431,175202929953070,10,39.022396087646484,-207.75295381552996,0.05398287504253724,4,-171049.22155872005,3.4028234663852886E38,1.57542003E9,,,,0,,1,,1.57542003E9
Raw,2064532111,786292000000,,,-1311985616708419360,0.0,9.762486766581443,,,0,19,0.0,16431,175202927423883,10,38.928409576416016,-463.70136408066173,0.05409575653794457,1,-567526.4916547831,0.0010278868721798062,1.57542003E9,,,,0,,1,,1.57542003E9
Raw,2064532111,786292000000,,,-1311985616708419360,0.0,9.762486766581443,,,0,21,0.0,16431,175202917967145,16,35.29140853881836,483.2870862986904,0.08342882773684868,1,589137.7190509107,0.001562410732731223,1.57542003E9,,,,0,,1,,1.57542003E9
Raw,2064532112,786292000000,,,-1311985616708419360,0.0,9.762486766581443,,,0,22,0.0,16431,175202923986834,33,28.98668098449707,64.29009986507779,0.1664445221811296,4,15327.99378544935,3.4028234663852886E38,1.57542003E9,,,,0,,1,,1.57542003E9
Raw,2064532112,786292000000,,,-1311985616708419360,0.0,9.762486766581443,,,0,24,0.0,16431,175202916409738,16,35.17810821533203,-466.96884918750357,0.08420164078177361,4,-570008.8903105787,3.4028234663852886E38,1.57542003E9,,,,0,,1,,1.57542003E9
Raw,2064532113,786292000000,,,-1311985616708419360,0.0,9.762486766581443,,,0,30,0.0,16,786003480507,1000000000,17.471847534179688,465.4300262754987,2.99792458E8,2,1.3885840861241843,3.4028234663852886E38,1.57542003E9,,,,0,,1,,1.57542003E9
Raw,2064532113,786292000000,,,-1311985616708419360,0.0,9.762486766581443,,,0,10,0.0,32995,13184920404405,33,37.99335479736328,-887.4096238634143,0.06242739443083234,1,-627455.2948978159,0.0011284974170848727,1.59806246E9,,,,0,,3,,1.59806246E9
Raw,2064532113,786292000000,,,-1311985616708419360,0.0,9.762486766581443,,,0,2,0.0,32995,13184920836282,43,32.77878189086914,-117.700329794031,0.11084788941934581,1,-133643.98817116406,0.002054806100204587,1.59975002E9,,,,0,,3,,1.59975002E9
Raw,2064532114,786292000000,,,-1311985616708419360,0.0,9.762486766581443,,,0,18,0.0,32995,13184929999468,91,26.304643630981445,366.9094029155542,0.2274803106076192,4,45007.71504752435,3.4028234663852886E38,1.60031245E9,,,,0,,3,,1.60031245E9
Raw,2064532114,786292000000,,,-1311985616708419360,0.0,9.762486766581443,,,0,9,0.0,32995,13184932923516,33,41.868473052978516,-493.39982830339954,0.039934749640540085,1,-427053.7311848477,7.600808748975396E-4,1.59862502E9,,,,0,,3,,1.59862502E9
Raw,2064532114,786292000000,,,-1311985616708419360,0.0,9.762486766581443,,,0,16,0.0,51,14516633,66,21.624164581298828,280.79363492639095,4.2026113243803955,4,9749.367879241801,3.4028234663852886E38,1.60143744E9,,,,0,,3,,1.60143744E9
Raw,2064532115,786292000000,,,-1311985616708419360,0.0,9.762486766581443,,,0,19,0.0,32995,13184934060250,53,30.974977493286133,-72.74003976187328,0.1343485586412228,4,-10401.163976749636,3.4028234663852886E38,1.60368755E9,,,,0,,3,,1.60368755E9
Raw,2064532115,786292000000,,,-1311985616708419360,0.0,9.762486766581443,,,0,3,0.0,32995,13184921942723,56,30.55004119873047,-573.2022983761035,0.13877820459150958,4,-464887.65665967524,3.4028234663852886E38,1.60481254E9,,,,0,,3,,1.60481254E9
Raw,2064532115,786292000000,,,-1311985616708419360,0.0,9.762486766581443,,,0,193,0.0,35,11840494,26,30.98384666442871,-179.71439043159432,0.13381473051665715,1,-29219.886869719383,0.00241878442466259,1.57542003E9,,,,0,,4,,1.57542003E9
Raw,2064532115,786292000000,,,-1311985616708419360,0.0,9.762486766581443,,,0,194,0.0,35,16350865,7,41.478492736816406,-163.85255149570446,0.042278347053463505,1,-28568.323117353113,8.078298415057361E-4,1.57542003E9,,,,0,,4,,1.57542003E9
Raw,2064532116,786292000000,,,-1311985616708419360,0.0,9.762486766581443,,,0,195,0.0,35,8573037,26,31.13409423828125,-108.86919040194908,0.13096870394149446,1,-80449.7623787375,0.0023773040156811476,1.57542003E9,,,,0,,4,,1.57542003E9
Raw,2064532116,786292000000,,,-1311985616708419360,0.0,9.762486766581443,,,0,7,0.0,16431,175188880445183,10,33.081634521484375,-111.40170437510477,0.10710759776424672,4,-80135.10854154885,3.4028234663852886E38,1.56109798E9,,,,0,,5,,1.56109798E9
Raw,2064532116,786292000000,,,-1311985616708419360,0.0,9.762486766581443,,,0,8,0.0,16431,175188878465528,8,34.76542663574219,-228.35222012563395,0.0885249121900224,1,-163966.60364489479,0.0016751763178035617,1.56109798E9,,,,0,,5,,1.56109798E9
Raw,2064532117,786292000000,,,-1311985616708419360,0.0,9.762486766581443,,,0,10,0.0,16431,175188880866310,7,35.70056915283203,-172.25380886366418,0.0802601245060468,1,-98701.31400038837,0.0015041925944387913,1.56109798E9,,,,0,,5,,1.56109798E9
Raw,2064532117,786292000000,,,-1311985616708419360,0.0,9.762486766581443,,,0,27,0.0,16,786003858792,1000000000,24.71077537536621,79.06397992538183,2.99792458E8,2,0.23560923998471228,3.4028234663852886E38,1.56109798E9,,,,0,,5,,1.56109798E9
Raw,2064532117,786292000000,,,-1311985616708419360,0.0,9.762486766581443,,,0,30,0.0,16,786003217304,1000000000,17.36878204345703,-393.07167594422435,2.99792458E8,2,-1.1713464694188218,3.4028234663852886E38,1.56109798E9,,,,0,,5,,1.56109798E9
Raw,2064532118,786292000000,,,-1311985616708419360,0.0,9.762486766581443,,,0,32,0.0,16431,175188912465346,16,28.96562385559082,-639.8436574502416,0.16837186179894026,4,-39000.15456540494,3.4028234663852886E38,1.56109798E9,,,,0,,5,,1.56109798E9
Raw,2064532118,786292000000,,,-1311985616708419360,0.0,9.762486766581443,,,0,36,0.0,16431,175188920741596,6,43.25252151489258,-398.1696957084498,0.03580115758719016,1,-75587.41889997825,6.646371330134571E-4,1.56109798E9,,,,0,,5,,1.56109798E9
Fix,gps,34.486742,109.464180,358.198853,0.000000,3.000000,1627951186000
Raw,2064533137,787292000000,,,-1311985616708419745,0.0,9.982943610285654,,,0,1,0.0,16431,175203927528610,166,31.852859497070312,463.88919249855894,0.1205018450803787,4,346462.7764842862,3.4028234663852886E38,1.57542003E9,,,,1,,1,,1.57542003E9
Raw,2064533137,787292000000,,,-1311985616708419745,0.0,9.982943610285654,,,0,3,0.0,16431,175203926372551,36,28.186111450195312,-275.2599391204344,0.18287466264784846,4,-45152.411256972664,3.4028234663852886E38,1.57542003E9,,,,0,,1,,1.57542003E9
Raw,2064533137,787292000000,,,-1311985616708419745,0.0,9.982943610285654,,,0,6,0.0,17,748490,166,14.970108032226562,-692.0012676355332,4.200674216011619,4,-526368.2595119654,3.4028234663852886E38,1.57542003E9,,,,1,,1,,1.57542003E9
Raw,2064533138,787292000000,,,-1311985616708419745,0.0,9.982943610285654,,,0,7,0.0,16,787017439218,1000000000,7.0,550.0874400325074,2.99792458E8,2,9.345604529021248,3.4028234663852886E38,1.57542003E9,,,,0,,1,,1.57542003E9
Raw,2064533138,787292000000,,,-1311985616708419745,0.0,9.982943610285654,,,0,14,0.0,16431,175203933154491,9,40.1324462890625,-153.83109935079165,0.0482971957109854,1,-151709.6169013516,8.948359172791243E-4,1.57542003E9,,,,0,,1,,1.57542003E9
Raw,2064533138,787292000000,,,-1311985616708419745,0.0,9.982943610285654,,,0,17,0.0,16431,175203929953771,11,37.94802474975586,-207.6157889692539,0.06085500828722823,1,-171256.90483573955,0.0011507063172757626,1.57542003E9,,,,0,,1,,1.57542003E9
Raw,2064533138,787292000000,,,-1311985616708419745,0.0,9.982943610285654,,,0,19,0.0,16431,175203927425438,7,41.65515899658203,-463.6056946252022,0.03988086341289318,1,-567990.1599844869,7.915648748166859E-4,1.57542003E9,,,,0,,1,,1.57542003E9
Raw,2064533139,787292000000,,,-1311985616708419745,0.0,9.982943610285654,,,0,21,0.0,16431,175203917965483,166,31.464027404785156,482.79738956337064,0.12783413309268882,4,589621.0232050593,3.4028234663852886E38,1.57542003E9,,,,1,,1,,1.57542003E9
Raw,2064533139,787292000000,,,-1311985616708419745,0.0,9.982943610285654,,,0,22,0.0,16431,175203923986625,44,26.58552360534668,64.55555533801277,0.21921746169619483,4,15392.464538269074,3.4028234663852886E38,1.57542003E9,,,,0,,1,,1.57542003E9
Raw,2064533139,787292000000,,,-1311985616708419745,0.0,9.982943610285654,,,0,24,0.0,16431,175203916411329,17,34.81690216064453,-466.77829417308453,0.08765194864541276,4,-570475.8872633948,3.4028234663852886E38,1.57542003E9,,,,0,,1,,1.57542003E9
Raw,2064533140,787292000000,,,-1311985616708419745,0.0,9.982943610285654,,,0,30,0.0,16,787003479015,1000000000,12.731151580810547,465.4300262754987,2.99792458E8,2,1.3849443596505222,3.4028234663852886E38,1.57542003E9,,,,0,,1,,1.57542003E9
Raw,2064533140,787292000000,,,-1311985616708419745,0.0,9.982943610285654,,,0,10,0.0,32995,13185920407313,33,37.945457458496094,-887.2737030268013,0.06275281698750973,1,-628342.5464733802,0.0011347377439960837,1.59806246E9,,,,0,,3,,1.59806246E9
Raw,2064533140,787292000000,,,-1311985616708419745,0.0,9.982943610285654,,,0,2,0.0,32995,13185920836650,47,32.004032135009766,-117.44058739287067,0.1208398821400074,4,-133760.9379398756,3.4028234663852886E38,1.59975002E9,,,,0,,3,,1.59975002E9
Raw,2064533141,787292000000,,,-1311985616708419745,0.0,9.982943610285654,,,0,18,0.0,32995,13185929998088,83,27.04157257080078,366.83772750948674,0.20912249768660018,4,45374.77526824179,3.4028234663852886E38,1.60031245E9,,,,0,,3,,1.60031245E9
Raw,2064533141,787292000000,,,-1311985616708419745,0.0,9.982943610285654,,,0,9,0.0,32995,13185932925205,33,41.73776626586914,-493.2082508152848,0.04050529795080768,1,-427547.02844302286,7.716050604358315E-4,1.59862502E9,,,,0,,3,,1.59862502E9
Raw,2064533141,787292000000,,,-1311985616708419745,0.0,9.982943610285654,,,0,16,0.0,99,1934515676,99,25.578941345214844,280.8221449012723,0.24795834189210286,4,10030.219248101914,3.4028234663852886E38,1.60143744E9,,,,0,,3,,1.60143744E9
Raw,2064533142,787292000000,,,-1311985616708419745,0.0,9.982943610285654,,,0,19,0.0,32995,13185934060420,57,30.260665893554688,-72.6287605413263,0.1456474005541809,1,-10473.805270419723,0.0025824550539255142,1.60368755E9,,,,0,,3,,1.60368755E9
Raw,2064533142,787292000000,,,-1311985616708419745,0.0,9.982943610285654,,,0,3,0.0,32995,13185921944669,77,27.752220153808594,-572.8685629618321,0.19138677280624483,4,-465460.7157862901,3.4028234663852886E38,1.60481254E9,,,,0,,3,,1.60481254E9
Raw,2064533143,787292000000,,,-1311985616708419745,0.0,9.982943610285654,,,0,193,0.0,35,11841077,25,31.412452697753906,-179.90835369166564,0.12747456983310296,1,-29399.727424350822,0.0023023257963359356,1.57542003E9,,,,0,,4,,1.57542003E9
Raw,2064533143,787292000000,,,-1311985616708419745,0.0,9.982943610285654,,,0,194,0.0,35,16351430,9,39.976043701171875,-163.96081441884917,0.049706774885760086,1,-28732.26186490103,9.603782091289759E-4,1.57542003E9,,,,0,,4,,1.57542003E9
Raw,2064533143,787292000000,,,-1311985616708419745,0.0,9.982943610285654,,,0,195,0.0,35,8573388,23,32.21626281738281,-108.90500254314043,0.11580768565098948,1,-80558.62335587294,0.002098825527355075,1.57542003E9,,,,0,,4,,1.57542003E9
Raw,2064533143,787292000000,,,-1311985616708419745,0.0,9.982943610285654,,,0,7,0.0,16431,175189880445579,11,32.49680709838867,-111.3335820651298,0.11431151906347642,1,-80246.5771678739,0.0021751616150140762,1.56109798E9,,,,0,,5,,1.56109798E9
Raw,2064533144,787292000000,,,-1311985616708419745,0.0,9.982943610285654,,,0,8,0.0,16431,175189878466312,10,33.173709869384766,-228.2837995941644,0.10566104045549074,1,-164194.94090485835,0.002012085635215044,1.56109798E9,,,,0,,5,,1.56109798E9
Raw,2064533144,787292000000,,,-1311985616708419745,0.0,9.982943610285654,,,0,10,0.0,16431,175189880866873,8,34.919315338134766,-172.22146461242403,0.08746059262669814,1,-98873.5238186807,0.0016457588644698262,1.56109798E9,,,,0,,5,,1.56109798E9
Raw,2064533144,787292000000,,,-1311985616708419745,0.0,9.982943610285654,,,0,27,0.0,16,787003858528,1000000000,22.102434158325195,79.06397992538183,2.99792458E8,2,0.23499094879819404,3.4028234663852886E38,1.56109798E9,,,,0,,5,,1.56109798E9
Raw,2064533145,787292000000,,,-1311985616708419745,0.0,9.982943610285654,,,0,32,0.0,16431,175189912467499,14,30.205121994018555,-640.1696902293388,0.1462790077184437,4,-39640.26947645993,3.4028234663852886E38,1.56109798E9,,,,0,,5,,1.56109798E9
Raw,2064533145,787292000000,,,-1311985616708419745,0.0,9.982943610285654,,,0,36,0.0,16431,175189920742915,6,41.88349533081055,-397.95415825339956,0.041276267913672116,1,-75985.45464546564,7.781006279401481E-4,1.56109798E9,,,,0,,5,,1.56109798E9
Fix,gps,34.486742,109.464180,358.017181,0.000000,3.000000,1627951187000
Raw,2064534126,788292000000,,,-1311985616708420132,0.0,10.066692827645973,,,0,1,0.0,16431,175204927527163,166,28.087909698486328,463.6842546874873,0.18514863482762867,4,346926.72648969054,3.4028234663852886E38,1.57542003E9,,,,1,,1,,1.57542003E9
Raw,2064534126,788292000000,,,-1311985616708420132,0.0,10.066692827645973,,,0,3,0.0,16431,175204926373403,31,29.641817092895508,-275.29202775325064,0.15483355452924885,4,-45428.2665727087,3.4028234663852886E38,1.57542003E9,,,,0,,1,,1.57542003E9
Raw,2064534127,788292000000,,,-1311985616708420132,0.0,10.066692827645973,,,0,6,0.0,17,750794,89,17.2509765625,-692.5375891713761,4.200674748550002,4,-527059.9861985324,3.4028234663852886E38,1.57542003E9,,,,0,,1,,1.57542003E9
Raw,2064534127,788292000000,,,-1311985616708420132,0.0,10.066692827645973,,,0,7,0.0,16,788017437383,1000000000,7.0,550.0874400325074,2.99792458E8,2,9.341302770209902,3.4028234663852886E38,1.57542003E9,,,,0,,1,,1.57542003E9
Raw,2064534127,788292000000,,,-1311985616708420132,0.0,10.066692827645973,,,0,14,0.0,16431,175204933155015,12,37.66272735595703,-153.80477065312778,0.06340310043928851,1,-151863.3733531513,0.0011891300091519952,1.57542003E9,,,,0,,1,,1.57542003E9
Raw,2064534127,788292000000,,,-1311985616708420132,0.0,10.066692827645973,,,0,17,0.0,16431,175204929954450,13,37.21042251586914,-207.91743575070905,0.06609000620974279,1,-171464.607429216,0.0012526930077001452,1.57542003E9,,,,0,,1,,1.57542003E9
Raw,2064534128,788292000000,,,-1311985616708420132,0.0,10.066692827645973,,,0,19,0.0,16431,175204927426988,8,41.36862564086914,-463.6522853432689,0.04117388740950789,1,-568453.7721591841,7.76129774749279E-4,1.57542003E9,,,,0,,1,,1.57542003E9
Raw,2064534128,788292000000,,,-1311985616708420132,0.0,10.066692827645973,,,0,21,0.0,16431,175204917963900,18,33.9643440246582,483.0274461448996,0.0966666002983636,4,590104.1019055943,3.4028234663852886E38,1.57542003E9,,,,0,,1,,1.57542003E9
Raw,2064534128,788292000000,,,-1311985616708420132,0.0,10.066692827645973,,,0,22,0.0,16431,175204923986461,38,27.72596549987793,64.6479656585673,0.19233234463103466,4,15457.035848605741,3.4028234663852886E38,1.57542003E9,,,,0,,1,,1.57542003E9
Raw,2064534128,788292000000,,,-1311985616708420132,0.0,10.066692827645973,,,0,24,0.0,16431,175204916412863,10,39.04010772705078,-466.8150009787596,0.05503849093166158,4,-570942.7064071601,3.4028234663852886E38,1.57542003E9,,,,0,,1,,1.57542003E9
Raw,2064534128,788292000000,,,-1311985616708420132,0.0,10.066692827645973,,,0,30,0.0,16,788003477402,1000000000,15.269668579101562,465.4300262754987,2.99792458E8,2,1.3958635391307748,3.4028234663852886E38,1.57542003E9,,,,0,,1,,1.57542003E9
Raw,2064534129,788292000000,,,-1311985616708420132,0.0,10.066692827645973,,,0,10,0.0,32995,13186920410282,33,37.53627014160156,-887.401853063327,0.06560328692980699,1,-629229.9054425971,0.0011894735507667065,1.59806246E9,,,,0,,3,,1.59806246E9
Raw,2064534129,788292000000,,,-1311985616708420132,0.0,10.066692827645973,,,0,2,0.0,32995,13186920837018,49,31.68460464477539,-117.72332693156977,0.12522620942118828,4,-133878.48140327167,3.4028234663852886E38,1.59975002E9,,,,0,,3,,1.59975002E9
Raw,2064534129,788292000000,,,-1311985616708420132,0.0,10.066692827645973,,,0,18,0.0,32995,13186929996912,37,34.108707427978516,366.8901463276188,0.09369345514695604,4,45741.67364013708,3.4028234663852886E38,1.60031245E9,,,,0,,3,,1.60031245E9
Raw,2064534129,788292000000,,,-1311985616708420132,0.0,10.066692827645973,,,0,9,0.0,32995,13186932926821,33,40.0874137878418,-493.257806707069,0.04849497963440311,1,-428040.25926481857,8.851848542690277E-4,1.59862502E9,,,,0,,3,,1.59862502E9
Raw,2064534130,788292000000,,,-1311985616708420132,0.0,10.066692827645973,,,0,16,0.0,99,934514853,91,26.2549991607666,281.21646188201294,0.22958610050926487,4,10311.225217597332,3.4028234663852886E38,1.60143744E9,,,,0,,3,,1.60143744E9
Raw,2064534130,788292000000,,,-1311985616708420132,0.0,10.066692827645973,,,0,19,0.0,32995,13186934060714,78,27.57080078125,-72.6588979535066,0.19759823394022913,1,-10546.455550954372,0.003519864985719323,1.60368755E9,,,,0,,3,,1.60368755E9
Raw,2064534130,788292000000,,,-1311985616708420132,0.0,10.066692827645973,,,0,3,0.0,32995,13186921946449,77,27.731201171875,-573.0344081952721,0.19184991478135704,4,-466033.84696696524,3.4028234663852886E38,1.60481254E9,,,,0,,3,,1.60481254E9
Raw,2064534130,788292000000,,,-1311985616708420132,0.0,10.066692827645973,,,0,193,0.0,35,11841705,29,30.225255966186523,-179.81522337921706,0.1458329735388908,4,-29579.332470660658,3.4028234663852886E38,1.57542003E9,,,,0,,4,,1.57542003E9
Raw,2064534130,788292000000,,,-1311985616708420132,0.0,10.066692827645973,,,0,194,0.0,35,16351968,11,38.19485092163086,-163.64282509949135,0.06035108968169853,1,-28896.1041703937,0.0011184668401256204,1.57542003E9,,,,0,,4,,1.57542003E9
Raw,2064534131,788292000000,,,-1311985616708420132,0.0,10.066692827645973,,,0,195,0.0,35,8573751,30,29.87274169921875,-108.74713260452677,0.15119721603072678,4,-80667.456969125,3.4028234663852886E38,1.57542003E9,,,,0,,4,,1.57542003E9
Raw,2064534131,788292000000,,,-1311985616708420132,0.0,10.066692827645973,,,0,7,0.0,16431,175190880445922,16,28.969728469848633,-111.22287372572958,0.16972890273385044,4,-80357.99429866632,3.4028234663852886E38,1.56109798E9,,,,0,,5,,1.56109798E9
Raw,2064534131,788292000000,,,-1311985616708420132,0.0,10.066692827645973,,,0,8,0.0,16431,175190878467055,9,33.739017486572266,-228.11224554925684,0.09921269959194312,1,-164423.1918544405,0.0017774800071492791,1.56109798E9,,,,0,,5,,1.56109798E9
Raw,2064534132,788292000000,,,-1311985616708420132,0.0,10.066692827645973,,,0,10,0.0,16431,175190880867452,10,32.69474411010742,-172.3420142611452,0.11189476002970905,1,-99045.71795477098,0.0020045568235218525,1.56109798E9,,,,0,,5,,1.56109798E9
Raw,2064534132,788292000000,,,-1311985616708420132,0.0,10.066692827645973,,,0,27,0.0,16,788003858264,1000000000,23.097640991210938,79.06397992538183,2.99792458E8,2,0.23560923999243805,3.4028234663852886E38,1.56109798E9,,,,0,,5,,1.56109798E9
Raw,2064534132,788292000000,,,-1311985616708420132,0.0,10.066692827645973,,,0,32,0.0,16431,175190912469640,11,32.59492492675781,-639.8645840785466,0.11163411577479682,4,-40280.358682744074,3.4028234663852886E38,1.56109798E9,,,,0,,5,,1.56109798E9
Raw,2064534133,788292000000,,,-1311985616708420132,0.0,10.066692827645973,,,0,36,0.0,16431,175190920744238,6,39.835792541503906,-397.9977156328357,0.0512581881700708,1,-76383.37261453665,9.344203863292933E-4,1.56109798E9,,,,0,,5,,1.56109798E9
Fix,gps,34.486742,109.464180,357.890137,0.000000,3.000000,1627951188000
Raw,2064535152,789292000000,,,-1311985616708420518,0.0,10.180686496863832,,,0,1,0.0,16431,175205927525573,35,28.600360870361328,464.0996516675873,0.1746184704662137,4,347390.7252085735,3.4028234663852886E38,1.57542003E9,,,,0,,1,,1.57542003E9
Raw,2064535152,789292000000,,,-1311985616708420518,0.0,10.180686496863832,,,0,3,0.0,16431,175205926374327,36,28.22197914123535,-274.69969170011245,0.1821260967411822,4,-45703.39642404392,3.4028234663852886E38,1.57542003E9,,,,0,,1,,1.57542003E9
Raw,2064535153,789292000000,,,-1311985616708420518,0.0,10.180686496863832,,,0,6,0.0,17,753067,166,20.383638381958008,-692.4502017528516,4.200675014819193,4,-527751.5020186348,3.4028234663852886E38,1.57542003E9,,,,1,,1,,1.57542003E9
Raw,2064535154,789292000000,,,-1311985616708420518,0.0,10.180686496863832,,,0,7,0.0,16,789017435549,1000000000,7.0,550.0874400325074,2.99792458E8,2,9.33700101148033,3.4028234663852886E38,1.57542003E9,,,,0,,1,,1.57542003E9
Raw,2064535154,789292000000,,,-1311985616708420518,0.0,10.180686496863832,,,0,14,0.0,16431,175205933155521,10,39.23973846435547,-153.49388752595496,0.053269136314038984,1,-152017.14906632737,9.916966082528234E-4,1.57542003E9,,,,0,,1,,1.57542003E9
Raw,2064535155,789292000000,,,-1311985616708420518,0.0,10.180686496863832,,,0,17,0.0,16431,175205929955126,10,39.38844680786133,-207.69238929028893,0.051829377190580644,1,-171672.427127927,9.74862661678344E-4,1.57542003E9,,,,0,,1,,1.57542003E9
Raw,2064535155,789292000000,,,-1311985616708420518,0.0,10.180686496863832,,,0,19,0.0,16431,175205927428500,8,40.96106719970703,-463.7057607175532,0.043087992616405585,1,-568917.5506012513,8.574152598157525E-4,1.57542003E9,,,,0,,1,,1.57542003E9
Raw,2064535156,789292000000,,,-1311985616708420518,0.0,10.180686496863832,,,0,21,0.0,16431,175205917962283,21,33.00957489013672,483.0271053203344,0.10752263654571675,4,590587.184216891,3.4028234663852886E38,1.57542003E9,,,,0,,1,,1.57542003E9
Raw,2064535157,789292000000,,,-1311985616708420518,0.0,10.180686496863832,,,0,22,0.0,16431,175205923986213,39,27.4874267578125,64.96168615024564,0.19766753049733898,4,15521.440365993787,3.4028234663852886E38,1.57542003E9,,,,0,,1,,1.57542003E9
Raw,2064535157,789292000000,,,-1311985616708420518,0.0,10.180686496863832,,,0,24,0.0,16431,175205916414449,17,34.6971321105957,-467.0359916268535,0.08882855059846329,4,-571409.4783120066,3.4028234663852886E38,1.57542003E9,,,,0,,1,,1.57542003E9
Raw,2064535158,789292000000,,,-1311985616708420518,0.0,10.180686496863832,,,0,30,0.0,16,789003475849,1000000000,17.41636848449707,465.6156734161784,2.99792458E8,2,1.3927791060353145,3.4028234663852886E38,1.57542003E9,,,,0,,1,,1.57542003E9
Raw,2064535158,789292000000,,,-1311985616708420518,0.0,10.180686496863832,,,0,10,0.0,32995,13187920413292,33,37.31252670288086,-887.3442537118035,0.067219869598758,1,-630117.2790062211,0.0012205118546262383,1.59806246E9,,,,0,,3,,1.59806246E9
Raw,2064535159,789292000000,,,-1311985616708420518,0.0,10.180686496863832,,,0,2,0.0,32995,13187920837495,62,29.599313735961914,-118.07891772108638,0.158189178732543,4,-133996.04995794353,3.4028234663852886E38,1.59975002E9,,,,0,,3,,1.59975002E9
Raw,2064535160,789292000000,,,-1311985616708420518,0.0,10.180686496863832,,,0,18,0.0,32995,13187929995664,36,34.15966796875,366.75794047876684,0.09315565794725333,4,46108.594339416326,3.4028234663852886E38,1.60031245E9,,,,0,,3,,1.60031245E9
Raw,2064535160,789292000000,,,-1311985616708420518,0.0,10.180686496863832,,,0,9,0.0,32995,13187932928427,33,41.09362030029297,-493.0400879748013,0.043444959751373496,1,-428533.4536246341,7.88358214776963E-4,1.59862502E9,,,,0,,3,,1.59862502E9
Raw,2064535161,789292000000,,,-1311985616708420518,0.0,10.180686496863832,,,0,16,0.0,99,1934513904,83,27.092666625976562,281.08386408491094,0.20871878366668473,4,10592.311623619611,3.4028234663852886E38,1.60143744E9,,,,0,,3,,1.60143744E9
Raw,2064535161,789292000000,,,-1311985616708420518,0.0,10.180686496863832,,,0,19,0.0,32995,13187934060939,61,29.690771102905273,-72.53217085954066,0.1553526130345938,1,-10619.102171710843,0.002757576061412692,1.60368755E9,,,,0,,3,,1.60368755E9
Raw,2064535161,789292000000,,,-1311985616708420518,0.0,10.180686496863832,,,0,3,0.0,32995,13187921948449,97,25.721967697143555,-572.8166894630044,0.24169086437693899,4,-466606.7965914244,3.4028234663852886E38,1.60481254E9,,,,0,,3,,1.60481254E9
Raw,2064535162,789292000000,,,-1311985616708420518,0.0,10.180686496863832,,,0,193,0.0,35,11842237,28,30.544008255004883,-179.98955514433123,0.14065505291386604,4,-29759.119434415552,3.4028234663852886E38,1.57542003E9,,,,0,,4,,1.57542003E9
Raw,2064535162,789292000000,,,-1311985616708420518,0.0,10.180686496863832,,,0,194,0.0,35,16352500,8,40.461631774902344,-163.89137141368394,0.04716426606581084,1,-29060.00484161072,8.615573169663548E-4,1.57542003E9,,,,0,,4,,1.57542003E9
Raw,2064535162,789292000000,,,-1311985616708420518,0.0,10.180686496863832,,,0,195,0.0,35,8574118,32,29.243852615356445,-108.77324828683737,0.1624347577832348,4,-80776.46783913566,3.4028234663852886E38,1.57542003E9,,,,0,,4,,1.57542003E9
Raw,2064535162,789292000000,,,-1311985616708420518,0.0,10.180686496863832,,,0,7,0.0,16431,175191880446313,15,29.849891662597656,-111.4336566780949,0.1537270396199707,4,-80469.55075427372,3.4028234663852886E38,1.56109798E9,,,,0,,5,,1.56109798E9
Raw,2064535163,789292000000,,,-1311985616708420518,0.0,10.180686496863832,,,0,8,0.0,16431,175191878467820,8,34.91941452026367,-228.24714391217412,0.08702812153409156,1,-164651.58751154,0.0016457398887723684,1.56109798E9,,,,0,,5,,1.56109798E9
Raw,2064535163,789292000000,,,-1311985616708420518,0.0,10.180686496863832,,,0,10,0.0,16431,175191880868034,8,34.4379997253418,-172.21108650441283,0.09223025601372603,1,-99218.01729094028,0.0017395301256328821,1.56109798E9,,,,0,,5,,1.56109798E9
Raw,2064535163,789292000000,,,-1311985616708420518,0.0,10.180686496863832,,,0,27,0.0,16,789003858000,1000000000,24.273170471191406,79.06397992538183,2.99792458E8,2,0.23499094882817334,3.4028234663852886E38,1.56109798E9,,,,0,,5,,1.56109798E9
Raw,2064535164,789292000000,,,-1311985616708420518,0.0,10.180686496863832,,,0,32,0.0,16431,175191912471761,11,32.62759017944336,-640.0960039583365,0.11122389480151201,1,-40920.43806280475,0.002142655896022916,1.56109798E9,,,,0,,5,,1.56109798E9
Raw,2064535164,789292000000,,,-1311985616708420518,0.0,10.180686496863832,,,0,36,0.0,16431,175191920745569,6,37.5983772277832,-397.89635440713687,0.06522233060485977,1,-76781.43171825384,0.0012089632218703628,1.56109798E9,,,,0,,5,,1.56109798E9
Fix,gps,34.486742,109.464180,357.781158,0.000000,3.000000,1627951189000
Raw,2064536124,790292000000,,,-1311985616708420903,0.0,10.281181899413847,,,0,1,0.0,16431,175206927524042,34,28.77589988708496,464.0935168254132,0.17115171215908198,4,347854.82976568514,3.4028234663852886E38,1.57542003E9,,,,0,,1,,1.57542003E9
Raw,2064536124,790292000000,,,-1311985616708420903,0.0,10.281181899413847,,,0,3,0.0,16431,175206926375272,36,28.36224365234375,-274.8797663591507,0.17922720741057774,4,-45978.15437752148,3.4028234663852886E38,1.57542003E9,,,,0,,1,,1.57542003E9
Raw,2064536125,790292000000,,,-1311985616708420903,0.0,10.281181899413847,,,0,6,0.0,51,3755419,71,20.65583610534668,-692.7276329489473,4.2006755473575765,4,-528443.6310922515,3.4028234663852886E38,1.57542003E9,,,,0,,1,,1.57542003E9
Raw,2064536126,790292000000,,,-1311985616708420903,0.0,10.281181899413847,,,0,7,0.0,16,790017433714,1000000000,7.0,549.9017928918277,2.99792458E8,2,9.346751486307465,3.4028234663852886E38,1.57542003E9,,,,0,,1,,1.57542003E9
Raw,2064536126,790292000000,,,-1311985616708420903,0.0,10.281181899413847,,,0,14,0.0,16431,175206933156030,9,40.34408187866211,-153.6808127587543,0.047191866531701016,1,-152170.85824174256,8.732964633964002E-4,1.57542003E9,,,,0,,1,,1.57542003E9
Raw,2064536126,790292000000,,,-1311985616708420903,0.0,10.281181899413847,,,0,17,0.0,16431,175206929955836,8,40.64589309692383,-207.77476658770456,0.045085406796620264,1,-171880.24001558442,8.434726041741669E-4,1.57542003E9,,,,0,,1,,1.57542003E9
Raw,2064536126,790292000000,,,-1311985616708420903,0.0,10.281181899413847,,,0,19,0.0,16431,175206927430045,7,41.91983413696289,-463.72634652129295,0.03872485987808538,1,-569381.3259104901,7.678084075450897E-4,1.57542003E9,,,,0,,1,,1.57542003E9
Raw,2064536127,790292000000,,,-1311985616708420903,0.0,10.281181899413847,,,0,21,0.0,16431,175206917960691,23,31.946584701538086,483.1475868041425,0.12109956116910015,4,591070.3103872795,3.4028234663852886E38,1.57542003E9,,,,0,,1,,1.57542003E9
Raw,2064536127,790292000000,,,-1311985616708420903,0.0,10.281181899413847,,,0,22,0.0,16431,175206923985974,36,28.126785278320312,64.52092330187853,0.1836908609291772,4,15585.975622889675,3.4028234663852886E38,1.57542003E9,,,,0,,1,,1.57542003E9
Raw,2064536127,790292000000,,,-1311985616708420903,0.0,10.281181899413847,,,0,24,0.0,16431,175206916415987,18,34.232582092285156,-466.72291018123497,0.09354679074786643,4,-571876.2548756478,3.4028234663852886E38,1.57542003E9,,,,0,,1,,1.57542003E9
Raw,2064536128,790292000000,,,-1311985616708420903,0.0,10.281181899413847,,,0,30,0.0,16,790003474357,1000000000,7.0,465.4300262754987,2.99792458E8,2,1.3885840861570298,3.4028234663852886E38,1.57542003E9,,,,0,,1,,1.57542003E9
Raw,2064536128,790292000000,,,-1311985616708420903,0.0,10.281181899413847,,,0,10,0.0,32995,13188920416248,33,39.87152099609375,-887.3616357646301,0.05100411327536969,1,-631004.6827623735,9.090594830922782E-4,1.59806246E9,,,,0,,3,,1.59806246E9
Raw,2064536128,790292000000,,,-1311985616708420903,0.0,10.281181899413847,,,0,2,0.0,32995,13188920837818,68,28.857547760009766,-117.67549220384001,0.17195789206207734,4,-134113.49526208526,3.4028234663852886E38,1.59975002E9,,,,0,,3,,1.59975002E9
Raw,2064536129,790292000000,,,-1311985616708420903,0.0,10.281181899413847,,,0,18,0.0,32995,13188929994437,51,31.200664520263672,365.95877503822,0.1302362390000068,4,46475.50288853928,3.4028234663852886E38,1.60031245E9,,,,0,,3,,1.60031245E9
Raw,2064536129,790292000000,,,-1311985616708420903,0.0,10.281181899413847,,,0,9,0.0,32995,13188932930115,33,38.02347183227539,-492.92199226294974,0.06087958410152025,1,-429026.52620077773,0.0011226156493648887,1.59862502E9,,,,0,,3,,1.59862502E9
Raw,2064536130,790292000000,,,-1311985616708420903,0.0,10.281181899413847,,,0,16,0.0,99,934513004,84,26.949474334716797,281.2745895116126,0.21214460308561034,4,10873.51734968546,3.4028234663852886E38,1.60143744E9,,,,0,,3,,1.60143744E9
Raw,2064536130,790292000000,,,-1311985616708420903,0.0,10.281181899413847,,,0,19,0.0,32995,13188934061144,69,28.730228424072266,-72.5101195101704,0.1732227372894014,1,-10691.70691834118,0.0030800283420830965,1.60368755E9,,,,0,,3,,1.60368755E9
Raw,2064536130,790292000000,,,-1311985616708420903,0.0,10.281181899413847,,,0,3,0.0,32995,13188921950383,93,26.12749481201172,-573.1676706002763,0.23068249718926281,4,-467179.9753016479,3.4028234663852886E38,1.60481254E9,,,,0,,3,,1.60481254E9
Raw,2064536131,790292000000,,,-1311985616708420903,0.0,10.281181899413847,,,0,193,0.0,35,11842963,43,26.727209091186523,-179.86237645781637,0.21709532952291566,4,-29939.38868059906,3.4028234663852886E38,1.57542003E9,,,,0,,4,,1.57542003E9
Raw,2064536131,790292000000,,,-1311985616708420903,0.0,10.281181899413847,,,0,194,0.0,35,16353045,8,40.57939910888672,-163.82368365502964,0.0465688215861301,1,-29223.87580424973,8.499546092934906E-4,1.57542003E9,,,,0,,4,,1.57542003E9
Raw,2064536131,790292000000,,,-1311985616708420903,0.0,10.281181899413847,,,0,195,0.0,35,8574536,38,27.830419540405273,-108.9944945533552,0.19086709855339434,4,-80885.5159481523,3.4028234663852886E38,1.57542003E9,,,,0,,4,,1.57542003E9
Raw,2064536131,790292000000,,,-1311985616708420903,0.0,10.281181899413847,,,0,7,0.0,16431,175192880446683,20,27.179515838623047,-111.54150209114721,0.20773538497486543,4,-80581.03431173706,3.4028234663852886E38,1.56109798E9,,,,0,,5,,1.56109798E9
Raw,2064536132,790292000000,,,-1311985616708420903,0.0,10.281181899413847,,,0,8,0.0,16431,175192878468590,10,33.43653869628906,-228.24237236826093,0.10261113488869672,1,-164879.9295715201,0.0019521128851920366,1.56109798E9,,,,0,,5,,1.56109798E9
Raw,2064536132,790292000000,,,-1311985616708420903,0.0,10.281181899413847,,,0,10,0.0,16431,175192880868597,7,35.93983840942383,-172.30283647737224,0.07818176033113433,1,-99390.33073425414,0.001463322201743722,1.56109798E9,,,,0,,5,,1.56109798E9
Raw,2064536132,790292000000,,,-1311985616708420903,0.0,10.281181899413847,,,0,32,0.0,16431,175192912473914,12,31.4036922454834,-640.2294026931668,0.12771487777850793,1,-41560.57540535428,0.0024668758269399405,1.56109798E9,,,,0,,5,,1.56109798E9
Raw,2064536133,790292000000,,,-1311985616708420903,0.0,10.281181899413847,,,0,36,0.0,16431,175192920746909,6,40.349220275878906,-397.8940027176368,0.04853076371747839,1,-77179.42576278711,8.807869162410498E-4,1.56109798E9,,,,0,,5,,1.56109798E9
Fix,gps,34.486742,109.464180,357.749542,0.000000,3.000000,1627951190000
Raw,2064537151,791292000000,,,-1311985616708421293,0.0,10.769623832322178,,,0,1,0.0,16431,175207927522451,36,28.213287353515625,464.21253276359084,0.1825138179677781,4,348318.92968427145,3.4028234663852886E38,1.57542003E9,,,,0,,1,,1.57542003E9
Raw,2064537152,791292000000,,,-1311985616708421293,0.0,10.769623832322178,,,0,3,0.0,16431,175207926376260,40,27.3812255859375,-274.6477500363717,0.2005203053323259,4,-46252.85648972289,3.4028234663852886E38,1.57542003E9,,,,0,,1,,1.57542003E9
Raw,2064537152,791292000000,,,-1311985616708421293,0.0,10.769623832322178,,,0,6,0.0,51,3757718,78,19.323631286621094,-692.1059007770582,4.200675813626768,4,-529135.8231772319,3.4028234663852886E38,1.57542003E9,,,,0,,1,,1.57542003E9
Raw,2064537152,791292000000,,,-1311985616708421293,0.0,10.769623832322178,,,0,7,0.0,16,791017431880,1000000000,7.0,549.9017928918277,2.99792458E8,2,9.342451178989036,3.4028234663852886E38,1.57542003E9,,,,0,,1,,1.57542003E9
Raw,2064537153,791292000000,,,-1311985616708421293,0.0,10.769623832322178,,,0,14,0.0,16431,175207933156563,8,41.41508483886719,-153.52222708855368,0.04199197869837054,1,-152324.47707056382,8.137484546750784E-4,1.57542003E9,,,,0,,1,,1.57542003E9
Raw,2064537153,791292000000,,,-1311985616708421293,0.0,10.769623832322178,,,0,17,0.0,16431,175207929956554,8,40.74744415283203,-207.85508189650056,0.04458230364048979,1,-172088.05810453332,8.336688624694943E-4,1.57542003E9,,,,0,,1,,1.57542003E9
Raw,2064537153,791292000000,,,-1311985616708421293,0.0,10.769623832322178,,,0,19,0.0,16431,175207927431628,7,41.84298324584961,-463.7597473286853,0.03905741761700601,1,-569845.0757842631,7.746315677650273E-4,1.57542003E9,,,,0,,1,,1.57542003E9
Raw,2064537153,791292000000,,,-1311985616708421293,0.0,10.769623832322178,,,0,21,0.0,16431,175207917959118,37,28.10918426513672,483.78745084290176,0.18657545493255845,4,591553.3619011305,3.4028234663852886E38,1.57542003E9,,,,0,,1,,1.57542003E9
Raw,2064537154,791292000000,,,-1311985616708421293,0.0,10.769623832322178,,,0,22,0.0,16431,175207923985777,35,28.496723175048828,64.66579930394286,0.17606146642453224,4,15650.572962096045,3.4028234663852886E38,1.57542003E9,,,,0,,1,,1.57542003E9
Raw,2064537154,791292000000,,,-1311985616708421293,0.0,10.769623832322178,,,0,24,0.0,16431,175207916417547,24,31.76736831665039,-466.6353864328844,0.12327922412958603,4,-572342.964560717,3.4028234663852886E38,1.57542003E9,,,,0,,1,,1.57542003E9
Raw,2064537155,791292000000,,,-1311985616708421293,0.0,10.769623832322178,,,0,30,0.0,16,791003472743,1000000000,9.572372436523438,465.6156734161784,2.99792458E8,2,1.3854967496580881,3.4028234663852886E38,1.57542003E9,,,,0,,1,,1.57542003E9
Raw,2064537155,791292000000,,,-1311985616708421293,0.0,10.769623832322178,,,0,10,0.0,32995,13189920419199,33,38.729469299316406,-887.4109189967621,0.057655654976201315,1,-631892.0710854793,0.0010367996292188764,1.59806246E9,,,,0,,3,,1.59806246E9
Raw,2064537155,791292000000,,,-1311985616708421293,0.0,10.769623832322178,,,0,2,0.0,32995,13189920838303,83,27.13735580444336,-116.62069129814381,0.20879873099145796,4,-134230.77586562268,3.4028234663852886E38,1.59975002E9,,,,0,,3,,1.59975002E9
Raw,2064537156,791292000000,,,-1311985616708421293,0.0,10.769623832322178,,,0,18,0.0,32995,13189929993170,40,33.28350067138672,366.7283228240485,0.10285150108048735,4,46842.40937184632,3.4028234663852886E38,1.60031245E9,,,,0,,3,,1.60031245E9
Raw,2064537156,791292000000,,,-1311985616708421293,0.0,10.769623832322178,,,0,9,0.0,32995,13189932931800,33,37.279205322265625,-492.87550379225263,0.0661184013227516,1,-429519.47558643157,0.0012230504071339965,1.59862502E9,,,,0,,3,,1.59862502E9
Raw,2064537156,791292000000,,,-1311985616708421293,0.0,10.769623832322178,,,0,16,0.0,99,1934511993,74,28.089513778686523,281.3759677785397,0.1863710766861929,4,11154.827330189046,3.4028234663852886E38,1.60143744E9,,,,0,,3,,1.60143744E9
Raw,2064537157,791292000000,,,-1311985616708421293,0.0,10.769623832322178,,,0,19,0.0,32995,13189934061382,67,28.993694305419922,-72.47533836328887,0.16812293338845774,1,-10764.25362438921,0.0029880048241466284,1.60368755E9,,,,0,,3,,1.60368755E9
Raw,2064537157,791292000000,,,-1311985616708421293,0.0,10.769623832322178,,,0,3,0.0,32995,13189921952286,88,26.559646606445312,-572.8960334217895,0.21950346809160548,4,-467752.98164604243,3.4028234663852886E38,1.60481254E9,,,,0,,3,,1.60481254E9
Raw,2064537157,791292000000,,,-1311985616708421293,0.0,10.769623832322178,,,0,193,0.0,35,11843532,58,24.167236328125,-180.02585296052803,0.29077704066532584,4,-30119.22933293943,3.4028234663852886E38,1.57542003E9,,,,0,,4,,1.57542003E9
Raw,2064537158,791292000000,,,-1311985616708421293,0.0,10.769623832322178,,,0,194,0.0,35,16353591,9,40.280948638916016,-163.81741248302944,0.04809402815735034,1,-29387.76080358838,8.796670590527356E-4,1.57542003E9,,,,0,,4,,1.57542003E9
Raw,2064537158,791292000000,,,-1311985616708421293,0.0,10.769623832322178,,,0,195,0.0,35,8574900,53,24.99063491821289,-108.84392678105155,0.26408307159607436,4,-80994.5880684631,3.4028234663852886E38,1.57542003E9,,,,0,,4,,1.57542003E9
Raw,2064537158,791292000000,,,-1311985616708421293,0.0,10.769623832322178,,,0,7,0.0,16431,175193880447056,20,27.129959106445312,-111.4209183599695,0.2089030253054367,4,-80692.54052953316,3.4028234663852886E38,1.56109798E9,,,,0,,5,,1.56109798E9
Raw,2064537158,791292000000,,,-1311985616708421293,0.0,10.769623832322178,,,0,8,0.0,16431,175193878469356,12,31.863473892211914,-228.30721424179558,0.12232431624126627,1,-165108.28283865628,0.0022058801259845495,1.56109798E9,,,,0,,5,,1.56109798E9
Raw,2064537159,791292000000,,,-1311985616708421293,0.0,10.769623832322178,,,0,10,0.0,16431,175193880869182,6,37.133583068847656,-172.30661963004627,0.0686246392862597,1,-99562.66320322035,0.0012754184426739812,1.56109798E9,,,,0,,5,,1.56109798E9
Raw,2064537159,791292000000,,,-1311985616708421293,0.0,10.769623832322178,,,0,32,0.0,16431,175193912476047,13,30.959760665893555,-640.2336289177756,0.13429472233904932,1,-42200.757744453884,0.002447752747684717,1.56109798E9,,,,0,,5,,1.56109798E9
Raw,2064537159,791292000000,,,-1311985616708421293,0.0,10.769623832322178,,,0,36,0.0,16431,175193920748227,6,39.84309387207031,-397.9074993704198,0.05121897171069775,1,-77577.34547300008,9.336351067759097E-4,1.56109798E9,,,,0,,5,,1.56109798E9
Fix,gps,34.486742,109.464180,357.785461,0.000000,3.000000,1627951191000
Raw,2064538135,792292000000,,,-1311985616708421678,0.0,10.514053840092759,,,0,1,0.0,16431,175208927520901,44,26.498281478881836,463.837693906753,0.22205888680689045,4,348783.08533095475,3.4028234663852886E38,1.57542003E9,,,,0,,1,,1.57542003E9
Raw,2064538135,792292000000,,,-1311985616708421678,0.0,10.514053840092759,,,0,3,0.0,16431,175208926377181,35,28.59862518310547,-274.3156676212417,0.17444652713574804,4,-46527.40106810081,3.4028234663852886E38,1.57542003E9,,,,0,,1,,1.57542003E9
Raw,2064538136,792292000000,,,-1311985616708421678,0.0,10.514053840092759,,,0,6,0.0,51,3760031,78,19.25577163696289,-692.081702232927,4.200676346165151,4,-529828.0507787167,3.4028234663852886E38,1.57542003E9,,,,0,,1,,1.57542003E9
Raw,2064538137,792292000000,,,-1311985616708421678,0.0,10.514053840092759,,,0,7,0.0,16,792017430046,1000000000,7.0,549.9017928918277,2.99792458E8,2,9.338150871690035,3.4028234663852886E38,1.57542003E9,,,,0,,1,,1.57542003E9
Raw,2064538137,792292000000,,,-1311985616708421678,0.0,10.514053840092759,,,0,14,0.0,16431,175208933157060,9,40.27482223510742,-153.46108316155176,0.04755089725290371,1,-152478.01583489752,9.279049118049443E-4,1.57542003E9,,,,0,,1,,1.57542003E9
Raw,2064538138,792292000000,,,-1311985616708421678,0.0,10.514053840092759,,,0,17,0.0,16431,175208929957243,8,41.054466247558594,-207.82236273823867,0.04309630520773036,1,-172295.8801099475,8.047153824009001E-4,1.57542003E9,,,,0,,1,,1.57542003E9
Raw,2064538138,792292000000,,,-1311985616708421678,0.0,10.514053840092759,,,0,19,0.0,16431,175208927433152,6,42.596839904785156,-463.8044294291867,0.0359219314678543,1,-570308.8651860226,7.102355593815446E-4,1.57542003E9,,,,0,,1,,1.57542003E9
Raw,2064538139,792292000000,,,-1311985616708421678,0.0,10.514053840092759,,,0,21,0.0,16431,175208917957447,32,29.16865348815918,483.3910718735415,0.16552158323762445,4,592036.3286250521,3.4028234663852886E38,1.57542003E9,,,,0,,1,,1.57542003E9
Raw,2064538140,792292000000,,,-1311985616708421678,0.0,10.514053840092759,,,0,22,0.0,16431,175208923985588,34,28.811355590820312,64.61954515013434,0.16982354478963424,4,15715.317480346952,3.4028234663852886E38,1.57542003E9,,,,0,,1,,1.57542003E9
Raw,2064538140,792292000000,,,-1311985616708421678,0.0,10.514053840092759,,,0,24,0.0,16431,175208916419109,16,35.367340087890625,-466.7031082739952,0.0824523354021861,4,-572809.6684582367,3.4028234663852886E38,1.57542003E9,,,,0,,1,,1.57542003E9
Raw,2064538141,792292000000,,,-1311985616708421678,0.0,10.514053840092759,,,0,30,0.0,16,792003471251,1000000000,11.395769119262695,465.6156734161784,2.99792458E8,2,1.3964202843013795,3.4028234663852886E38,1.57542003E9,,,,0,,1,,1.57542003E9
Raw,2064538142,792292000000,,,-1311985616708421678,0.0,10.514053840092759,,,0,10,0.0,32995,13190920422185,33,39.36676788330078,-887.397286014153,0.05383720499245995,1,-632779.4715917866,9.634518064558506E-4,1.59806246E9,,,,0,,3,,1.59806246E9
Raw,2064538142,792292000000,,,-1311985616708421678,0.0,10.514053840092759,,,0,2,0.0,32995,13190920838590,57,30.357053756713867,-117.1705946929111,0.14528720490526503,4,-134347.9280044127,3.4028234663852886E38,1.59975002E9,,,,0,,3,,1.59975002E9
Raw,2064538143,792292000000,,,-1311985616708421678,0.0,10.514053840092759,,,0,18,0.0,32995,13190929991994,166,29.744264602661133,366.85384851142203,0.15368242288855583,4,47209.46571731879,3.4028234663852886E38,1.60031245E9,,,,1,,3,,1.60031245E9
Raw,2064538143,792292000000,,,-1311985616708421678,0.0,10.514053840092759,,,0,9,0.0,32995,13190932933438,33,37.07391357421875,-492.741559738118,0.06764439005972211,1,-430012.3265519292,0.0012523018522188067,1.59862502E9,,,,0,,3,,1.59862502E9
Raw,2064538144,792292000000,,,-1311985616708421678,0.0,10.514053840092759,,,0,16,0.0,99,934511105,84,26.938081741333008,281.48443519642353,0.21241929304037865,4,11436.261334560735,3.4028234663852886E38,1.60143744E9,,,,0,,3,,1.60143744E9
Raw,2064538145,792292000000,,,-1311985616708421678,0.0,10.514053840092759,,,0,19,0.0,32995,13190934061560,69,28.70132064819336,-72.50865396453992,0.1737918710445887,1,-10836.7742820255,0.0030902959406375885,1.60368755E9,,,,0,,3,,1.60368755E9
Raw,2064538146,792292000000,,,-1311985616708421678,0.0,10.514053840092759,,,0,3,0.0,32995,13190921954164,80,27.395437240600586,-572.975990864792,0.199398879348319,4,-468325.8930325596,3.4028234663852886E38,1.60481254E9,,,,0,,3,,1.60481254E9
Raw,2064538146,792292000000,,,-1311985616708421678,0.0,10.514053840092759,,,0,193,0.0,35,11844060,63,23.452777862548828,-180.21468681089266,0.31552360007645097,4,-30298.97627887972,3.4028234663852886E38,1.57542003E9,,,,0,,4,,1.57542003E9
Raw,2064538147,792292000000,,,-1311985616708421678,0.0,10.514053840092759,,,0,194,0.0,35,16354159,8,40.55762481689453,-163.81097089874663,0.04667851201169454,1,-29551.634775934184,8.520883275195956E-4,1.57542003E9,,,,0,,4,,1.57542003E9
Raw,2064538148,792292000000,,,-1311985616708421678,0.0,10.514053840092759,,,0,195,0.0,35,8575273,45,26.30514144897461,-108.85204692631811,0.22721116238040073,4,-81103.63070179212,3.4028234663852886E38,1.57542003E9,,,,0,,4,,1.57542003E9
Raw,2064538148,792292000000,,,-1311985616708421678,0.0,10.514053840092759,,,0,7,0.0,16431,175194880447426,22,26.417112350463867,-111.83320531591181,0.22645623929678538,4,-80804.05241436455,3.4028234663852886E38,1.56109798E9,,,,0,,5,,1.56109798E9
Raw,2064538149,792292000000,,,-1311985616708421678,0.0,10.514053840092759,,,0,8,0.0,16431,175194878470097,10,32.67097091674805,-228.31820583402418,0.11175988636325929,1,-165336.6347022771,0.00201005139388144,1.56109798E9,,,,0,,5,,1.56109798E9
Raw,2064538149,792292000000,,,-1311985616708421678,0.0,10.514053840092759,,,0,10,0.0,16431,175194880869755,7,36.5672607421875,-172.316316088927,0.07299527748741769,1,-99735.00442689842,0.0013613470364362001,1.56109798E9,,,,0,,5,,1.56109798E9
Raw,2064538150,792292000000,,,-1311985616708421678,0.0,10.514053840092759,,,0,32,0.0,16431,175194912478188,11,31.991775512695312,-640.2055449736008,0.11950174631769972,1,-42840.954630538035,0.002305383328348398,1.56109798E9,,,,0,,5,,1.56109798E9
Raw,2064538151,792292000000,,,-1311985616708421678,0.0,10.514053840092759,,,0,36,0.0,16431,175194920749560,6,40.165870666503906,-397.87242852265786,0.049486948865826524,1,-77975.23435158453,8.995768730528653E-4,1.56109798E9,,,,0,,5,,1.56109798E9
Fix,gps,34.486742,109.464180,357.793701,0.000000,3.000000,1627951192000
Raw,2064539153,793292000000,,,-1311985616708422063,0.0,10.405932509358102,,,0,1,0.0,16431,175209927519403,47,25.950443267822266,464.73164265888977,0.2364274214159422,4,349247.50221000146,3.4028234663852886E38,1.57542003E9,,,,0,,1,,1.57542003E9
