# 
# Header Description:
# 
# Version: v2.0.0.1 Platform: 10 Manufacturer: HUAWEI Model: BLA-AL00
# 
# Raw,ElapsedRealtimeMillis,TimeNanos,LeapSecond,TimeUncertaintyNanos,FullBiasNanos,BiasNanos,BiasUncertaintyNanos,DriftNanosPerSecond,DriftUncertaintyNanosPerSecond,HardwareClockDiscontinuityCount,Svid,TimeOffsetNanos,State,ReceivedSvTimeNanos,ReceivedSvTimeUncertaintyNanos,Cn0DbHz,PseudorangeRateMetersPerSecond,PseudorangeRateUncertaintyMetersPerSecond,AccumulatedDeltaRangeState,AccumulatedDeltaRangeMeters,AccumulatedDeltaRangeUncertaintyMeters,CarrierFrequencyHz,CarrierCycles,CarrierPhase,CarrierPhaseUncertainty,MultipathIndicator,SnrInDb,ConstellationType,AgcDb,CarrierFrequencyHz
# 
# Fix,Provider,Latitude,Longitude,Altitude,Speed,Accuracy,(UTC)TimeInMs
# 
# Nav,Svid,Type,Status,MessageId,Sub-messageId,Data(Bytes)
# 
Fix,gps,34.486343,109.464192,356.976807,0.373076,3.000000,1627952285999
Raw,2065633167,1887291000000,,,-1311985616708844160,0.0,7.198845985707231,,,0,1,0.0,16431,176303924734358,49,25.639543533325195,509.78023181528397,0.24449304806552485,4,597951.7863168584,3.4028234663852886E38,1.57542003E9,,,,0,,1,,1.57542003E9
Raw,2065633168,1887291000000,,,-1311985616708844160,0.0,7.198845985707231,,,0,2,0.0,16,1887015083420,1000000000,13.390180587768555,-683.5713128391812,2.99792458E8,2,-10.245592666894108,3.4028234663852886E38,1.57542003E9,,,,0,,1,,1.57542003E9
Raw,2065633169,1887291000000,,,-1311985616708844160,0.0,7.198845985707231,,,0,3,0.0,16430,176303926136362,1000000000,23.06483268737793,-139.80322887978008,2.99792458E8,4,-13228.100168388375,3.4028234663852886E38,1.57542003E9,,,,0,,1,,1.57542003E9
Raw,2065633169,1887291000000,,,-1311985616708844160,0.0,7.198845985707231,,,0,6,0.0,51,5163891,8,40.68156814575195,-622.1776295958603,0.04404599588407751,4,-525535.7412577313,3.4028234663852886E38,1.57542003E9,,,,0,,1,,1.57542003E9
Raw,2065633170,1887291000000,,,-1311985616708844160,0.0,7.198845985707231,,,0,14,0.0,16431,176303932506991,10,39.43476104736328,-36.864172897446736,0.05202229754079582,1,-257345.53898919595,9.696781635284424E-4,1.57542003E9,,,,0,,1,,1.57542003E9
Raw,2065633170,1887291000000,,,-1311985616708844160,0.0,7.198845985707231,,,0,17,0.0,16431,176303929665282,20,33.4071044921875,-180.06385489955096,0.10136464559376751,1,-137017.992652582,0.001940932939760387,1.57542003E9,,,,0,,1,,1.57542003E9
Raw,2065633171,1887291000000,,,-1311985616708844160,0.0,7.198845985707231,,,0,19,0.0,16431,176303928062994,6,43.54471206665039,-428.4952430487508,0.032459697656751454,4,-530292.9947894518,3.4028234663852886E38,1.57542003E9,,,,0,,1,,1.57542003E9
Raw,2065633172,1887291000000,,,-1311985616708844160,0.0,7.198845985707231,,,0,21,0.0,16431,176303915213262,20,33.195960998535156,470.1029355595151,0.10481405479888506,4,546855.6234068315,3.4028234663852886E38,1.57542003E9,,,,0,,1,,1.57542003E9
Raw,2065633172,1887291000000,,,-1311985616708844160,0.0,7.198845985707231,,,0,22,0.0,16431,176303922527549,57,24.32821273803711,184.5328999698762,0.2838010873986536,4,9790.645283483971,3.4028234663852886E38,1.57542003E9,,,,0,,1,,1.57542003E9
Raw,2065633173,1887291000000,,,-1311985616708844160,0.0,7.198845985707231,,,0,24,0.0,16,1887016929803,1000000000,26.50197982788086,-358.8656705165188,2.99792458E8,2,-524293.7380137384,3.4028234663852886E38,1.57542003E9,,,,0,,1,,1.57542003E9
Raw,2065633173,1887291000000,,,-1311985616708844160,0.0,7.198845985707231,,,0,30,0.0,39,5920713585,15,35.65088653564453,492.5730219906127,0.08067151040704479,4,2471.6562072269567,3.4028234663852886E38,1.57542003E9,,,,0,,1,,1.57542003E9
Raw,2065633174,1887291000000,,,-1311985616708844160,0.0,7.198845985707231,,,0,10,0.0,16,1887002570434,1000000000,24.29922866821289,-831.11208584921,2.99792458E8,2,-524289.6503520776,3.4028234663852886E38,1.59806246E9,,,,0,,3,,1.59806246E9
Raw,2065633175,1887291000000,,,-1311985616708844160,0.0,7.198845985707231,,,0,2,0.0,32995,14285919984710,65,21.862489700317383,35.18069125903784,4.2035949227741085,4,1201.0505663401043,3.4028234663852886E38,1.59975002E9,,,,0,,3,,1.59975002E9
Raw,2065633175,1887291000000,,,-1311985616708844160,0.0,7.198845985707231,,,0,18,0.0,32994,14285927620973,1000000000,24.643009185791016,382.6825252171152,2.99792458E8,4,13716.858464486319,3.4028234663852886E38,1.60031245E9,,,,0,,3,,1.60031245E9
Raw,2065633176,1887291000000,,,-1311985616708844160,0.0,7.198845985707231,,,0,9,0.0,32995,14285933434358,33,37.731468200683594,-325.52099693005766,0.06297221032000697,4,-687422.1282284067,3.4028234663852886E38,1.59862502E9,,,,0,,3,,1.59862502E9
Raw,2065633176,1887291000000,,,-1311985616708844160,0.0,7.198845985707231,,,0,16,0.0,32995,14285932208280,33,41.03135681152344,427.8781120084923,0.04361124902197411,1,4703.575670458056,7.937510381452739E-4,1.60143744E9,,,,0,,3,,1.60143744E9
Raw,2065633177,1887291000000,,,-1311985616708844160,0.0,7.198845985707231,,,0,3,0.0,32995,14285922869536,82,27.16741371154785,-470.4488384107651,0.20485817994155064,4,-877091.7259726762,3.4028234663852886E38,1.60481254E9,,,,0,,3,,1.60481254E9
Raw,2065633177,1887291000000,,,-1311985616708844160,0.0,7.198845985707231,,,0,193,0.0,35,11502657,24,31.78446388244629,-180.12995782397695,0.12215858863224166,1,-13700.116169905117,0.0023396052420139313,1.57542003E9,,,,0,,4,,1.57542003E9
Raw,2065633178,1887291000000,,,-1311985616708844160,0.0,7.198845985707231,,,0,194,0.0,35,15912090,7,42.419647216796875,-141.4050617332815,0.038159865776735996,1,-107788.79812410932,7.24873214494437E-4,1.57542003E9,,,,0,,4,,1.57542003E9
Raw,2065633179,1887291000000,,,-1311985616708844160,0.0,7.198845985707231,,,0,195,0.0,35,8004905,37,27.9350643157959,-126.26403267039257,0.18849738595741505,1,-7433.86718011633,0.0034358662087470293,1.57542003E9,,,,0,,4,,1.57542003E9
Raw,2065633179,1887291000000,,,-1311985616708844160,0.0,7.198845985707231,,,0,7,0.0,16431,176289879820271,9,33.86347198486328,-92.06428989407306,0.0980919392809152,1,-192562.93527538033,0.0018584815552458167,1.56109798E9,,,,0,,5,,1.56109798E9
Raw,2065633180,1887291000000,,,-1311985616708844160,0.0,7.198845985707231,,,0,8,0.0,16431,176289878241181,10,32.82006072998047,-194.09994776319866,0.10987335249905894,4,-396484.95168024796,3.4028234663852886E38,1.56109798E9,,,,0,,5,,1.56109798E9
Raw,2065633181,1887291000000,,,-1311985616708844160,0.0,7.198845985707231,,,0,10,0.0,16431,176289880474546,10,32.88246154785156,-158.1924097760483,0.10951203352699107,1,-281026.3507609083,0.0020806968677788973,1.56109798E9,,,,0,,5,,1.56109798E9
Raw,2065633181,1887291000000,,,-1311985616708844160,0.0,7.198845985707231,,,0,30,0.0,16431,176289924742523,6,39.383018493652344,-305.3168485384226,0.050923055108812815,1,-229596.76988170267,9.844213491305709E-4,1.56109798E9,,,,0,,5,,1.56109798E9
Raw,2065633181,1887291000000,,,-1311985616708844160,0.0,7.198845985707231,,,0,32,0.0,16431,176289913840973,11,32.0172233581543,-650.0356070839098,0.11940382582249454,1,-468480.71435927384,0.002298638690263033,1.56109798E9,,,,0,,5,,1.56109798E9
Raw,2065633181,1887291000000,,,-1311985616708844160,0.0,7.198845985707231,,,0,33,0.0,16431,176289910771203,26,25.007373809814453,56.24972884831692,0.26397268637433813,4,13846.51014431064,3.4028234663852886E38,1.56109798E9,,,,0,,5,,1.56109798E9
Raw,2065633182,1887291000000,,,-1311985616708844160,0.0,7.198845985707231,,,0,36,0.0,16431,176289921011468,9,33.9205436706543,-291.5380952627504,0.09408963042038476,1,-271734.0244946801,0.0018463103333488107,1.56109798E9,,,,0,,5,,1.56109798E9
Fix,gps,34.486342,109.464188,356.973694,0.260142,3.000000,1627952286999
Raw,2065634158,1888291000000,,,-1311985616708844547,0.0,7.482315152683276,,,0,1,0.0,16431,176304924732602,53,24.987472534179688,510.5284099008727,0.26348759383274467,4,598462.2671931892,3.4028234663852886E38,1.57542003E9,,,,0,,1,,1.57542003E9
Raw,2065634159,1888291000000,,,-1311985616708844547,0.0,7.482315152683276,,,0,2,0.0,16,1888015085761,1000000000,16.22450065612793,-683.5713128391812,2.99792458E8,2,-10.240247045961787,3.4028234663852886E38,1.57542003E9,,,,0,,1,,1.57542003E9
Raw,2065634159,1888291000000,,,-1311985616708844547,0.0,7.482315152683276,,,0,3,0.0,16430,176304926136784,1000000000,19.624765396118164,-139.82254511201438,2.99792458E8,4,-13368.851233265908,3.4028234663852886E38,1.57542003E9,,,,0,,1,,1.57542003E9
Raw,2065634160,1888291000000,,,-1311985616708844547,0.0,7.482315152683276,,,0,6,0.0,16431,176304925165960,9,40.3914794921875,-622.1060564371624,0.04551069278151018,4,-526157.8604641453,3.4028234663852886E38,1.57542003E9,,,,0,,1,,1.57542003E9
Raw,2065634160,1888291000000,,,-1311985616708844547,0.0,7.482315152683276,,,0,14,0.0,16431,176304932507104,11,38.4179573059082,-36.71619113153176,0.05820362865156989,1,-257382.27667175824,0.0010901038767769933,1.57542003E9,,,,0,,1,,1.57542003E9
Raw,2065634160,1888291000000,,,-1311985616708844547,0.0,7.482315152683276,,,0,17,0.0,16431,176304929665906,23,32.06535720825195,-179.89656116170875,0.11800676129972432,1,-137197.9363279839,0.002135608112439513,1.57542003E9,,,,0,,1,,1.57542003E9
Raw,2065634161,1888291000000,,,-1311985616708844547,0.0,7.482315152683276,,,0,19,0.0,16431,176304928064415,6,43.194488525390625,-428.4532534623147,0.03373582188061279,4,-530721.4364191546,3.4028234663852886E38,1.57542003E9,,,,0,,1,,1.57542003E9
Raw,2065634161,1888291000000,,,-1311985616708844547,0.0,7.482315152683276,,,0,21,0.0,16431,176304915211776,25,31.43720245361328,470.15140081269055,0.12772420552112562,4,547325.7381269885,3.4028234663852886E38,1.57542003E9,,,,0,,1,,1.57542003E9
Raw,2065634161,1888291000000,,,-1311985616708844547,0.0,7.482315152683276,,,0,22,0.0,16431,176304922526939,59,23.977426528930664,184.77701556472084,0.295478289511941,4,9975.31145310162,3.4028234663852886E38,1.57542003E9,,,,0,,1,,1.57542003E9
Raw,2065634161,1888291000000,,,-1311985616708844547,0.0,7.482315152683276,,,0,24,0.0,16,1888016930999,1000000000,26.673168182373047,-358.680023375839,2.99792458E8,2,-524293.7322405815,3.4028234663852886E38,1.57542003E9,,,,0,,1,,1.57542003E9
Raw,2065634162,1888291000000,,,-1311985616708844547,0.0,7.482315152683276,,,0,30,0.0,16431,176304920711966,16,35.16568374633789,492.58328081002605,0.0850918119728894,1,2964.274240074155,0.001585190650075674,1.57542003E9,,,,0,,1,,1.57542003E9
Raw,2065634162,1888291000000,,,-1311985616708844547,0.0,7.482315152683276,,,0,10,0.0,16,1888002573206,1000000000,27.623920440673828,-831.0206767008158,2.99792458E8,2,-524289.6892008455,3.4028234663852886E38,1.59806246E9,,,,0,,3,,1.59806246E9
Raw,2065634162,1888291000000,,,-1311985616708844547,0.0,7.482315152683276,,,0,2,0.0,32995,14286919984799,74,20.234615325927734,35.453071861107546,4.2035949227741085,4,1236.7370903835251,3.4028234663852886E38,1.59975002E9,,,,0,,3,,1.59975002E9
Raw,2065634163,1888291000000,,,-1311985616708844547,0.0,7.482315152683276,,,0,18,0.0,32995,14286927619554,65,21.816295623779297,382.63344647972235,4.2013707762168035,4,14098.294959045315,3.4028234663852886E38,1.60031245E9,,,,0,,3,,1.60031245E9
Raw,2065634163,1888291000000,,,-1311985616708844547,0.0,7.482315152683276,,,0,9,0.0,32995,14286933435447,33,36.883209228515625,-325.349630338661,0.06918463667981076,1,-687747.5193527401,0.0012801008997485042,1.59862502E9,,,,0,,3,,1.59862502E9
Raw,2065634163,1888291000000,,,-1311985616708844547,0.0,7.482315152683276,,,0,16,0.0,32995,14286932206844,33,40.60332489013672,428.0333916804102,0.04570301818650041,1,5131.546774492053,8.338462212122977E-4,1.60143744E9,,,,0,,3,,1.60143744E9
Raw,2065634164,1888291000000,,,-1311985616708844547,0.0,7.482315152683276,,,0,3,0.0,32995,14286922870986,80,27.397903442382812,-470.2104997923011,0.19950731747659178,4,-877562.0254796734,3.4028234663852886E38,1.60481254E9,,,,0,,3,,1.60481254E9
Raw,2065634164,1888291000000,,,-1311985616708844547,0.0,7.482315152683276,,,0,193,0.0,35,11503253,24,31.6900634765625,-180.0536812862789,0.12347095458935131,1,-13880.202139557245,0.0023651709780097008,1.57542003E9,,,,0,,4,,1.57542003E9
Raw,2065634164,1888291000000,,,-1311985616708844547,0.0,7.482315152683276,,,0,194,0.0,35,15912560,7,42.377159118652344,-141.352745162519,0.03833302396038826,1,-107930.16804952527,7.284279563464224E-4,1.57542003E9,,,,0,,4,,1.57542003E9
Raw,2065634164,1888291000000,,,-1311985616708844547,0.0,7.482315152683276,,,0,195,0.0,35,8005387,43,26.71320343017578,-126.18234554272152,0.2167519754003675,1,-7560.062164902282,0.0039548431523144245,1.57542003E9,,,,0,,4,,1.57542003E9
Raw,2065634165,1888291000000,,,-1311985616708844547,0.0,7.482315152683276,,,0,7,0.0,16431,176290879820567,9,34.18165588378906,-92.01306396191927,0.09469190636901209,1,-192654.96630968573,0.0017916330834850669,1.56109798E9,,,,0,,5,,1.56109798E9
Raw,2065634165,1888291000000,,,-1311985616708844547,0.0,7.482315152683276,,,0,8,0.0,16431,176290878241817,10,33.252647399902344,-194.01748525964172,0.10469483276835312,4,-396679.0054249652,3.4028234663852886E38,1.56109798E9,,,,0,,5,,1.56109798E9
Raw,2065634165,1888291000000,,,-1311985616708844547,0.0,7.482315152683276,,,0,10,0.0,16431,176290880475084,12,31.676424026489258,-158.13792896929658,0.12527559403531496,1,-281184.47803542204,0.0023906207643449306,1.56109798E9,,,,0,,5,,1.56109798E9
Raw,2065634166,1888291000000,,,-1311985616708844547,0.0,7.482315152683276,,,0,30,0.0,16431,176290924743553,6,38.33629608154297,-305.2645660501166,0.05733570757977588,1,-229902.02839308794,0.0011104962322860956,1.56109798E9,,,,0,,5,,1.56109798E9
Raw,2065634166,1888291000000,,,-1311985616708844547,0.0,7.482315152683276,,,0,32,0.0,16431,176290913843135,11,32.432533264160156,-649.9766444341253,0.11394559030602924,1,-469130.7343862287,0.002191317267715931,1.56109798E9,,,,0,,5,,1.56109798E9
Raw,2065634166,1888291000000,,,-1311985616708844547,0.0,7.482315152683276,,,0,33,0.0,16431,176290910771080,30,23.887733459472656,56.78706433724142,0.3000235378959366,4,13902.809413723468,3.4028234663852886E38,1.56109798E9,,,,0,,5,,1.56109798E9
Raw,2065634167,1888291000000,,,-1311985616708844547,0.0,7.482315152683276,,,0,36,0.0,16431,176290921012445,10,32.82792663574219,-291.4035036419418,0.10667783096811717,1,-272025.4811355662,0.002093801973387599,1.56109798E9,,,,0,,5,,1.56109798E9
Fix,gps,34.486342,109.464188,356.997162,0.000000,3.000000,1627952287999
Raw,2065635127,1889291000000,,,-1311985616708844932,0.0,7.534689827045135,,,0,1,0.0,16431,176305924730847,40,27.332077026367188,510.5324657131989,0.20135564171179976,4,598972.7731842115,3.4028234663852886E38,1.57542003E9,,,,0,,1,,1.57542003E9
Raw,2065635127,1889291000000,,,-1311985616708844932,0.0,7.534689827045135,,,0,2,0.0,16,1889015088041,1000000000,7.0,-683.5713128391812,2.99792458E8,2,-10.234901424884352,3.4028234663852886E38,1.57542003E9,,,,0,,1,,1.57542003E9
Raw,2065635128,1889291000000,,,-1311985616708844932,0.0,7.534689827045135,,,0,3,0.0,16431,176305926137469,166,21.29509925842285,-139.67419269938472,4.201103974486836,4,-13508.2690954768,3.4028234663852886E38,1.57542003E9,,,,1,,1,,1.57542003E9
Raw,2065635128,1889291000000,,,-1311985616708844932,0.0,7.534689827045135,,,0,6,0.0,16431,176305925168034,10,38.94159698486328,-622.0000599973764,0.05360994839789873,1,-526779.8788238904,0.001026327139697969,1.57542003E9,,,,0,,1,,1.57542003E9
Raw,2065635128,1889291000000,,,-1311985616708844932,0.0,7.534689827045135,,,0,14,0.0,16431,176305932507236,14,36.406394958496094,-36.575289995959395,0.07278537415532677,1,-257418.8847758514,0.0013741874136030674,1.57542003E9,,,,0,,1,,1.57542003E9
Raw,2065635129,1889291000000,,,-1311985616708844932,0.0,7.534689827045135,,,0,17,0.0,16431,176305929666531,29,30.00257110595703,-179.961573447526,0.1491735202492115,1,-137377.8513412134,0.0027080767322331667,1.57542003E9,,,,0,,1,,1.57542003E9
Raw,2065635129,1889291000000,,,-1311985616708844932,0.0,7.534689827045135,,,0,19,0.0,16431,176305928065864,6,43.19548416137695,-428.40219794244354,0.033732381183402785,4,-531149.8382746382,3.4028234663852886E38,1.57542003E9,,,,0,,1,,1.57542003E9
Raw,2065635129,1889291000000,,,-1311985616708844932,0.0,7.534689827045135,,,0,21,0.0,16431,176305915210163,26,30.87203025817871,470.143084693299,0.13612703713911328,1,547795.8164344782,0.002450123429298401,1.57542003E9,,,,0,,1,,1.57542003E9
Raw,2065635129,1889291000000,,,-1311985616708844932,0.0,7.534689827045135,,,0,22,0.0,16431,176305922526230,57,24.36741828918457,184.29693008214053,0.2825247925960914,4,10160.10929451937,3.4028234663852886E38,1.57542003E9,,,,0,,1,,1.57542003E9
Raw,2065635130,1889291000000,,,-1311985616708844932,0.0,7.534689827045135,,,0,24,0.0,16,1889016932195,1000000000,30.823637008666992,-358.680023375839,2.99792458E8,2,-524293.7294356547,3.4028234663852886E38,1.57542003E9,,,,0,,1,,1.57542003E9
Raw,2065635131,1889291000000,,,-1311985616708844932,0.0,7.534689827045135,,,0,30,0.0,16431,176305920710325,18,33.9218864440918,492.6117396612226,0.09761846273280461,1,3456.9573246324603,0.001829243265092373,1.57542003E9,,,,0,,1,,1.57542003E9
Raw,2065635131,1889291000000,,,-1311985616708844932,0.0,7.534689827045135,,,0,10,0.0,16,1889002575978,1000000000,27.107431411743164,-831.0206767008158,2.99792458E8,2,-524289.6761907376,3.4028234663852886E38,1.59806246E9,,,,0,,3,,1.59806246E9
Raw,2065635131,1889291000000,,,-1311985616708844932,0.0,7.534689827045135,,,0,2,0.0,32995,14287919984487,81,27.28602409362793,36.97813185113782,0.20516535473769226,4,1272.98672583599,3.4028234663852886E38,1.59975002E9,,,,0,,3,,1.59975002E9
Raw,2065635132,1889291000000,,,-1311985616708844932,0.0,7.534689827045135,,,0,18,0.0,32995,14287927618230,166,25.915447235107422,382.1227890336411,0.2373942781342343,4,14479.979872188433,3.4028234663852886E38,1.60031245E9,,,,1,,3,,1.60031245E9
Raw,2065635132,1889291000000,,,-1311985616708844932,0.0,7.534689827045135,,,0,9,0.0,32995,14287933436534,33,38.72681427001953,-325.156928129481,0.05641615108709508,1,-688072.7397344352,0.0010352946119382977,1.59862502E9,,,,0,,3,,1.59862502E9
Raw,2065635132,1889291000000,,,-1311985616708844932,0.0,7.534689827045135,,,0,16,0.0,32995,14287932205441,33,39.97706604003906,428.16716532226224,0.048955542126721846,1,5559.6642862467725,8.961872663348913E-4,1.60143744E9,,,,0,,3,,1.60143744E9
Raw,2065635132,1889291000000,,,-1311985616708844932,0.0,7.534689827045135,,,0,3,0.0,32995,14287922872483,61,29.703842163085938,-470.066876320514,0.15311026032131425,4,-878032.2061823481,3.4028234663852886E38,1.60481254E9,,,,0,,3,,1.60481254E9
Raw,2065635133,1889291000000,,,-1311985616708844932,0.0,7.534689827045135,,,0,193,0.0,35,11503859,22,32.326271057128906,-180.05773709860512,0.11489671217928116,1,-14060.257370589306,0.002198123838752508,1.57542003E9,,,,0,,4,,1.57542003E9
Raw,2065635133,1889291000000,,,-1311985616708844932,0.0,7.534689827045135,,,0,194,0.0,35,15913049,7,42.46470642089844,-141.32234361130065,0.03797739649229051,1,-108071.470426866,7.211228366941214E-4,1.57542003E9,,,,0,,4,,1.57542003E9
Raw,2065635133,1889291000000,,,-1311985616708844932,0.0,7.534689827045135,,,0,195,0.0,35,8005714,56,24.52123260498047,-126.19034639939025,0.27855927880947307,1,-7686.2899525616285,0.005090118385851383,1.57542003E9,,,,0,,4,,1.57542003E9
Raw,2065635134,1889291000000,,,-1311985616708844932,0.0,7.534689827045135,,,0,7,0.0,16431,176291879820881,9,34.299766540527344,-92.00550617718534,0.09346124344915768,1,-192746.9559470907,0.0017674352275207639,1.56109798E9,,,,0,,5,,1.56109798E9
Raw,2065635134,1889291000000,,,-1311985616708844932,0.0,7.534689827045135,,,0,8,0.0,16431,176291878242478,7,35.68541717529297,-194.01803057894608,0.07992172132627967,1,-396873.02524329163,0.001506818807683885,1.56109798E9,,,,0,,5,,1.56109798E9
Raw,2065635134,1889291000000,,,-1311985616708844932,0.0,7.534689827045135,,,0,10,0.0,16431,176291880475603,13,30.682968139648438,-158.05003031392425,0.14000948325886953,1,-281342.5364351464,0.0026803002692759037,1.56109798E9,,,,0,,5,,1.56109798E9
Raw,2065635134,1889291000000,,,-1311985616708844932,0.0,7.534689827045135,,,0,30,0.0,16431,176291924744568,6,36.72122573852539,-305.2237352672023,0.06887821076577047,1,-230207.2366005831,0.0013374286936596036,1.56109798E9,,,,0,,5,,1.56109798E9
Raw,2065635135,1889291000000,,,-1311985616708844932,0.0,7.534689827045135,,,0,32,0.0,16431,176291913845293,11,31.975261688232422,-650.0482175928232,0.11997079614050021,1,-469780.73561350344,0.0023097703233361244,1.56109798E9,,,,0,,5,,1.56109798E9
Raw,2065635135,1889291000000,,,-1311985616708844932,0.0,7.534689827045135,,,0,33,0.0,16431,176291910770903,32,23.281570434570312,56.72098697465782,0.32156917550407815,4,13959.14921091824,3.4028234663852886E38,1.56109798E9,,,,0,,5,,1.56109798E9
Raw,2065635135,1889291000000,,,-1311985616708844932,0.0,7.534689827045135,,,0,36,0.0,16431,176291921013412,9,34.30974197387695,-291.3369406043528,0.08997505581195253,1,-272316.8219179312,0.0017654066905379295,1.56109798E9,,,,0,,5,,1.56109798E9
Fix,gps,34.486342,109.464188,357.012299,0.000000,3.000000,1627952288999
Raw,2065636161,1890291000000,,,-1311985616708845315,0.0,7.270866431676681,,,0,1,0.0,16431,176306924729102,18,34.067832946777344,510.6344745055717,0.09317936422621659,4,599483.3577015834,3.4028234663852886E38,1.57542003E9,,,,0,,1,,1.57542003E9
Raw,2065636161,1890291000000,,,-1311985616708845315,0.0,7.270866431676681,,,0,2,0.0,16,1890015090260,1000000000,16.710552215576172,-683.5713128391812,2.99792458E8,2,-10.250938287985528,3.4028234663852886E38,1.57542003E9,,,,0,,1,,1.57542003E9
Raw,2065636162,1890291000000,,,-1311985616708845315,0.0,7.270866431676681,,,0,3,0.0,16431,176306926137854,166,28.536821365356445,-139.22306878423467,0.17564099408737144,4,-13647.543734985813,3.4028234663852886E38,1.57542003E9,,,,1,,1,,1.57542003E9
Raw,2065636162,1890291000000,,,-1311985616708845315,0.0,7.270866431676681,,,0,6,0.0,16431,176306925170114,16,34.88565444946289,-621.9129452385041,0.08496217216023672,1,-527401.8269938879,0.0016371292294934392,1.57542003E9,,,,0,,1,,1.57542003E9
Raw,2065636162,1890291000000,,,-1311985616708845315,0.0,7.270866431676681,,,0,14,0.0,16431,176306932507342,18,34.235260009765625,-36.44653925613741,0.09281579028693249,1,-257455.38279270811,0.001764422981068492,1.57542003E9,,,,0,,1,,1.57542003E9
Raw,2065636162,1890291000000,,,-1311985616708845315,0.0,7.270866431676681,,,0,17,0.0,16431,176306929667072,32,29.318668365478516,-179.870436958784,0.16125147413765795,1,-137557.72839428988,0.002929921727627516,1.57542003E9,,,,0,,1,,1.57542003E9
Raw,2065636163,1890291000000,,,-1311985616708845315,0.0,7.270866431676681,,,0,19,0.0,16431,176306928067284,6,43.946922302246094,-428.3374753575067,0.03145110532290654,1,-531578.1881270988,6.07992522418499E-4,1.57542003E9,,,,0,,1,,1.57542003E9
Raw,2065636163,1890291000000,,,-1311985616708845315,0.0,7.270866431676681,,,0,21,0.0,16431,176306915208533,17,34.87470626831055,470.13030377210293,0.08687381021665613,1,548265.9281161637,0.0016391940880566835,1.57542003E9,,,,0,,1,,1.57542003E9
Raw,2065636163,1890291000000,,,-1311985616708845315,0.0,7.270866431676681,,,0,22,0.0,16431,176306922525528,64,22.007659912109375,184.68570866369623,4.20045427765937,4,10345.0025909304,3.4028234663852886E38,1.57542003E9,,,,0,,1,,1.57542003E9
Raw,2065636163,1890291000000,,,-1311985616708845315,0.0,7.270866431676681,,,0,24,0.0,17,933219,25,31.387035369873047,-358.56605164122675,0.12875782923920753,4,-524580.5545046873,3.4028234663852886E38,1.57542003E9,,,,0,,1,,1.57542003E9
Raw,2065636164,1890291000000,,,-1311985616708845315,0.0,7.270866431676681,,,0,30,0.0,16431,176306920708711,22,32.45261764526367,492.7067274675517,0.11492314771745815,1,3949.64587727118,0.002166381338611245,1.57542003E9,,,,0,,1,,1.57542003E9
Raw,2065636164,1890291000000,,,-1311985616708845315,0.0,7.270866431676681,,,0,10,0.0,16,1890002578749,1000000000,17.162744522094727,-830.9292675524216,2.99792458E8,2,-524289.6629977655,3.4028234663852886E38,1.59806246E9,,,,0,,3,,1.59806246E9
Raw,2065636164,1890291000000,,,-1311985616708845315,0.0,7.270866431676681,,,0,2,0.0,32995,14288919984468,38,33.76248550415039,37.58951999747225,0.09922692835186842,4,1310.5004588661807,3.4028234663852886E38,1.59975002E9,,,,0,,3,,1.59975002E9
Raw,2065636164,1890291000000,,,-1311985616708845315,0.0,7.270866431676681,,,0,18,0.0,32995,14288927616937,49,31.547557830810547,381.48142536679484,0.12478016692072313,4,14861.455685389703,3.4028234663852886E38,1.60031245E9,,,,0,,3,,1.60031245E9
Raw,2065636165,1890291000000,,,-1311985616708845315,0.0,7.270866431676681,,,0,9,0.0,32995,14288933437606,33,40.5810546875,-324.9861068573887,0.04603610014289197,1,-688397.7943951262,8.36280407384038E-4,1.59862502E9,,,,0,,3,,1.59862502E9
Raw,2065636165,1890291000000,,,-1311985616708845315,0.0,7.270866431676681,,,0,16,0.0,32995,14288932203991,33,39.75820541381836,428.32166109768013,0.050148465549125276,1,5987.91794520841,9.190556011162698E-4,1.60143744E9,,,,0,,3,,1.60143744E9
Raw,2065636166,1890291000000,,,-1311985616708845315,0.0,7.270866431676681,,,0,3,0.0,32995,14288922874038,50,31.449138641357422,-469.9263202698139,0.1253333078825909,1,-878502.2560915679,0.002250632271170616,1.60481254E9,,,,0,,3,,1.60481254E9
Raw,2065636166,1890291000000,,,-1311985616708845315,0.0,7.270866431676681,,,0,193,0.0,35,11504440,26,31.17853546142578,-180.05605001700724,0.1308354944574921,1,-14240.29868350919,0.002508643316105008,1.57542003E9,,,,0,,4,,1.57542003E9
Raw,2065636166,1890291000000,,,-1311985616708845315,0.0,7.270866431676681,,,0,194,0.0,35,15913512,8,41.05263900756836,-141.27574437261984,0.04417637209746317,1,-108212.75834191822,8.48423398565501E-4,1.57542003E9,,,,0,,4,,1.57542003E9
Raw,2065636166,1890291000000,,,-1311985616708845315,0.0,7.270866431676681,,,0,195,0.0,16,1890008006266,1000000000,9.218421936035156,-126.24348094910931,2.99792458E8,2,-1.0085980709964133,3.4028234663852886E38,1.57542003E9,,,,0,,4,,1.57542003E9
Raw,2065636167,1890291000000,,,-1311985616708845315,0.0,7.270866431676681,,,0,7,0.0,16431,176292879821178,9,33.525108337402344,-91.88219584948581,0.10184712536891855,1,-192838.913453466,0.0019323081942275167,1.56109798E9,,,,0,,5,,1.56109798E9
Raw,2065636167,1890291000000,,,-1311985616708845315,0.0,7.270866431676681,,,0,8,0.0,16431,176292878243122,6,37.374900817871094,-193.94838307904172,0.06637482271470355,1,-397066.9956430228,0.0012404716107994318,1.56109798E9,,,,0,,5,,1.56109798E9
Raw,2065636167,1890291000000,,,-1311985616708845315,0.0,7.270866431676681,,,0,10,0.0,16431,176292880476130,13,30.5705509185791,-157.9703114481174,0.14178543219943995,1,-281500.5982180673,0.002559930318966508,1.56109798E9,,,,0,,5,,1.56109798E9
Raw,2065636167,1890291000000,,,-1311985616708845315,0.0,7.270866431676681,,,0,30,0.0,16431,176292924745601,9,33.76353073120117,-305.1007316816115,0.09647431233747844,1,-230512.4084743688,0.001879989169538021,1.56109798E9,,,,0,,5,,1.56109798E9
Raw,2065636168,1890291000000,,,-1311985616708845315,0.0,7.270866431676681,,,0,32,0.0,16431,176292913847474,13,31.129913330078125,-649.9677829954294,0.1319797863083263,1,-470430.7083043596,0.002400269266217947,1.56109798E9,,,,0,,5,,1.56109798E9
Raw,2065636168,1890291000000,,,-1311985616708845315,0.0,7.270866431676681,,,0,33,0.0,16431,176292910770654,166,25.03009605407715,56.56770964706061,0.2632880417154766,4,14015.667003363222,3.4028234663852886E38,1.56109798E9,,,,1,,5,,1.56109798E9
Raw,2065636168,1890291000000,,,-1311985616708845315,0.0,7.270866431676681,,,0,36,0.0,16431,176292921014384,6,36.59061813354492,-291.18612573423934,0.06923784059265423,1,-272608.0581106499,0.0013576910132542253,1.56109798E9,,,,0,,5,,1.56109798E9
Fix,gps,34.486342,109.464188,356.952820,0.000000,3.000000,1627952289999
Raw,2065637137,1891291000000,,,-1311985616708845701,0.0,7.22257233271532,,,0,1,0.0,16431,176307924727404,20,33.31058120727539,510.7001173168346,0.10158973459069098,4,599993.9966476959,3.4028234663852886E38,1.57542003E9,,,,0,,1,,1.57542003E9
Raw,2065637137,1891291000000,,,-1311985616708845701,0.0,7.22257233271532,,,0,2,0.0,16,1891015092601,1000000000,7.0,-683.385699780958,2.99792458E8,2,-10.242810714128144,3.4028234663852886E38,1.57542003E9,,,,0,,1,,1.57542003E9
Raw,2065637138,1891291000000,,,-1311985616708845701,0.0,7.22257233271532,,,0,3,0.0,16431,176307926138340,40,27.252777099609375,-138.66369046655404,0.20344775203372778,4,-13786.647590685221,3.4028234663852886E38,1.57542003E9,,,,0,,1,,1.57542003E9
Raw,2065637138,1891291000000,,,-1311985616708845701,0.0,7.22257233271532,,,0,6,0.0,16431,176307925172177,18,34.38365936279297,-621.854459743111,0.08996220000254634,1,-528023.7190445648,0.00173453358002007,1.57542003E9,,,,0,,1,,1.57542003E9
Raw,2065637138,1891291000000,,,-1311985616708845701,0.0,7.22257233271532,,,0,14,0.0,16431,176307932507531,23,31.983400344848633,-36.33350478907951,0.11962013625700796,1,-257491.7524907854,0.00215585483238101,1.57542003E9,,,,0,,1,,1.57542003E9
Raw,2065637139,1891291000000,,,-1311985616708845701,0.0,7.22257233271532,,,0,17,0.0,16431,176307929667681,37,27.976842880249023,-179.8211196441955,0.18789891266568004,1,-137737.52750152998,0.0034193797037005424,1.57542003E9,,,,0,,1,,1.57542003E9
Raw,2065637139,1891291000000,,,-1311985616708845701,0.0,7.22257233271532,,,0,19,0.0,16431,176307928068706,6,43.49092483520508,-428.25789282152596,0.03265333568564707,1,-532006.4852511517,6.40764192212373E-4,1.57542003E9,,,,0,,1,,1.57542003E9
Raw,2065637139,1891291000000,,,-1311985616708845701,0.0,7.22257233271532,,,0,21,0.0,16431,176307915206998,17,34.63972091674805,470.1954012640615,0.089180841380754,1,548736.077445942,0.0016841457691043615,1.57542003E9,,,,0,,1,,1.57542003E9
Raw,2065637140,1891291000000,,,-1311985616708845701,0.0,7.22257233271532,,,0,22,0.0,16431,176307922525071,66,23.045307159423828,184.76164437682905,0.32889943321380244,4,10530.045060937828,3.4028234663852886E38,1.57542003E9,,,,0,,1,,1.57542003E9
Raw,2065637140,1891291000000,,,-1311985616708845701,0.0,7.22257233271532,,,0,24,0.0,17,934428,22,32.47976303100586,-358.32876957891494,0.11389722916410772,4,-524293.7300411466,3.4028234663852886E38,1.57542003E9,,,,0,,1,,1.57542003E9
Raw,2065637140,1891291000000,,,-1311985616708845701,0.0,7.22257233271532,,,0,30,0.0,16431,176307920707031,19,33.537044525146484,492.65887569859365,0.101871505641773,1,4442.305731282332,0.0019121128134429455,1.57542003E9,,,,0,,1,,1.57542003E9
Raw,2065637141,1891291000000,,,-1311985616708845701,0.0,7.22257233271532,,,0,10,0.0,16,1891002581521,1000000000,25.192623138427734,-830.8377902391144,2.99792458E8,2,-524289.6498074117,3.4028234663852886E38,1.59806246E9,,,,0,,3,,1.59806246E9
Raw,2065637141,1891291000000,,,-1311985616708845701,0.0,7.22257233271532,,,0,2,0.0,32995,14289919984247,35,34.55868148803711,37.67958714914084,0.0908504989884088,4,1348.174538491946,3.4028234663852886E38,1.59975002E9,,,,0,,3,,1.59975002E9
Raw,2065637141,1891291000000,,,-1311985616708845701,0.0,7.22257233271532,,,0,18,0.0,32995,14289927615575,36,34.30657958984375,381.51987037775257,0.09119531759151067,4,15242.94535443813,3.4028234663852886E38,1.60031245E9,,,,0,,3,,1.60031245E9
Raw,2065637142,1891291000000,,,-1311985616708845701,0.0,7.22257233271532,,,0,9,0.0,32995,14289933438694,33,41.734073638916016,-324.81426311160067,0.04061389001595683,1,-688722.6772485159,7.719330606050789E-4,1.59862502E9,,,,0,,3,,1.59862502E9
Raw,2065637142,1891291000000,,,-1311985616708845701,0.0,7.22257233271532,,,0,16,0.0,32995,14289932202554,33,39.1617431640625,428.4227496637268,0.05355687345919494,1,6416.276226545889,9.843847947195172E-4,1.60143744E9,,,,0,,3,,1.60143744E9
Raw,2065637142,1891291000000,,,-1311985616708845701,0.0,7.22257233271532,,,0,3,0.0,32995,14289922875604,40,33.32952117919922,-469.8654490024642,0.10103722601815324,1,-878972.17595445,0.0019224797142669559,1.60481254E9,,,,0,,3,,1.60481254E9
Raw,2065637142,1891291000000,,,-1311985616708845701,0.0,7.22257233271532,,,0,193,0.0,35,11505009,21,32.727867126464844,-180.09393266743234,0.10979903843187017,1,-14420.35799212732,0.0020988064352422953,1.57542003E9,,,,0,,4,,1.57542003E9
Raw,2065637143,1891291000000,,,-1311985616708845701,0.0,7.22257233271532,,,0,194,0.0,35,15913984,7,41.76310729980469,-141.2315820295804,0.040931669814744526,1,-108354.02424758262,7.81788257881999E-4,1.57542003E9,,,,0,,4,,1.57542003E9
Raw,2065637143,1891291000000,,,-1311985616708845701,0.0,7.22257233271532,,,0,195,0.0,16,1891008006626,1000000000,18.335546493530273,-126.24348094910931,2.99792458E8,2,-1.0076108297305528,3.4028234663852886E38,1.57542003E9,,,,0,,4,,1.57542003E9
Raw,2065637143,1891291000000,,,-1311985616708845701,0.0,7.22257233271532,,,0,7,0.0,16431,176293879821500,9,33.64869689941406,-91.97962055145626,0.10045864802757692,1,-192930.85414314325,0.0019050093833357096,1.56109798E9,,,,0,,5,,1.56109798E9
Raw,2065637144,1891291000000,,,-1311985616708845701,0.0,7.22257233271532,,,0,8,0.0,16431,176293878243762,6,37.61469650268555,-193.94586097725903,0.06465688717424958,1,-397260.93812210945,0.0012066938215866685,1.56109798E9,,,,0,,5,,1.56109798E9
Raw,2065637144,1891291000000,,,-1311985616708845701,0.0,7.22257233271532,,,0,10,0.0,16431,176293880476660,17,28.690345764160156,-158.1822532040045,0.17516234193184943,1,-281658.66304545576,0.003178618149831891,1.56109798E9,,,,0,,5,,1.56109798E9
Raw,2065637145,1891291000000,,,-1311985616708845701,0.0,7.22257233271532,,,0,30,0.0,16431,176293924746607,8,34.759178161621094,-305.1221013818513,0.08611852101290235,1,-230817.53671503038,0.0016763820312917233,1.56109798E9,,,,0,,5,,1.56109798E9
Raw,2065637145,1891291000000,,,-1311985616708845701,0.0,7.22257233271532,,,0,32,0.0,16431,176293913849648,13,31.117464065551758,-649.9920497044736,0.13216588351050712,1,-471080.7035759786,0.0024037123657763004,1.56109798E9,,,,0,,5,,1.56109798E9
Raw,2065637145,1891291000000,,,-1311985616708845701,0.0,7.22257233271532,,,0,33,0.0,16431,176293910770488,166,24.887775421142578,56.554362105024865,0.2676055633733696,4,14072.287775732506,3.4028234663852886E38,1.56109798E9,,,,1,,5,,1.56109798E9
Raw,2065637146,1891291000000,,,-1311985616708845701,0.0,7.22257233271532,,,0,36,0.0,16431,176293921015356,6,36.988731384277344,-291.0726311540184,0.06614434592710661,1,-272899.19304854533,0.0012968668015673757,1.56109798E9,,,,0,,5,,1.56109798E9
Fix,gps,34.486342,109.464188,357.019104,0.000000,3.000000,1627952290999
Raw,2065638195,1892291000000,,,-1311985616708846089,0.0,7.502205074875147,,,0,1,0.0,16431,176308924725739,24,31.579891204833984,510.7304507031399,0.12380154443252789,1,600504.675629435,0.0022583692334592342,1.57542003E9,,,,0,,1,,1.57542003E9
Raw,2065638195,1892291000000,,,-1311985616708846089,0.0,7.502205074875147,,,0,2,0.0,16,1892015094880,1000000000,7.0,-683.385699780958,2.99792458E8,2,-10.237466544670283,3.4028234663852886E38,1.57542003E9,,,,0,,1,,1.57542003E9
Raw,2065638196,1892291000000,,,-1311985616708846089,0.0,7.502205074875147,,,0,3,0.0,16431,176308926138853,47,25.935646057128906,-138.9266280980134,0.23657994373724667,4,-13925.618725878363,3.4028234663852886E38,1.57542003E9,,,,0,,1,,1.57542003E9
Raw,2065638196,1892291000000,,,-1311985616708846089,0.0,7.502205074875147,,,0,6,0.0,16431,176308925174244,18,34.128700256347656,-621.7398063593682,0.09261468215907609,1,-528645.5139823636,0.0017862027743831277,1.57542003E9,,,,0,,1,,1.57542003E9
Raw,2065638196,1892291000000,,,-1311985616708846089,0.0,7.502205074875147,,,0,14,0.0,16431,176308932507604,26,30.978633880615234,-36.1398610520381,0.13401379170010325,1,-257528.006354117,0.002420236123725772,1.57542003E9,,,,0,,1,,1.57542003E9
Raw,2065638197,1892291000000,,,-1311985616708846089,0.0,7.502205074875147,,,0,17,0.0,16431,176308929668337,48,25.730087280273438,-179.95787550099328,0.24285394484760436,4,-137917.36831105337,3.4028234663852886E38,1.57542003E9,,,,0,,1,,1.57542003E9
Raw,2065638197,1892291000000,,,-1311985616708846089,0.0,7.502205074875147,,,0,19,0.0,16431,176308928070148,6,43.42915725708008,-428.2252418281771,0.032876277887213395,1,-532434.7479399184,6.453371606767178E-4,1.57542003E9,,,,0,,1,,1.57542003E9
Raw,2065638197,1892291000000,,,-1311985616708846089,0.0,7.502205074875147,,,0,21,0.0,16431,176308915205446,20,33.11830139160156,470.1765877480609,0.105729438354079,1,549206.1921619817,0.0020065533462911844,1.57542003E9,,,,0,,1,,1.57542003E9
Raw,2065638198,1892291000000,,,-1311985616708846089,0.0,7.502205074875147,,,0,22,0.0,16431,176308922524417,53,25.00249481201172,185.20693167129957,0.2626365808546163,4,10715.196790618302,3.4028234663852886E38,1.57542003E9,,,,0,,1,,1.57542003E9
Raw,2065638198,1892291000000,,,-1311985616708846089,0.0,7.502205074875147,,,0,24,0.0,51,16935630,24,31.802907943725586,-358.2271016111074,0.12288111008360608,4,-524651.981965522,3.4028234663852886E38,1.57542003E9,,,,0,,1,,1.57542003E9
Raw,2065638198,1892291000000,,,-1311985616708846089,0.0,7.502205074875147,,,0,30,0.0,16431,176308920705417,21,32.64713668823242,492.73579980296563,0.11245996631432048,1,4935.034814755261,0.0021184042561799288,1.57542003E9,,,,0,,1,,1.57542003E9
Raw,2065638198,1892291000000,,,-1311985616708846089,0.0,7.502205074875147,,,0,10,0.0,16,1892002584292,1000000000,10.436342239379883,-830.8377902391144,2.99792458E8,2,-524289.6888291466,3.4028234663852886E38,1.59806246E9,,,,0,,3,,1.59806246E9
Raw,2065638199,1892291000000,,,-1311985616708846089,0.0,7.502205074875147,,,0,2,0.0,32995,14290919984171,43,32.779869079589844,37.93941475644249,0.11068122986815065,4,1386.0264485162272,3.4028234663852886E38,1.59975002E9,,,,0,,3,,1.59975002E9
Raw,2065638199,1892291000000,,,-1311985616708846089,0.0,7.502205074875147,,,0,18,0.0,32995,14290927614406,37,34.13743591308594,381.55926969749294,0.09296147281837813,4,15624.460519518523,3.4028234663852886E38,1.60031245E9,,,,0,,3,,1.60031245E9
Raw,2065638199,1892291000000,,,-1311985616708846089,0.0,7.502205074875147,,,0,9,0.0,32995,14290933439793,33,41.50187301635742,-324.60881406368117,0.04164897405413634,1,-689047.3830846073,7.928475388325751E-4,1.59862502E9,,,,0,,3,,1.59862502E9
Raw,2065638200,1892291000000,,,-1311985616708846089,0.0,7.502205074875147,,,0,16,0.0,32995,14290932201111,33,39.49108123779297,428.5749959970142,0.05164562232519454,1,6844.785109804691,9.477592539042234E-4,1.60143744E9,,,,0,,3,,1.60143744E9
Raw,2065638200,1892291000000,,,-1311985616708846089,0.0,7.502205074875147,,,0,3,0.0,32995,14290922877099,38,33.75550842285156,-469.7296304132208,0.09622655717562134,1,-879441.9714854883,0.0018304690020158887,1.60481254E9,,,,0,,3,,1.60481254E9
Raw,2065638200,1892291000000,,,-1311985616708846089,0.0,7.502205074875147,,,0,193,0.0,35,11505619,19,33.49525451660156,-179.9764504397982,0.10068973640222328,1,-14600.357060449636,0.0019213345367461443,1.57542003E9,,,,0,,4,,1.57542003E9
Raw,2065638201,1892291000000,,,-1311985616708846089,0.0,7.502205074875147,,,0,194,0.0,35,15914451,7,41.52924346923828,-141.21044238592214,0.041970673002587666,1,-108495.24350840496,8.03123228251934E-4,1.57542003E9,,,,0,,4,,1.57542003E9
Raw,2065638201,1892291000000,,,-1311985616708846089,0.0,7.502205074875147,,,0,195,0.0,16,1892008007047,1000000000,20.367321014404297,-126.24348094910931,2.99792458E8,2,-1.0066235884567931,3.4028234663852886E38,1.57542003E9,,,,0,,4,,1.57542003E9
Raw,2065638201,1892291000000,,,-1311985616708846089,0.0,7.502205074875147,,,0,7,0.0,16431,176294879821791,9,33.97352981567383,-91.85171761274029,0.09690203218919768,1,-193022.7357447493,0.0018350817263126373,1.56109798E9,,,,0,,5,,1.56109798E9
Raw,2065638202,1892291000000,,,-1311985616708846089,0.0,7.502205074875147,,,0,8,0.0,16431,176294878244420,6,37.64060592651367,-193.8331502935381,0.06447421818791041,1,-397454.81904589257,0.0012030998477712274,1.56109798E9,,,,0,,5,,1.56109798E9
Raw,2065638202,1892291000000,,,-1311985616708846089,0.0,7.502205074875147,,,0,10,0.0,16431,176294880477201,20,27.450969696044922,-158.02751885139094,0.2014622492393804,1,-281816.68015067454,0.0036661243066191673,1.56109798E9,,,,0,,5,,1.56109798E9
Raw,2065638202,1892291000000,,,-1311985616708846089,0.0,7.502205074875147,,,0,30,0.0,16431,176294924747633,7,35.478118896484375,-305.0965395394592,0.07934546487021749,1,-231122.6292019734,0.0015432130312547088,1.56109798E9,,,,0,,5,,1.56109798E9
Raw,2065638202,1892291000000,,,-1311985616708846089,0.0,7.502205074875147,,,0,32,0.0,16431,176294913851817,12,31.356658935546875,-649.9181589387322,0.12864397419706847,1,-471730.6565564416,0.002338420832529664,1.56109798E9,,,,0,,5,,1.56109798E9
Raw,2065638203,1892291000000,,,-1311985616708846089,0.0,7.502205074875147,,,0,33,0.0,16431,176294910770350,166,23.00466537475586,56.71384670001629,0.33192305301883973,4,14129.045228741548,3.4028234663852886E38,1.56109798E9,,,,1,,5,,1.56109798E9
Raw,2065638203,1892291000000,,,-1311985616708846089,0.0,7.502205074875147,,,0,36,0.0,16431,176294921016326,6,36.88752746582031,-290.9870160232331,0.06691756253627504,1,-273190.20916067273,0.0013120656367391348,1.56109798E9,,,,0,,5,,1.56109798E9
Fix,gps,34.486342,109.464188,357.163239,0.000000,3.000000,1627952291999
Raw,2065639189,1893291000000,,,-1311985616708846475,0.0,7.2212569416195445,,,0,1,0.0,16431,176309924724095,33,28.92035675048828,510.76143165611916,0.16784746126793915,1,601015.4322411796,0.0030674084555357695,1.57542003E9,,,,0,,1,,1.57542003E9
Raw,2065639190,1893291000000,,,-1311985616708846475,0.0,7.2212569416195445,,,0,2,0.0,16,1893015097099,1000000000,12.14603042602539,-683.385699780958,2.99792458E8,2,-10.232122375046146,3.4028234663852886E38,1.57542003E9,,,,0,,1,,1.57542003E9
Raw,2065639190,1893291000000,,,-1311985616708846475,0.0,7.2212569416195445,,,0,3,0.0,16431,176309926139269,61,22.722457885742188,-138.24646155441593,4.2011042407560275,4,-14064.44874477005,3.4028234663852886E38,1.57542003E9,,,,0,,1,,1.57542003E9
Raw,2065639191,1893291000000,,,-1311985616708846475,0.0,7.2212569416195445,,,0,6,0.0,16431,176309925176336,14,36.099342346191406,-621.6344234037997,0.07400482048548568,1,-529267.2203443128,0.0014236345887184143,1.57542003E9,,,,0,,1,,1.57542003E9
Raw,2065639191,1893291000000,,,-1311985616708846475,0.0,7.2212569416195445,,,0,14,0.0,16431,176309932507725,23,32.255088806152344,-36.058429542790975,0.11600575664587937,1,-257564.11883944,0.002089464571326971,1.57542003E9,,,,0,,1,,1.57542003E9
Raw,2065639191,1893291000000,,,-1311985616708846475,0.0,7.2212569416195445,,,0,17,0.0,16431,176309929668913,63,23.433063507080078,-179.70595502360493,0.3158444211686613,4,-138097.0977220123,3.4028234663852886E38,1.57542003E9,,,,0,,1,,1.57542003E9
Raw,2065639192,1893291000000,,,-1311985616708846475,0.0,7.2212569416195445,,,0,19,0.0,16431,176309928071559,6,43.43659973144531,-428.145113972892,0.03284961352394988,1,-532862.9277929104,6.447844207286835E-4,1.57542003E9,,,,0,,1,,1.57542003E9
Raw,2065639192,1893291000000,,,-1311985616708846475,0.0,7.2212569416195445,,,0,21,0.0,16431,176309915203955,26,30.98754119873047,470.10341271390644,0.1343637526269676,1,549676.3477702033,0.002564416965469718,1.57542003E9,,,,0,,1,,1.57542003E9
Raw,2065639192,1893291000000,,,-1311985616708846475,0.0,7.2212569416195445,,,0,22,0.0,16431,176309922523836,44,26.484472274780273,185.3239708269989,0.22151123764709912,4,10900.480679147653,3.4028234663852886E38,1.57542003E9,,,,0,,1,,1.57542003E9
Raw,2065639193,1893291000000,,,-1311985616708846475,0.0,7.2212569416195445,,,0,24,0.0,51,16936842,28,30.461408615112305,-358.03787581249276,0.14289507577171923,4,-525010.0840418845,3.4028234663852886E38,1.57542003E9,,,,0,,1,,1.57542003E9
Raw,2065639193,1893291000000,,,-1311985616708846475,0.0,7.2212569416195445,,,0,30,0.0,16431,176309920703758,20,33.27281188964844,492.8075092914896,0.10490250609596452,1,5427.789698758032,0.001971174729987979,1.57542003E9,,,,0,,1,,1.57542003E9
Raw,2065639193,1893291000000,,,-1311985616708846475,0.0,7.2212569416195445,,,0,10,0.0,16,1893002587063,1000000000,18.6481990814209,-830.7463810907202,2.99792458E8,2,-524289.6756374834,3.4028234663852886E38,1.59806246E9,,,,0,,3,,1.59806246E9
Raw,2065639193,1893291000000,,,-1311985616708846475,0.0,7.2212569416195445,,,0,2,0.0,32995,14291919984009,47,32.04603576660156,38.077491308430524,0.12012166260026952,4,1424.0369460873953,3.4028234663852886E38,1.59975002E9,,,,0,,3,,1.59975002E9
Raw,2065639194,1893291000000,,,-1311985616708846475,0.0,7.2212569416195445,,,0,18,0.0,32995,14291927613083,43,32.686622619628906,381.61397204021205,0.10961177630197616,4,16005.999032796735,3.4028234663852886E38,1.60031245E9,,,,0,,3,,1.60031245E9
Raw,2065639194,1893291000000,,,-1311985616708846475,0.0,7.2212569416195445,,,0,9,0.0,32995,14291933440852,33,40.52819061279297,-324.3750424943912,0.04630296011924526,1,-689371.8893023203,8.868981385603547E-4,1.59862502E9,,,,0,,3,,1.59862502E9
Raw,2065639194,1893291000000,,,-1311985616708846475,0.0,7.2212569416195445,,,0,16,0.0,32995,14291932199709,33,39.994449615478516,428.7409093953672,0.04886100824279713,1,7273.441379842188,8.94395518116653E-4,1.60143744E9,,,,0,,3,,1.60143744E9
Raw,2065639195,1893291000000,,,-1311985616708846475,0.0,7.2212569416195445,,,0,3,0.0,32995,14291922878783,43,32.689483642578125,-469.622407005,0.10872455071379228,1,-879911.6252470649,0.0020694914273917675,1.60481254E9,,,,0,,3,,1.60481254E9
Raw,2065639195,1893291000000,,,-1311985616708846475,0.0,7.2212569416195445,,,0,193,0.0,35,11506206,18,34.09222412109375,-179.9989789435598,0.09413946436377224,1,-14780.356863072147,0.0017937194788828492,1.57542003E9,,,,0,,4,,1.57542003E9
Raw,2065639195,1893291000000,,,-1311985616708846475,0.0,7.2212569416195445,,,0,194,0.0,35,15914923,7,42.11669158935547,-141.16878510343713,0.03941324894745357,1,-108636.42475360192,7.506024558097124E-4,1.57542003E9,,,,0,,4,,1.57542003E9
Raw,2065639196,1893291000000,,,-1311985616708846475,0.0,7.2212569416195445,,,0,195,0.0,16,1893008007468,1000000000,23.27580451965332,-126.24348094910931,2.99792458E8,2,-1.0095853122614182,3.4028234663852886E38,1.57542003E9,,,,0,,4,,1.57542003E9
Raw,2065639196,1893291000000,,,-1311985616708846475,0.0,7.2212569416195445,,,0,7,0.0,16431,176295879822113,9,34.104496002197266,-91.88168461263797,0.09550532546565366,1,-193114.58894309204,0.0018076199339702725,1.56109798E9,,,,0,,5,,1.56109798E9
Raw,2065639196,1893291000000,,,-1311985616708846475,0.0,7.2212569416195445,,,0,8,0.0,16431,176295878245052,6,36.982704162597656,-193.8147798494723,0.06928933039757687,1,-397648.6532172756,0.0012977670412510633,1.56109798E9,,,,0,,5,,1.56109798E9
Raw,2065639196,1893291000000,,,-1311985616708846475,0.0,7.2212569416195445,,,0,10,0.0,16431,176295880477722,20,27.077566146850586,-157.9745547139545,0.2101501636315204,1,-281974.66518715076,0.003827166510745883,1.56109798E9,,,,0,,5,,1.56109798E9
Raw,2065639197,1893291000000,,,-1311985616708846475,0.0,7.2212569416195445,,,0,30,0.0,16431,176295924748652,7,35.80183410644531,-304.95963031160704,0.07647418432641545,1,-231427.63986573776,0.0014867575373500586,1.56109798E9,,,,0,,5,,1.56109798E9
Raw,2065639197,1893291000000,,,-1311985616708846475,0.0,7.2212569416195445,,,0,32,0.0,16431,176295913853988,12,31.31830406188965,-649.9347911775153,0.12920266520739832,1,-472380.5964020694,0.0023487694561481476,1.56109798E9,,,,0,,5,,1.56109798E9
Raw,2065639197,1893291000000,,,-1311985616708846475,0.0,7.2212569416195445,,,0,33,0.0,16431,176295910770125,64,22.1651611328125,56.807905759405116,4.201937397056495,4,14185.927604148685,3.4028234663852886E38,1.56109798E9,,,,0,,5,,1.56109798E9
Raw,2065639198,1893291000000,,,-1311985616708846475,0.0,7.2212569416195445,,,0,36,0.0,16431,176295921017275,6,36.71881103515625,-290.77198980503067,0.06822667917715614,1,-273481.0817026523,0.0013378002913668752,1.56109798E9,,,,0,,5,,1.56109798E9
Fix,gps,34.486342,109.464188,357.230072,0.000000,3.000000,1627952292999
Raw,2065640147,1894291000000,,,-1311985616708846861,0.0,7.092020959377722,,,0,1,0.0,16431,176310924722314,30,29.681827545166016,511.0074388273008,0.1538302688571831,1,601526.2778986024,0.002809946658089757,1.57542003E9,,,,0,,1,,1.57542003E9
Raw,2065640148,1894291000000,,,-1311985616708846861,0.0,7.092020959377722,,,0,2,0.0,16,1894015099440,1000000000,16.46274185180664,-683.385699780958,2.99792458E8,2,-10.248154883746594,3.4028234663852886E38,1.57542003E9,,,,0,,1,,1.57542003E9
Raw,2065640148,1894291000000,,,-1311985616708846861,0.0,7.092020959377722,,,0,3,0.0,16431,176310926139742,59,22.963966369628906,-138.39849487235006,4.201104507025219,4,-14203.028331930067,3.4028234663852886E38,1.57542003E9,,,,0,,1,,1.57542003E9
Raw,2065640148,1894291000000,,,-1311985616708846861,0.0,7.092020959377722,,,0,6,0.0,16431,176310925178384,18,33.917266845703125,-621.8867017469815,0.09487457535535126,1,-529888.836750444,0.0018302160315215588,1.57542003E9,,,,0,,1,,1.57542003E9
Raw,2065640149,1894291000000,,,-1311985616708846861,0.0,7.092020959377722,,,0,14,0.0,16431,176310932507811,22,32.315147399902344,-35.973794282630706,0.11522190175041591,1,-257600.05405082356,0.0020750670228153467,1.57542003E9,,,,0,,1,,1.57542003E9
Raw,2065640149,1894291000000,,,-1311985616708846861,0.0,7.092020959377722,,,0,17,0.0,16431,176310929669501,52,25.009172439575195,-179.81547899764098,0.26372026318071606,4,-138276.79818323866,3.4028234663852886E38,1.57542003E9,,,,0,,1,,1.57542003E9
Raw,2065640149,1894291000000,,,-1311985616708846861,0.0,7.092020959377722,,,0,19,0.0,16431,176310928072990,6,43.00587463378906,-428.35052893835496,0.03444610951076074,1,-533291.1143536858,6.77564472425729E-4,1.57542003E9,,,,0,,1,,1.57542003E9
Raw,2065640149,1894291000000,,,-1311985616708846861,0.0,7.092020959377722,,,0,21,0.0,16431,176310915202338,22,32.41127395629883,470.3783218082194,0.11446320929355719,1,550146.5241911646,0.002176716923713684,1.57542003E9,,,,0,,1,,1.57542003E9
Raw,2065640150,1894291000000,,,-1311985616708846861,0.0,7.092020959377722,,,0,22,0.0,16431,176310922523191,43,26.738815307617188,185.63263859449773,0.2151319104296453,4,11085.924352301377,3.4028234663852886E38,1.57542003E9,,,,0,,1,,1.57542003E9
Raw,2065640150,1894291000000,,,-1311985616708846861,0.0,7.092020959377722,,,0,24,0.0,39,916938045,31,29.447153091430664,-357.9625195011208,0.16021713482112365,4,-525368.0917824483,3.4028234663852886E38,1.57542003E9,,,,0,,1,,1.57542003E9
Raw,2065640151,1894291000000,,,-1311985616708846861,0.0,7.092020959377722,,,0,30,0.0,16431,176310920702128,22,32.478553771972656,492.6105126927878,0.11459036947436324,1,5920.564751143636,0.002036393852904439,1.57542003E9,,,,0,,1,,1.57542003E9
Raw,2065640151,1894291000000,,,-1311985616708846861,0.0,7.092020959377722,,,0,10,0.0,16,1894002589956,1000000000,23.333406448364258,-830.654971942326,2.99792458E8,2,-524289.6624488054,3.4028234663852886E38,1.59806246E9,,,,0,,3,,1.59806246E9
Raw,2065640151,1894291000000,,,-1311985616708846861,0.0,7.092020959377722,,,0,2,0.0,32995,14292919983923,51,31.218769073486328,38.221630277372554,0.1317656642737312,1,1462.188945813577,0.0024590734392404556,1.59975002E9,,,,0,,3,,1.59975002E9
Raw,2065640152,1894291000000,,,-1311985616708846861,0.0,7.092020959377722,,,0,18,0.0,32995,14292927611876,39,33.610504150390625,381.8549350078283,0.09868946398865519,1,16387.625648886402,0.00186651770491153,1.60031245E9,,,,0,,3,,1.60031245E9
Raw,2065640152,1894291000000,,,-1311985616708846861,0.0,7.092020959377722,,,0,9,0.0,32995,14292933441922,33,42.38031768798828,-324.4126695263924,0.03787572742612255,1,-689696.2506023217,7.16584618203342E-4,1.59862502E9,,,,0,,3,,1.59862502E9
Raw,2065640152,1894291000000,,,-1311985616708846861,0.0,7.092020959377722,,,0,16,0.0,32995,14292932198260,33,38.250526428222656,428.72240262147534,0.059237127555968244,1,7702.224998719185,0.0010932657169178128,1.60143744E9,,,,0,,3,,1.60143744E9
Raw,2065640153,1894291000000,,,-1311985616708846861,0.0,7.092020959377722,,,0,3,0.0,32995,14292922880378,40,33.44154357910156,-469.07245248654795,0.09974998921599937,1,-880381.0993957238,0.001897844485938549,1.60481254E9,,,,0,,3,,1.60481254E9
Raw,2065640153,1894291000000,,,-1311985616708846861,0.0,7.092020959377722,,,0,193,0.0,35,11506805,19,33.59758377075195,-179.89475479151304,0.09953491027649702,1,-14960.300858337145,0.001898832037113607,1.57542003E9,,,,0,,4,,1.57542003E9
Raw,2065640153,1894291000000,,,-1311985616708846861,0.0,7.092020959377722,,,0,194,0.0,35,15915388,7,41.98902893066406,-141.0638452198034,0.03995450348619076,1,-108777.53252420078,7.617156952619553E-4,1.57542003E9,,,,0,,4,,1.57542003E9
Raw,2065640153,1894291000000,,,-1311985616708846861,0.0,7.092020959377722,,,0,195,0.0,16,1894008007889,1000000000,17.544740676879883,-126.24348094910931,2.99792458E8,2,-1.0085980709876587,3.4028234663852886E38,1.57542003E9,,,,0,,4,,1.57542003E9
Raw,2065640154,1894291000000,,,-1311985616708846861,0.0,7.092020959377722,,,0,7,0.0,16431,176296879822412,9,34.01177978515625,-91.66630052864207,0.09649201091780657,1,-193206.35954321967,0.001827018684707582,1.56109798E9,,,,0,,5,,1.56109798E9
Raw,2065640154,1894291000000,,,-1311985616708846861,0.0,7.092020959377722,,,0,8,0.0,16431,176296878245713,6,38.09823989868164,-193.81440494245055,0.06133384350281945,1,-397842.4377994147,0.0011413526954129338,1.56109798E9,,,,0,,5,,1.56109798E9
Raw,2065640154,1894291000000,,,-1311985616708846861,0.0,7.092020959377722,,,0,10,0.0,16431,176296880478261,17,28.618616104125977,-157.9375070837142,0.17658458553504885,1,-282132.55407671817,0.003204975975677371,1.56109798E9,,,,0,,5,,1.56109798E9
Raw,2065640155,1894291000000,,,-1311985616708846861,0.0,7.092020959377722,,,0,30,0.0,16431,176296924749661,6,37.11435317993164,-305.0717615935671,0.06586892373206144,1,-231732.6067252837,0.0012782454723492265,1.56109798E9,,,,0,,5,,1.56109798E9
Raw,2065640155,1894291000000,,,-1311985616708846861,0.0,7.092020959377722,,,0,32,0.0,16431,176296913856145,13,31.104936599731445,-649.7955984250762,0.13235422735899194,1,-473030.47329649434,0.0024071813095360994,1.56109798E9,,,,0,,5,,1.56109798E9
Raw,2065640155,1894291000000,,,-1311985616708846861,0.0,7.092020959377722,,,0,33,0.0,16430,176296910769980,1000000000,21.366384506225586,56.63344618507898,2.99792458E8,4,14242.92206477848,3.4028234663852886E38,1.56109798E9,,,,0,,5,,1.56109798E9
Raw,2065640155,1894291000000,,,-1311985616708846861,0.0,7.092020959377722,,,0,36,0.0,16431,176296921018249,6,38.363258361816406,-290.9103645785133,0.0564905650052307,1,-273771.87759858207,0.0011070542968809605,1.56109798E9,,,,0,,5,,1.56109798E9
Fix,gps,34.486342,109.464188,357.251740,0.000000,3.000000,1627952293999
Raw,2065641159,1895291000000,,,-1311985616708847244,0.0,6.899336045815949,,,0,1,0.0,16431,176311924720615,25,31.481069564819336,511.4362983777273,0.12520744576409382,1,602037.4905084958,0.0022842094767838717,1.57542003E9,,,,0,,1,,1.57542003E9
Raw,2065641159,1895291000000,,,-1311985616708847244,0.0,6.899336045815949,,,0,2,0.0,16,1895015101719,1000000000,13.483240127563477,-683.385699780958,2.99792458E8,2,-10.242810714133348,3.4028234663852886E38,1.57542003E9,,,,0,,1,,1.57542003E9
Raw,2065641160,1895291000000,,,-1311985616708847244,0.0,6.899336045815949,,,0,3,0.0,16431,176311926140106,39,27.660110473632812,-138.21378499922469,0.1941780061743268,4,-14341.357156963712,3.4028234663852886E38,1.57542003E9,,,,0,,1,,1.57542003E9
Raw,2065641160,1895291000000,,,-1311985616708847244,0.0,6.899336045815949,,,0,6,0.0,16431,176311925180497,9,39.76605987548828,-621.941097347592,0.04884176613324903,1,-530510.7708072001,9.838786209002137E-4,1.57542003E9,,,,0,,1,,1.57542003E9
Raw,2065641161,1895291000000,,,-1311985616708847244,0.0,6.899336045815949,,,0,14,0.0,16431,176311932507921,11,38.32056427001953,-35.70123687781779,0.058834724079730116,1,-257635.87358288502,0.0011023955885320902,1.57542003E9,,,,0,,1,,1.57542003E9
Raw,2065641161,1895291000000,,,-1311985616708847244,0.0,6.899336045815949,,,0,17,0.0,16431,176311929670094,28,30.477327346801758,-179.61543201908034,0.14133187591522478,4,-138456.53240812485,3.4028234663852886E38,1.57542003E9,,,,0,,1,,1.57542003E9
Raw,2065641161,1895291000000,,,-1311985616708847244,0.0,6.899336045815949,,,0,19,0.0,16431,176311928074422,11,38.63393783569336,-428.45768418166267,0.05603213682690075,1,-533719.5016966641,0.001063331845216453,1.57542003E9,,,,0,,1,,1.57542003E9
Raw,2065641161,1895291000000,,,-1311985616708847244,0.0,6.899336045815949,,,0,21,0.0,16431,176311915200728,17,34.77997589111328,470.7518314492529,0.08779506001497717,1,550617.1053412195,0.0016571695450693369,1.57542003E9,,,,0,,1,,1.57542003E9
Raw,2065641162,1895291000000,,,-1311985616708847244,0.0,6.899336045815949,,,0,22,0.0,16431,176311922522525,44,26.607738494873047,186.03245989196682,0.21839598795650783,4,11271.577282101012,3.4028234663852886E38,1.57542003E9,,,,0,,1,,1.57542003E9
Raw,2065641162,1895291000000,,,-1311985616708847244,0.0,6.899336045815949,,,0,24,0.0,39,1916939308,28,30.528148651123047,-358.69965487079617,0.1418250730253371,4,-525726.3705519674,3.4028234663852886E38,1.57542003E9,,,,0,,1,,1.57542003E9
Raw,2065641162,1895291000000,,,-1311985616708847244,0.0,6.899336045815949,,,0,30,0.0,16431,176311920700443,24,31.80900001525879,492.607854261179,0.12347429127515835,4,6413.233006016954,3.4028234663852886E38,1.57542003E9,,,,0,,1,,1.57542003E9
Raw,2065641163,1895291000000,,,-1311985616708847244,0.0,6.899336045815949,,,0,10,0.0,16,1895002592604,1000000000,29.26082992553711,-830.5635627939319,2.99792458E8,2,-524289.649262867,3.4028234663852886E38,1.59806246E9,,,,0,,3,,1.59806246E9
Raw,2065641163,1895291000000,,,-1311985616708847244,0.0,6.899336045815949,,,0,2,0.0,32995,14293919983832,75,27.980337142944336,37.76862330649962,0.1896797043771724,4,1500.57521531636,3.4028234663852886E38,1.59975002E9,,,,0,,3,,1.59975002E9
Raw,2065641163,1895291000000,,,-1311985616708847244,0.0,6.899336045815949,,,0,18,0.0,32995,14293927610618,33,35.53699493408203,382.1300145144239,0.07933017935443809,1,16769.515713213248,0.0014952284982427955,1.60031245E9,,,,0,,3,,1.60031245E9
Raw,2065641164,1895291000000,,,-1311985616708847244,0.0,6.899336045815949,,,0,9,0.0,32995,14293933443029,33,44.725982666015625,-324.4113062281315,0.03241807645374191,1,-690020.7386764988,5.469963070936501E-4,1.59862502E9,,,,0,,3,,1.59862502E9
Raw,2065641164,1895291000000,,,-1311985616708847244,0.0,6.899336045815949,,,0,16,0.0,32995,14293932196860,33,36.3453369140625,428.9961869947231,0.0732271646696388,1,8131.106022116661,0.0013613984920084476,1.60143744E9,,,,0,,3,,1.60143744E9
Raw,2065641165,1895291000000,,,-1311985616708847244,0.0,6.899336045815949,,,0,3,0.0,32995,14293922881928,40,33.46418380737305,-468.4868136361165,0.09949194108570508,1,-880849.9199592589,0.0018929039360955358,1.60481254E9,,,,0,,3,,1.60481254E9
Raw,2065641165,1895291000000,,,-1311985616708847244,0.0,6.899336045815949,,,0,193,0.0,35,11507390,22,32.32006072998047,-179.30652567438585,0.11497807405913468,1,-15139.78294760112,0.0021996961440891027,1.57542003E9,,,,0,,4,,1.57542003E9
Raw,2065641165,1895291000000,,,-1311985616708847244,0.0,6.899336045815949,,,0,194,0.0,35,15915847,9,39.988670349121094,-140.76247109800045,0.04956050573000173,1,-108918.35974417916,9.097712463699281E-4,1.57542003E9,,,,0,,4,,1.57542003E9
Raw,2065641165,1895291000000,,,-1311985616708847244,0.0,6.899336045815949,,,0,195,0.0,16,1895008008310,1000000000,28.727048873901367,-126.24348094910931,2.99792458E8,2,-1.0076108297422044,3.4028234663852886E38,1.57542003E9,,,,0,,4,,1.57542003E9
Raw,2065641166,1895291000000,,,-1311985616708847244,0.0,6.899336045815949,,,0,7,0.0,16431,176297879822705,11,32.188148498535156,-91.38055321315483,0.11820161210157848,1,-193297.92447279414,0.0021249474957585335,1.56109798E9,,,,0,,5,,1.56109798E9
Raw,2065641166,1895291000000,,,-1311985616708847244,0.0,6.899336045815949,,,0,8,0.0,16431,176297878246358,6,37.789939880371094,-193.67340581981568,0.06343148307092897,1,-398036.2257078217,0.0011825916590169072,1.56109798E9,,,,0,,5,,1.56109798E9
Raw,2065641166,1895291000000,,,-1311985616708847244,0.0,6.899336045815949,,,0,10,0.0,16431,176297880478765,8,34.46709442138672,-157.86555901799454,0.09186432725627885,1,-282290.47842797457,0.001733712968416512,1.56109798E9,,,,0,,5,,1.56109798E9
Raw,2065641167,1895291000000,,,-1311985616708847244,0.0,6.899336045815949,,,0,30,0.0,16431,176297924750682,6,41.98150634765625,-305.34929503703233,0.037978386680846715,1,-232037.9161679824,7.69370119087398E-4,1.56109798E9,,,,0,,5,,1.56109798E9
Raw,2065641167,1895291000000,,,-1311985616708847244,0.0,6.899336045815949,,,0,32,0.0,16431,176297913858292,11,32.0771369934082,-649.5026937937191,0.11860326253525916,1,-473680.0121692444,0.002152280416339636,1.56109798E9,,,,0,,5,,1.56109798E9
