# 
# Header Description:
# 
# Version: v2.0.0.1 Platform: 10 Manufacturer: HUAWEI Model: BLA-AL00
# 
# Raw,ElapsedRealtimeMillis,TimeNanos,LeapSecond,TimeUncertaintyNanos,FullBiasNanos,BiasNanos,BiasUncertaintyNanos,DriftNanosPerSecond,DriftUncertaintyNanosPerSecond,HardwareClockDiscontinuityCount,Svid,TimeOffsetNanos,State,ReceivedSvTimeNanos,ReceivedSvTimeUncertaintyNanos,Cn0DbHz,PseudorangeRateMetersPerSecond,PseudorangeRateUncertaintyMetersPerSecond,AccumulatedDeltaRangeState,AccumulatedDeltaRangeMeters,AccumulatedDeltaRangeUncertaintyMeters,CarrierFrequencyHz,CarrierCycles,CarrierPhase,CarrierPhaseUncertainty,MultipathIndicator,SnrInDb,ConstellationType,AgcDb,CarrierFrequencyHz
# 
# Fix,Provider,Latitude,Longitude,Altitude,Speed,Accuracy,(UTC)TimeInMs
# 
# Nav,Svid,Type,Status,MessageId,Sub-messageId,Data(Bytes)
# 
Fix,gps,34.486742,109.464257,361.142585,0.032235,3.000000,1627819591999
Raw,1932938493,939824000000,,,-1311853870175548108,0.0,9.240142894723999,,,0,10,0.0,16431,43609930699960,13,36.6385612487793,-400.6439116397232,0.07059991983992392,4,-407246.2557688304,3.4028234663852886E38,1.57542003E9,,,,0,,1,,1.57542003E9
Raw,1932938494,939824000000,,,-1311853870175548108,0.0,9.240142894723999,,,0,12,0.0,16431,43609922480351,8,40.486328125,-530.4481061103684,0.044543465782623526,4,-527296.5656794411,3.4028234663852886E38,1.57542003E9,,,,0,,1,,1.57542003E9
Raw,1932938494,939824000000,,,-1311853870175548108,0.0,9.240142894723999,,,0,15,0.0,16431,43609917270884,26,31.114723205566406,416.1320364398405,0.13282220378411386,4,389091.3909420724,3.4028234663852886E38,1.57542003E9,,,,0,,1,,1.57542003E9
Raw,1932938494,939824000000,,,-1311853870175548108,0.0,9.240142894723999,,,0,18,0.0,16431,43609922405733,9,39.77021789550781,551.2553776526311,0.04831970377858652,4,498053.46893241926,3.4028234663852886E38,1.57542003E9,,,,0,,1,,1.57542003E9
Raw,1932938494,939824000000,,,-1311853870175548108,0.0,9.240142894723999,,,0,23,0.0,16431,43609931516923,9,40.312477111816406,48.140242870034854,0.047060412760180664,4,3210.524413259923,3.4028234663852886E38,1.57542003E9,,,,0,,1,,1.57542003E9
Raw,1932938495,939824000000,,,-1311853870175548108,0.0,9.240142894723999,,,0,24,0.0,16431,43609927048460,22,32.29502487182617,420.4669500025202,0.1145019015354593,4,362354.87885353196,3.4028234663852886E38,1.57542003E9,,,,0,,1,,1.57542003E9
Raw,1932938495,939824000000,,,-1311853870175548108,0.0,9.240142894723999,,,0,25,0.0,16431,43609921249457,44,26.534278869628906,-724.1154622941513,0.22001803330434244,4,-685144.5956729806,3.4028234663852886E38,1.57542003E9,,,,0,,1,,1.57542003E9
Raw,1932938495,939824000000,,,-1311853870175548108,0.0,9.240142894723999,,,0,31,0.0,16,939016057672,1000000000,7.0,-845.0886877849971,2.99792458E8,2,-13.495035739168726,3.4028234663852886E38,1.57542003E9,,,,0,,1,,1.57542003E9
Raw,1932938495,939824000000,,,-1311853870175548108,0.0,9.240142894723999,,,0,32,0.0,16431,43609926082763,166,28.76247787475586,-418.7734268203583,0.1711550238821523,4,-405985.5235715816,3.4028234663852886E38,1.57542003E9,,,,1,,1,,1.57542003E9
Raw,1932938495,939824000000,,,-1311853870175548108,0.0,9.240142894723999,,,0,10,0.0,32995,54391928564313,33,35.24347686767578,-839.596027256694,0.08218125672332866,4,-815689.3065594258,3.4028234663852886E38,1.59806246E9,,,,0,,3,,1.59806246E9
Raw,1932938496,939824000000,,,-1311853870175548108,0.0,9.240142894723999,,,0,9,0.0,32995,54391933280194,33,41.91084289550781,-217.7837615947583,0.03981589373014657,4,-275640.08830217435,3.4028234663852886E38,1.59862502E9,,,,0,,3,,1.59862502E9
Raw,1932938496,939824000000,,,-1311853870175548108,0.0,9.240142894723999,,,0,16,0.0,32995,54391926021662,53,31.021032333374023,466.48365133644484,0.13220552433640426,4,381419.6382493216,3.4028234663852886E38,1.60143744E9,,,,0,,3,,1.60143744E9
Raw,1932938496,939824000000,,,-1311853870175548108,0.0,9.240142894723999,,,0,23,0.0,32995,54391924375103,166,30.46424674987793,-110.6740524489569,0.14058983360375232,4,-171614.3160572739,3.4028234663852886E38,1.60368755E9,,,,1,,3,,1.60368755E9
Raw,1932938496,939824000000,,,-1311853870175548108,0.0,9.240142894723999,,,0,7,0.0,32995,54391932378739,33,35.58950424194336,-204.1271257608073,0.07971797546924414,4,-209292.6360680266,3.4028234663852886E38,1.60481254E9,,,,0,,3,,1.60481254E9
Raw,1932938496,939824000000,,,-1311853870175548108,0.0,9.240142894723999,,,0,8,0.0,32961,54391926141594,78,27.66952133178711,-563.6531438724555,0.1939692344863001,4,-759431.7522374962,3.4028234663852886E38,1.60537498E9,,,,0,,3,,1.60537498E9
Raw,1932938497,939824000000,,,-1311853870175548108,0.0,9.240142894723999,,,0,193,0.0,35,8737191,7,41.434993743896484,-247.38176777689512,0.041106321602143336,4,-227242.07465524823,3.4028234663852886E38,1.57542003E9,,,,0,,4,,1.57542003E9
Raw,1932938497,939824000000,,,-1311853870175548108,0.0,9.240142894723999,,,0,194,0.0,35,12122257,7,41.65386962890625,-112.16471684989506,0.040731435382673015,4,-110998.40658929624,3.4028234663852886E38,1.57542003E9,,,,0,,4,,1.57542003E9
Raw,1932938497,939824000000,,,-1311853870175548108,0.0,9.240142894723999,,,0,6,0.0,16431,43595878398727,13,30.937211990356445,-75.35497363551525,0.1357033113252678,4,-52167.808696270375,3.4028234663852886E38,1.56109798E9,,,,0,,5,,1.56109798E9
Raw,1932938497,939824000000,,,-1311853870175548108,0.0,9.240142894723999,,,0,14,0.0,16431,43595924690036,6,41.13170623779297,97.62961421968276,0.04178319036851938,4,64729.455267135665,3.4028234663852886E38,1.56109798E9,,,,0,,5,,1.56109798E9
Raw,1932938498,939824000000,,,-1311853870175548108,0.0,9.240142894723999,,,0,16,0.0,16431,43595877759343,17,28.77237319946289,-75.02237146292327,0.1730617775630886,4,-51729.48962196237,3.4028234663852886E38,1.56109798E9,,,,0,,5,,1.56109798E9
Raw,1932938498,939824000000,,,-1311853870175548108,0.0,9.240142894723999,,,0,24,0.0,16431,43595924147250,6,41.614505767822266,-45.29583607693186,0.03947203619240808,4,-73510.88711712722,3.4028234663852886E38,1.56109798E9,,,,0,,5,,1.56109798E9
Raw,1932938498,939824000000,,,-1311853870175548108,0.0,9.240142894723999,,,0,25,0.0,16431,43595921475422,6,41.97256851196289,-628.1366744592215,0.03742747156300236,4,-267790.6938775657,3.4028234663852886E38,1.56109798E9,,,,0,,5,,1.56109798E9
Raw,1932938498,939824000000,,,-1311853870175548108,0.0,9.240142894723999,,,0,26,0.0,16431,43595916209841,6,38.24909591674805,397.3262230744233,0.059968119695989947,4,303468.370293743,3.4028234663852886E38,1.56109798E9,,,,0,,5,,1.56109798E9
Raw,1932938498,939824000000,,,-1311853870175548108,0.0,9.240142894723999,,,0,27,0.0,16431,43595913380004,24,25.758499145507812,68.95370889877057,0.2427342235623382,4,20126.19467150154,3.4028234663852886E38,1.56109798E9,,,,0,,5,,1.56109798E9
Raw,1932938499,939824000000,,,-1311853870175548108,0.0,9.240142894723999,,,0,33,0.0,16431,43595925695475,6,38.39532470703125,-148.1867548497338,0.05712437305078019,4,-139014.8117979524,3.4028234663852886E38,1.56109798E9,,,,0,,5,,1.56109798E9
Fix,gps,34.486742,109.464257,361.308899,0.000000,3.000000,1627819592999
Raw,1932939495,940824000000,,,-1311853870175548493,0.0,9.776486058878264,,,0,10,0.0,16431,43610930701277,23,32.24040603637695,-400.69834132279016,0.11587326276032939,4,-407646.9901611585,3.4028234663852886E38,1.57542003E9,,,,0,,1,,1.57542003E9
Raw,1932939496,940824000000,,,-1311853870175548493,0.0,9.776486058878264,,,0,12,0.0,16431,43610922482143,6,43.60459518432617,-530.5089773777181,0.031242785044368712,4,-527827.0891991894,3.4028234663852886E38,1.57542003E9,,,,0,,1,,1.57542003E9
Raw,1932939496,940824000000,,,-1311853870175548493,0.0,9.776486058878264,,,0,15,0.0,16431,43610917269600,17,34.407447814941406,415.80774186602594,0.0918947318695929,4,389507.30342928995,3.4028234663852886E38,1.57542003E9,,,,0,,1,,1.57542003E9
Raw,1932939496,940824000000,,,-1311853870175548493,0.0,9.776486058878264,,,0,18,0.0,16431,43610922403925,9,40.19549560546875,551.2721121387838,0.04603122408832108,4,498604.77010120836,3.4028234663852886E38,1.57542003E9,,,,0,,1,,1.57542003E9
Raw,1932939496,940824000000,,,-1311853870175548493,0.0,9.776486058878264,,,0,23,0.0,16431,43610931516780,9,40.19233703613281,48.087125361544054,0.04768700241436455,4,3258.685293276501,3.4028234663852886E38,1.57542003E9,,,,0,,1,,1.57542003E9
Raw,1932939497,940824000000,,,-1311853870175548493,0.0,9.776486058878264,,,0,24,0.0,16431,43610927047116,14,36.185142517089844,420.55754117195784,0.07362304871113923,4,362775.3701802185,3.4028234663852886E38,1.57542003E9,,,,0,,1,,1.57542003E9
Raw,1932939498,940824000000,,,-1311853870175548493,0.0,9.776486058878264,,,0,25,0.0,16431,43610921251870,62,23.562894821166992,-724.2482475447641,0.30967027100514777,4,-685868.7789100691,3.4028234663852886E38,1.57542003E9,,,,0,,1,,1.57542003E9
Raw,1932939498,940824000000,,,-1311853870175548493,0.0,9.776486058878264,,,0,31,0.0,16,940016060491,1000000000,7.0,-845.0886877849971,2.99792458E8,2,-13.514861866716458,3.4028234663852886E38,1.57542003E9,,,,0,,1,,1.57542003E9
Raw,1932939498,940824000000,,,-1311853870175548493,0.0,9.776486058878264,,,0,32,0.0,16431,43610926084227,12,37.23856735229492,-418.7598960851187,0.06518583508378822,4,-406404.26654427353,3.4028234663852886E38,1.57542003E9,,,,0,,1,,1.57542003E9
Raw,1932939499,940824000000,,,-1311853870175548493,0.0,9.776486058878264,,,0,10,0.0,32995,54392928567094,33,36.1751823425293,-839.536246627953,0.07397949162863621,4,-816528.8196286729,3.4028234663852886E38,1.59806246E9,,,,0,,3,,1.59806246E9
Raw,1932939499,940824000000,,,-1311853870175548493,0.0,9.776486058878264,,,0,9,0.0,32995,54392933280971,33,42.949153900146484,-217.59187736453487,0.035599063431233674,4,-275857.67937893607,3.4028234663852886E38,1.59862502E9,,,,0,,3,,1.59862502E9
Raw,1932939499,940824000000,,,-1311853870175548493,0.0,9.776486058878264,,,0,16,0.0,32995,54392926020073,166,27.539472579956055,466.0440558122136,0.19685677409261326,4,381885.7903163953,3.4028234663852886E38,1.60143744E9,,,,1,,3,,1.60143744E9
Raw,1932939500,940824000000,,,-1311853870175548493,0.0,9.776486058878264,,,0,23,0.0,32995,54392924375294,65,29.21587562561035,-110.54239191940928,0.16219852708482596,4,-171724.82024682633,3.4028234663852886E38,1.60368755E9,,,,0,,3,,1.60368755E9
Raw,1932939500,940824000000,,,-1311853870175548493,0.0,9.776486058878264,,,0,7,0.0,32995,54392932379372,36,34.201576232910156,-204.35607466249928,0.09314467434310048,4,-209496.91329353393,3.4028234663852886E38,1.60481254E9,,,,0,,3,,1.60481254E9
Raw,1932939500,940824000000,,,-1311853870175548493,0.0,9.776486058878264,,,0,8,0.0,32961,54392926143405,55,30.684993743896484,-563.509690812951,0.13739967906120343,4,-759995.2524221535,3.4028234663852886E38,1.60537498E9,,,,0,,3,,1.60537498E9
Raw,1932939501,940824000000,,,-1311853870175548493,0.0,9.776486058878264,,,0,193,0.0,35,8738061,10,38.83243942260742,-247.46225349797373,0.0549183161566785,4,-227489.52744816002,3.4028234663852886E38,1.57542003E9,,,,0,,4,,1.57542003E9
Raw,1932939501,940824000000,,,-1311853870175548493,0.0,9.776486058878264,,,0,194,0.0,35,12122656,8,40.94316482543945,-112.21373594298899,0.04401849110867806,4,-111110.64282087376,3.4028234663852886E38,1.57542003E9,,,,0,,4,,1.57542003E9
Raw,1932939501,940824000000,,,-1311853870175548493,0.0,9.776486058878264,,,0,6,0.0,16431,43596878398992,19,27.8342227935791,-75.36604191327103,0.1925514009665863,4,-52243.44364484644,3.4028234663852886E38,1.56109798E9,,,,0,,5,,1.56109798E9
Raw,1932939502,940824000000,,,-1311853870175548493,0.0,9.776486058878264,,,0,14,0.0,16431,43596924689727,6,40.490779876708984,97.58380739811611,0.04491828127433983,4,64827.01490415613,3.4028234663852886E38,1.56109798E9,,,,0,,5,,1.56109798E9
Raw,1932939502,940824000000,,,-1311853870175548493,0.0,9.776486058878264,,,0,16,0.0,16431,43596877759547,17,28.764387130737305,-75.02254187520589,0.17321802765307526,4,-51804.552208772366,3.4028234663852886E38,1.56109798E9,,,,0,,5,,1.56109798E9
Raw,1932939502,940824000000,,,-1311853870175548493,0.0,9.776486058878264,,,0,24,0.0,16431,43596924147449,6,41.24860382080078,-45.28886621457295,0.041138294707414064,4,-73556.17413928709,3.4028234663852886E38,1.56109798E9,,,,0,,5,,1.56109798E9
Raw,1932939503,940824000000,,,-1311853870175548493,0.0,9.776486058878264,,,0,25,0.0,16431,43596921477537,6,40.157737731933594,-628.1216781783514,0.046063238798152994,4,-268418.7488418086,3.4028234663852886E38,1.56109798E9,,,,0,,5,,1.56109798E9
Raw,1932939503,940824000000,,,-1311853870175548493,0.0,9.776486058878264,,,0,26,0.0,16431,43596916208516,11,32.42406463623047,397.2132738135067,0.1144798261552945,4,303865.6742896931,3.4028234663852886E38,1.56109798E9,,,,0,,5,,1.56109798E9
Raw,1932939503,940824000000,,,-1311853870175548493,0.0,9.776486058878264,,,0,27,0.0,16431,43596913379745,12,31.718263626098633,69.0009216216688,0.12341499645455739,4,20195.24743982903,3.4028234663852886E38,1.56109798E9,,,,0,,5,,1.56109798E9
Raw,1932939504,940824000000,,,-1311853870175548493,0.0,9.776486058878264,,,0,33,0.0,16431,43596925695998,6,37.81705856323242,-148.33059985748832,0.06098648702148529,4,-139163.1030350763,3.4028234663852886E38,1.56109798E9,,,,0,,5,,1.56109798E9
Fix,gps,34.486742,109.464257,361.326752,0.000000,3.000000,1627819593999
Raw,1932940515,941824000000,,,-1311853870175548881,0.0,9.482893788360423,,,0,10,0.0,16431,43611930702646,13,37.074771881103516,-400.6434004028754,0.06723665703919618,4,-408047.57726013346,3.4028234663852886E38,1.57542003E9,,,,0,,1,,1.57542003E9
Raw,1932940515,941824000000,,,-1311853870175548881,0.0,9.482893788360423,,,0,12,0.0,16431,43611922483920,7,42.13447189331055,-530.4717252527387,0.03692259189210928,4,-528357.622424809,3.4028234663852886E38,1.57542003E9,,,,0,,1,,1.57542003E9
Raw,1932940515,941824000000,,,-1311853870175548881,0.0,9.482893788360423,,,0,15,0.0,16431,43611917268180,12,37.84784698486328,415.86336443507116,0.06285586316465291,4,389923.1862523073,3.4028234663852886E38,1.57542003E9,,,,0,,1,,1.57542003E9
Raw,1932940515,941824000000,,,-1311853870175548881,0.0,9.482893788360423,,,0,18,0.0,16431,43611922402113,10,39.4161376953125,551.3180552901765,0.05031151798486569,4,499156.02188634174,3.4028234663852886E38,1.57542003E9,,,,0,,1,,1.57542003E9
Raw,1932940515,941824000000,,,-1311853870175548881,0.0,9.482893788360423,,,0,23,0.0,16431,43611931516625,15,35.965091705322266,48.28106732008004,0.0762834939806798,4,3306.9698500031973,3.4028234663852886E38,1.57542003E9,,,,0,,1,,1.57542003E9
Raw,1932940515,941824000000,,,-1311853870175548881,0.0,9.482893788360423,,,0,24,0.0,16431,43611927045693,13,36.716880798339844,420.5940775653503,0.0693261587551379,4,363195.96973101626,3.4028234663852886E38,1.57542003E9,,,,0,,1,,1.57542003E9
Raw,1932940516,941824000000,,,-1311853870175548881,0.0,9.482893788360423,,,0,25,0.0,16431,43611921254313,62,22.48097801208496,-724.3380207352452,4.200225552423799,4,-686592.8463623704,3.4028234663852886E38,1.57542003E9,,,,0,,1,,1.57542003E9
Raw,1932940516,941824000000,,,-1311853870175548881,0.0,9.482893788360423,,,0,31,0.0,16,941016063308,1000000000,14.7860107421875,-844.9030747267739,2.99792458E8,2,-13.505286322622245,3.4028234663852886E38,1.57542003E9,,,,0,,1,,1.57542003E9
Raw,1932940516,941824000000,,,-1311853870175548881,0.0,9.482893788360423,,,0,32,0.0,16431,43611926085504,28,30.414199829101562,-418.7979321065982,0.14170533509824645,4,-406823.0043866877,3.4028234663852886E38,1.57542003E9,,,,0,,1,,1.57542003E9
Raw,1932940516,941824000000,,,-1311853870175548881,0.0,9.482893788360423,,,0,10,0.0,32995,54393928569932,39,33.47770690917969,-839.3098709517285,0.10036112693615912,4,-817368.2165614758,3.4028234663852886E38,1.59806246E9,,,,0,,3,,1.59806246E9
Raw,1932940516,941824000000,,,-1311853870175548881,0.0,9.482893788360423,,,0,9,0.0,32995,54393933281674,33,43.071006774902344,-217.41969279418163,0.035136553845451474,4,-276075.0730467634,3.4028234663852886E38,1.59862502E9,,,,0,,3,,1.59862502E9
Raw,1932940516,941824000000,,,-1311853870175548881,0.0,9.482893788360423,,,0,16,0.0,32995,54393926018605,57,30.31527328491211,466.3390735558751,0.14330391547357269,4,382352.1111778982,3.4028234663852886E38,1.60143744E9,,,,0,,3,,1.60143744E9
Raw,1932940517,941824000000,,,-1311853870175548881,0.0,9.482893788360423,,,0,23,0.0,32995,54393924375637,114,24.321809768676758,-110.48281578540741,0.2843424792324427,4,-171835.06678318567,3.4028234663852886E38,1.60368755E9,,,,0,,3,,1.60368755E9
Raw,1932940517,941824000000,,,-1311853870175548881,0.0,9.482893788360423,,,0,7,0.0,32995,54393932380114,33,35.08055877685547,-204.35709713619497,0.08439446128104194,4,-209701.17912997148,3.4028234663852886E38,1.60481254E9,,,,0,,3,,1.60481254E9
Raw,1932940518,941824000000,,,-1311853870175548881,0.0,9.482893788360423,,,0,8,0.0,32961,54393926145232,86,26.78583335876465,-563.5106110392771,0.2146244845596077,4,-760558.7654969854,3.4028234663852886E38,1.60537498E9,,,,0,,3,,1.60537498E9
Raw,1932940518,941824000000,,,-1311853870175548881,0.0,9.482893788360423,,,0,193,0.0,35,8738886,11,37.96123123168945,-247.35676829503564,0.06054674761203968,4,-227736.97273855496,3.4028234663852886E38,1.57542003E9,,,,0,,4,,1.57542003E9
Raw,1932940518,941824000000,,,-1311853870175548881,0.0,9.482893788360423,,,0,194,0.0,35,12123049,8,41.289886474609375,-112.25718255444144,0.04238138490969445,4,-111222.90088565665,3.4028234663852886E38,1.57542003E9,,,,0,,4,,1.57542003E9
Raw,1932940518,941824000000,,,-1311853870175548881,0.0,9.482893788360423,,,0,6,0.0,16431,43597878399282,15,29.90048599243164,-75.45221088397483,0.1524873401894269,4,-52319.38454255131,3.4028234663852886E38,1.56109798E9,,,,0,,5,,1.56109798E9
Raw,1932940518,941824000000,,,-1311853870175548881,0.0,9.482893788360423,,,0,14,0.0,16431,43597924689437,6,38.66172790527344,97.60802298347556,0.05524891432076731,4,64924.606727483966,3.4028234663852886E38,1.56109798E9,,,,0,,5,,1.56109798E9
Raw,1932940518,941824000000,,,-1311853870175548881,0.0,9.482893788360423,,,0,16,0.0,16431,43597877759854,11,32.10919189453125,-75.09460922952337,0.11887735338434641,4,-51879.66900152767,3.4028234663852886E38,1.56109798E9,,,,0,,5,,1.56109798E9
Raw,1932940519,941824000000,,,-1311853870175548881,0.0,9.482893788360423,,,0,24,0.0,16431,43597924147603,6,40.893348693847656,-45.288265511276734,0.04282461910227961,4,-73601.38792845125,3.4028234663852886E38,1.56109798E9,,,,0,,5,,1.56109798E9
Raw,1932940519,941824000000,,,-1311853870175548881,0.0,9.482893788360423,,,0,25,0.0,16431,43597921479636,6,39.975303649902344,-627.9645580537813,0.04703570381129285,4,-269046.70501521206,3.4028234663852886E38,1.56109798E9,,,,0,,5,,1.56109798E9
Raw,1932940519,941824000000,,,-1311853870175548881,0.0,9.482893788360423,,,0,26,0.0,16431,43597916207261,6,38.33424758911133,397.27639452298695,0.059411080386739146,4,304262.9300138422,3.4028234663852886E38,1.56109798E9,,,,0,,5,,1.56109798E9
Raw,1932940519,941824000000,,,-1311853870175548881,0.0,9.482893788360423,,,0,27,0.0,16431,43597913379536,13,30.948097229003906,69.00416797565259,0.13463468152940478,4,20264.28682981762,3.4028234663852886E38,1.56109798E9,,,,0,,5,,1.56109798E9
Raw,1932940519,941824000000,,,-1311853870175548881,0.0,9.482893788360423,,,0,33,0.0,16431,43597925696489,6,37.0311393737793,-148.24621169513784,0.06666509357763567,4,-139311.3558853276,3.4028234663852886E38,1.56109798E9,,,,0,,5,,1.56109798E9
Fix,gps,34.486742,109.464257,361.447632,0.000000,3.000000,1627819594999
Raw,1932941491,942824000000,,,-1311853870175549266,0.0,9.550826501420389,,,0,10,0.0,16431,43612930703936,13,36.674659729003906,-400.70894096676875,0.0703158106125033,4,-408448.1863749771,3.4028234663852886E38,1.57542003E9,,,,0,,1,,1.57542003E9
Raw,1932941491,942824000000,,,-1311853870175549266,0.0,9.550826501420389,,,0,12,0.0,16431,43612922485692,7,42.373687744140625,-530.4621821649123,0.03593205801804675,4,-528888.1072259458,3.4028234663852886E38,1.57542003E9,,,,0,,1,,1.57542003E9
Raw,1932941491,942824000000,,,-1311853870175549266,0.0,9.550826501420389,,,0,15,0.0,16431,43612917266782,10,39.039146423339844,415.89414089331126,0.055197873845105466,4,390339.0767776435,3.4028234663852886E38,1.57542003E9,,,,0,,1,,1.57542003E9
Raw,1932941491,942824000000,,,-1311853870175549266,0.0,9.550826501420389,,,0,18,0.0,16431,43612922400264,8,40.650962829589844,551.1404856916927,0.043701077430028795,4,499707.2726309394,3.4028234663852886E38,1.57542003E9,,,,0,,1,,1.57542003E9
Raw,1932941491,942824000000,,,-1311853870175549266,0.0,9.550826501420389,,,0,23,0.0,16431,43612931516443,13,37.164222717285156,48.51084698164976,0.0667138832465374,4,3355.4176831631958,3.4028234663852886E38,1.57542003E9,,,,0,,1,,1.57542003E9
Raw,1932941492,942824000000,,,-1311853870175549266,0.0,9.550826501420389,,,0,24,0.0,16431,43612927044274,13,36.823463439941406,420.666093795983,0.06849585652756743,4,363616.58715111826,3.4028234663852886E38,1.57542003E9,,,,0,,1,,1.57542003E9
Raw,1932941492,942824000000,,,-1311853870175549266,0.0,9.550826501420389,,,0,25,0.0,16431,43612921256741,32,29.20494270324707,-724.2990304049831,0.16184091091870356,4,-687317.1060123536,3.4028234663852886E38,1.57542003E9,,,,0,,1,,1.57542003E9
Raw,1932941492,942824000000,,,-1311853870175549266,0.0,9.550826501420389,,,0,31,0.0,16,942016066066,1000000000,7.0,-844.9030747267739,2.99792458E8,2,-13.498679064958809,3.4028234663852886E38,1.57542003E9,,,,0,,1,,1.57542003E9
Raw,1932941492,942824000000,,,-1311853870175549266,0.0,9.550826501420389,,,0,32,0.0,16431,43612926087062,25,31.4642333984375,-418.9255709062761,0.12569455196644863,4,-407241.80846889765,3.4028234663852886E38,1.57542003E9,,,,0,,1,,1.57542003E9
Raw,1932941492,942824000000,,,-1311853870175549266,0.0,9.550826501420389,,,0,10,0.0,32995,54394928572655,40,33.384300231933594,-839.339045534512,0.10143000635938926,4,-818207.5063923952,3.4028234663852886E38,1.59806246E9,,,,0,,3,,1.59806246E9
Raw,1932941492,942824000000,,,-1311853870175549266,0.0,9.550826501420389,,,0,9,0.0,32995,54394933282408,33,43.740684509277344,-217.30171637092792,0.032706749701524526,4,-276292.3800487822,3.4028234663852886E38,1.59862502E9,,,,0,,3,,1.59862502E9
Raw,1932941493,942824000000,,,-1311853870175549266,0.0,9.550826501420389,,,0,16,0.0,32995,54394926017035,38,33.88942337036133,466.3399937822012,0.09532707488371234,4,382818.62844907265,3.4028234663852886E38,1.60143744E9,,,,0,,3,,1.60143744E9
Raw,1932941493,942824000000,,,-1311853870175549266,0.0,9.550826501420389,,,0,23,0.0,32995,54394924375965,125,23.553356170654297,-110.3970046804971,0.31057222460799117,4,-171945.00104012253,3.4028234663852886E38,1.60368755E9,,,,0,,3,,1.60368755E9
Raw,1932941493,942824000000,,,-1311853870175549266,0.0,9.550826501420389,,,0,7,0.0,32995,54394932380769,42,33.023380279541016,-204.30009422766057,0.1063530657635065,4,-209905.40583795783,3.4028234663852886E38,1.60481254E9,,,,0,,3,,1.60481254E9
Raw,1932941493,942824000000,,,-1311853870175549266,0.0,9.550826501420389,,,0,8,0.0,32961,54394926147168,112,24.497709274291992,-563.6551547373904,0.2789765392745104,4,-761122.3661757084,3.4028234663852886E38,1.60537498E9,,,,0,,3,,1.60537498E9
Raw,1932941493,942824000000,,,-1311853870175549266,0.0,9.550826501420389,,,0,193,0.0,35,8739713,10,39.26502227783203,-247.42046840627677,0.05232687205186337,4,-227984.4371465152,3.4028234663852886E38,1.57542003E9,,,,0,,4,,1.57542003E9
Raw,1932941493,942824000000,,,-1311853870175549266,0.0,9.550826501420389,,,0,194,0.0,35,12123429,8,40.51435089111328,-112.30466793699185,0.046135976052472855,4,-111335.15145856989,3.4028234663852886E38,1.57542003E9,,,,0,,4,,1.57542003E9
Raw,1932941494,942824000000,,,-1311853870175549266,0.0,9.550826501420389,,,0,6,0.0,16431,43598878399532,15,29.67514991760254,-75.46097007530119,0.15640810411003458,4,-52395.40206434542,3.4028234663852886E38,1.56109798E9,,,,0,,5,,1.56109798E9
Raw,1932941494,942824000000,,,-1311853870175549266,0.0,9.550826501420389,,,0,14,0.0,16431,43598924689091,6,39.06477737426758,97.49613879932531,0.05278197186529851,4,65022.159953882474,3.4028234663852886E38,1.56109798E9,,,,0,,5,,1.56109798E9
Raw,1932941494,942824000000,,,-1311853870175549266,0.0,9.550826501420389,,,0,16,0.0,16431,43598877760074,10,33.14175796508789,-75.06429288444633,0.10591115875642315,4,-51954.72960731182,3.4028234663852886E38,1.56109798E9,,,,0,,5,,1.56109798E9
Raw,1932941494,942824000000,,,-1311853870175549266,0.0,9.550826501420389,,,0,24,0.0,16431,43598924147738,6,41.59226608276367,-45.27739320764596,0.039571396205430265,4,-73646.56932866169,3.4028234663852886E38,1.56109798E9,,,,0,,5,,1.56109798E9
Raw,1932941494,942824000000,,,-1311853870175549266,0.0,9.550826501420389,,,0,25,0.0,16431,43598921481733,6,37.819793701171875,-627.9786000258687,0.06020955928545915,4,-269674.66808669176,3.4028234663852886E38,1.56109798E9,,,,0,,5,,1.56109798E9
Raw,1932941494,942824000000,,,-1311853870175549266,0.0,9.550826501420389,,,0,26,0.0,16431,43598916205929,6,38.44762420654297,397.2723046282042,0.058678191078727404,4,304660.2347240415,3.4028234663852886E38,1.56109798E9,,,,0,,5,,1.56109798E9
Raw,1932941495,942824000000,,,-1311853870175549266,0.0,9.550826501420389,,,0,27,0.0,16431,43598913379322,13,31.04196548461914,69.02017394929712,0.1332133698683759,4,20333.386325000294,3.4028234663852886E38,1.56109798E9,,,,0,,5,,1.56109798E9
Raw,1932941495,942824000000,,,-1311853870175549266,0.0,9.550826501420389,,,0,33,0.0,16431,43598925696985,6,36.95378494262695,-148.31764852400966,0.06725237108195578,4,-139459.63219812704,3.4028234663852886E38,1.56109798E9,,,,0,,5,,1.56109798E9
Fix,gps,34.486742,109.464257,361.859039,0.000000,3.000000,1627819595999
Raw,1932942476,943824000000,,,-1311853870175549654,0.0,9.77885917074634,,,0,10,0.0,16431,43613930705257,18,34.182037353515625,-400.53917625082863,0.09304827657483467,4,-408848.68834895885,3.4028234663852886E38,1.57542003E9,,,,0,,1,,1.57542003E9
Raw,1932942477,943824000000,,,-1311853870175549654,0.0,9.77885917074634,,,0,12,0.0,16431,43613922487451,7,42.54594421386719,-530.4313034593026,0.035235564380159706,4,-529418.5087679884,3.4028234663852886E38,1.57542003E9,,,,0,,1,,1.57542003E9
Raw,1932942477,943824000000,,,-1311853870175549654,0.0,9.77885917074634,,,0,15,0.0,16431,43613917265408,18,33.926151275634766,415.8124793274826,0.0969527065447211,4,390754.9395744976,3.4028234663852886E38,1.57542003E9,,,,0,,1,,1.57542003E9
Raw,1932942478,943824000000,,,-1311853870175549654,0.0,9.77885917074634,,,0,18,0.0,16431,43613922398437,15,35.802459716796875,551.2420514121306,0.07604596521996199,4,500258.5671504185,3.4028234663852886E38,1.57542003E9,,,,0,,1,,1.57542003E9
Raw,1932942478,943824000000,,,-1311853870175549654,0.0,9.77885917074634,,,0,23,0.0,16431,43613931516300,11,38.325042724609375,48.48173204316515,0.058627192207626744,4,3403.897626613286,3.4028234663852886E38,1.57542003E9,,,,0,,1,,1.57542003E9
Raw,1932942478,943824000000,,,-1311853870175549654,0.0,9.77885917074634,,,0,24,0.0,16431,43613927042920,16,34.918094635009766,420.5534171947186,0.08498576194642865,4,364037.16125425947,3.4028234663852886E38,1.57542003E9,,,,0,,1,,1.57542003E9
Raw,1932942479,943824000000,,,-1311853870175549654,0.0,9.77885917074634,,,0,25,0.0,16431,43613921259156,54,24.697723388671875,-724.4132066343345,0.27177177756314475,4,-688041.623114907,3.4028234663852886E38,1.57542003E9,,,,0,,1,,1.57542003E9
Raw,1932942479,943824000000,,,-1311853870175549654,0.0,9.77885917074634,,,0,31,0.0,16,943016068945,1000000000,7.0,-844.9030747267739,2.99792458E8,2,-13.492071807200812,3.4028234663852886E38,1.57542003E9,,,,0,,1,,1.57542003E9
Raw,1932942479,943824000000,,,-1311853870175549654,0.0,9.77885917074634,,,0,32,0.0,16431,43613926088467,35,28.37382698059082,-418.8814682075356,0.17893825541223518,4,-407660.6443014388,3.4028234663852886E38,1.57542003E9,,,,0,,1,,1.57542003E9
Raw,1932942480,943824000000,,,-1311853870175549654,0.0,9.77885917074634,,,0,10,0.0,32995,54395928575594,53,30.977827072143555,-839.4144359283405,0.13331874590094545,4,-819046.9314564156,3.4028234663852886E38,1.59806246E9,,,,0,,3,,1.59806246E9
Raw,1932942480,943824000000,,,-1311853870175549654,0.0,9.77885917074634,,,0,9,0.0,32995,54395933283137,33,42.483829498291016,-217.29147459274282,0.037427117924232284,4,-276509.60930728016,3.4028234663852886E38,1.59862502E9,,,,0,,3,,1.59862502E9
Raw,1932942480,943824000000,,,-1311853870175549654,0.0,9.77885917074634,,,0,16,0.0,32995,54395926015412,54,30.78493881225586,466.4087040145512,0.13581736606930056,4,383285.1834919161,3.4028234663852886E38,1.60143744E9,,,,0,,3,,1.60143744E9
Raw,1932942481,943824000000,,,-1311853870175549654,0.0,9.77885917074634,,,0,23,0.0,32995,54395924376429,98,25.60875701904297,-110.27437600192803,0.24529380273374168,4,-172054.85683748036,3.4028234663852886E38,1.60368755E9,,,,0,,3,,1.60368755E9
Raw,1932942481,943824000000,,,-1311853870175549654,0.0,9.77885917074634,,,0,7,0.0,32995,54395932381479,39,33.51397705078125,-204.0872152042191,0.10063490159058136,4,-210109.53028475665,3.4028234663852886E38,1.60481254E9,,,,0,,3,,1.60481254E9
Raw,1932942481,943824000000,,,-1311853870175549654,0.0,9.77885917074634,,,0,8,0.0,32961,54395926149373,102,25.31536293029785,-563.5580197363004,0.2540127874121747,4,-761685.9364934862,3.4028234663852886E38,1.60537498E9,,,,0,,3,,1.60537498E9
Raw,1932942482,943824000000,,,-1311853870175549654,0.0,9.77885917074634,,,0,193,0.0,35,8740547,13,36.6001091003418,-247.49923296330098,0.0705521661245957,4,-228231.9341637694,3.4028234663852886E38,1.57542003E9,,,,0,,4,,1.57542003E9
Raw,1932942482,943824000000,,,-1311853870175549654,0.0,9.77885917074634,,,0,194,0.0,35,12123766,8,40.4324836730957,-112.23261762390263,0.046552275452146796,4,-111447.42540048604,3.4028234663852886E38,1.57542003E9,,,,0,,4,,1.57542003E9
Raw,1932942482,943824000000,,,-1311853870175549654,0.0,9.77885917074634,,,0,6,0.0,16431,43599878399757,18,27.91968536376953,-75.3893457929185,0.19069868328971717,4,-52471.31260778624,3.4028234663852886E38,1.56109798E9,,,,0,,5,,1.56109798E9
Raw,1932942483,943824000000,,,-1311853870175549654,0.0,9.77885917074634,,,0,14,0.0,16431,43599924688750,6,39.070457458496094,97.54048859587562,0.05274796429698583,4,65119.681306959465,3.4028234663852886E38,1.56109798E9,,,,0,,5,,1.56109798E9
Raw,1932942483,943824000000,,,-1311853870175549654,0.0,9.77885917074634,,,0,16,0.0,16431,43599877760334,12,31.392902374267578,-75.28547950666524,0.1288217338451878,4,-52029.93924242425,3.4028234663852886E38,1.56109798E9,,,,0,,5,,1.56109798E9
Raw,1932942483,943824000000,,,-1311853870175549654,0.0,9.77885917074634,,,0,24,0.0,16431,43599924147875,6,37.12206268310547,-45.18432679980336,0.06570297977931866,4,-73691.62013114692,3.4028234663852886E38,1.56109798E9,,,,0,,5,,1.56109798E9
Raw,1932942484,943824000000,,,-1311853870175549654,0.0,9.77885917074634,,,0,25,0.0,16431,43599921483802,10,33.091800689697266,-627.9019826636054,0.10357594466257852,4,-270302.5385639231,3.4028234663852886E38,1.56109798E9,,,,0,,5,,1.56109798E9
Raw,1932942484,943824000000,,,-1311853870175549654,0.0,9.77885917074634,,,0,26,0.0,16431,43599916204583,6,38.333106994628906,397.18914343428855,0.059418024188000934,4,305057.49294314446,3.4028234663852886E38,1.56109798E9,,,,0,,5,,1.56109798E9
Raw,1932942484,943824000000,,,-1311853870175549654,0.0,9.77885917074634,,,0,27,0.0,16431,43599913379087,19,27.824079513549805,69.06619804652411,0.1918695521342364,4,20402.58266720997,3.4028234663852886E38,1.56109798E9,,,,0,,5,,1.56109798E9
Raw,1932942486,943824000000,,,-1311853870175549654,0.0,9.77885917074634,,,0,33,0.0,16431,43599925697479,8,34.545169830322266,-148.43845379115476,0.08841647406174963,4,-139607.93195533508,3.4028234663852886E38,1.56109798E9,,,,0,,5,,1.56109798E9
Fix,gps,34.486742,109.464257,362.447418,0.000000,3.000000,1627819596999
Raw,1932943497,944824000000,,,-1311853870175550038,0.0,8.610155654676367,,,0,10,0.0,16431,43614930706626,18,34.1174430847168,-400.29777021127757,0.09372872749392874,4,-409249.0378960424,3.4028234663852886E38,1.57542003E9,,,,0,,1,,1.57542003E9
Raw,1932943498,944824000000,,,-1311853870175550038,0.0,8.610155654676367,,,0,12,0.0,16431,43614922489220,7,42.10504913330078,-530.3179792913643,0.03704730572471765,4,-529948.8686290575,3.4028234663852886E38,1.57542003E9,,,,0,,1,,1.57542003E9
Raw,1932943498,944824000000,,,-1311853870175550038,0.0,8.610155654676367,,,0,15,0.0,16431,43614917264051,22,32.46852493286133,415.98957177157513,0.11410005972079718,4,391170.9412197138,3.4028234663852886E38,1.57542003E9,,,,0,,1,,1.57542003E9
Raw,1932943498,944824000000,,,-1311853870175550038,0.0,8.610155654676367,,,0,18,0.0,16431,43614922396597,16,35.2457160949707,551.3044563900239,0.08105104385599948,4,500809.82379344053,3.4028234663852886E38,1.57542003E9,,,,0,,1,,1.57542003E9
Raw,1932943498,944824000000,,,-1311853870175550038,0.0,8.610155654676367,,,0,23,0.0,16431,43614931516141,10,38.761680603027344,48.44111001529703,0.05585437717878142,4,3452.3797643393546,3.4028234663852886E38,1.57542003E9,,,,0,,1,,1.57542003E9
Raw,1932943498,944824000000,,,-1311853870175550038,0.0,8.610155654676367,,,0,24,0.0,16431,43614927041487,15,35.443729400634766,420.5600632737405,0.08006945080213562,4,364457.8430837414,3.4028234663852886E38,1.57542003E9,,,,0,,1,,1.57542003E9
Raw,1932943499,944824000000,,,-1311853870175550038,0.0,8.610155654676367,,,0,25,0.0,16431,43614921261560,64,22.104673385620117,-724.2123928005021,4.200226883769757,4,-688766.3296249732,3.4028234663852886E38,1.57542003E9,,,,0,,1,,1.57542003E9
Raw,1932943499,944824000000,,,-1311853870175550038,0.0,8.610155654676367,,,0,31,0.0,16,944016071763,1000000000,7.0,-844.9030747267739,2.99792458E8,2,-13.511893580281148,3.4028234663852886E38,1.57542003E9,,,,0,,1,,1.57542003E9
Raw,1932943499,944824000000,,,-1311853870175550038,0.0,8.610155654676367,,,0,32,0.0,16431,43614926089880,51,25.22870635986328,-418.88603525670965,0.2565378680814435,4,-408079.4221206496,3.4028234663852886E38,1.57542003E9,,,,0,,1,,1.57542003E9
Raw,1932943500,944824000000,,,-1311853870175550038,0.0,8.610155654676367,,,0,10,0.0,32995,54396928578348,57,30.344955444335938,-839.4997102345606,0.14327918572240428,4,-819886.3190572002,3.4028234663852886E38,1.59806246E9,,,,0,,3,,1.59806246E9
Raw,1932943500,944824000000,,,-1311853870175550038,0.0,8.610155654676367,,,0,9,0.0,32995,54396933283854,33,42.73225784301758,-217.10879262578055,0.03643931330938349,4,-276726.66266558616,3.4028234663852886E38,1.59862502E9,,,,0,,3,,1.59862502E9
Raw,1932943500,944824000000,,,-1311853870175550038,0.0,8.610155654676367,,,0,16,0.0,32995,54396926013929,67,28.930831909179688,466.58525113933933,0.16787819871774268,4,383751.85206675006,3.4028234663852886E38,1.60143744E9,,,,0,,3,,1.60143744E9
Raw,1932943500,944824000000,,,-1311853870175550038,0.0,8.610155654676367,,,0,23,0.0,32995,54396924376819,92,26.237060546875,-110.022736704806,0.22823175554991948,4,-172164.78018901453,3.4028234663852886E38,1.60368755E9,,,,0,,3,,1.60368755E9
Raw,1932943500,944824000000,,,-1311853870175550038,0.0,8.610155654676367,,,0,7,0.0,32995,54396932382198,46,32.18118667602539,-203.8467464322224,0.11695513944847374,4,-210313.43594796886,3.4028234663852886E38,1.60481254E9,,,,0,,3,,1.60481254E9
Raw,1932943500,944824000000,,,-1311853870175550038,0.0,8.610155654676367,,,0,8,0.0,32961,54396926151184,110,24.665374755859375,-563.4681783809062,0.2736648516643634,4,-762249.4681925257,3.4028234663852886E38,1.60537498E9,,,,0,,3,,1.60537498E9
Raw,1932943501,944824000000,,,-1311853870175550038,0.0,8.610155654676367,,,0,193,0.0,35,8741367,13,37.11219024658203,-247.53611018125866,0.06660313606511886,4,-228479.47718568813,3.4028234663852886E38,1.57542003E9,,,,0,,4,,1.57542003E9
Raw,1932943501,944824000000,,,-1311853870175550038,0.0,8.610155654676367,,,0,194,0.0,35,12124157,9,39.996055603027344,-112.2580601776969,0.048838770604843706,4,-111559.65453286123,3.4028234663852886E38,1.57542003E9,,,,0,,4,,1.57542003E9
Raw,1932943501,944824000000,,,-1311853870175550038,0.0,8.610155654676367,,,0,6,0.0,16431,43600878399998,20,27.069204330444336,-75.30860445341597,0.20997530798177177,4,-52547.330862619085,3.4028234663852886E38,1.56109798E9,,,,0,,5,,1.56109798E9
Raw,1932943504,944824000000,,,-1311853870175550038,0.0,8.610155654676367,,,0,14,0.0,16431,43600924688427,6,37.93295669555664,97.6391999105798,0.06001047729973247,4,65217.30826402328,3.4028234663852886E38,1.56109798E9,,,,0,,5,,1.56109798E9
Raw,1932943505,944824000000,,,-1311853870175550038,0.0,8.610155654676367,,,0,16,0.0,16431,43600877760576,14,30.24013328552246,-75.07604281133257,0.14665170137753958,4,-52104.99095388717,3.4028234663852886E38,1.56109798E9,,,,0,,5,,1.56109798E9
Raw,1932943505,944824000000,,,-1311853870175550038,0.0,8.610155654676367,,,0,24,0.0,16431,43600924148035,7,35.94480514526367,-44.788101201497426,0.07513159681606096,4,-73736.47461793214,3.4028234663852886E38,1.56109798E9,,,,0,,5,,1.56109798E9
Raw,1932943505,944824000000,,,-1311853870175550038,0.0,8.610155654676367,,,0,25,0.0,16431,43600921485912,12,31.61820411682129,-627.7861704763409,0.12267765545849885,4,-270930.3252791028,3.4028234663852886E38,1.56109798E9,,,,0,,5,,1.56109798E9
Raw,1932943505,944824000000,,,-1311853870175550038,0.0,8.610155654676367,,,0,26,0.0,16431,43600916203272,6,38.056270599365234,397.3584991607504,0.061247663814780695,4,305454.91137195623,3.4028234663852886E38,1.56109798E9,,,,0,,5,,1.56109798E9
Raw,1932943505,944824000000,,,-1311853870175550038,0.0,8.610155654676367,,,0,27,0.0,16431,43600913378855,29,24.090063095092773,69.14607880399944,0.2936292163946317,4,20471.728218658554,3.4028234663852886E38,1.56109798E9,,,,0,,5,,1.56109798E9
Raw,1932943505,944824000000,,,-1311853870175550038,0.0,8.610155654676367,,,0,33,0.0,16431,43600925697961,9,33.98905563354492,-148.6216299537366,0.09419484003470957,4,-139756.39215489934,3.4028234663852886E38,1.56109798E9,,,,0,,5,,1.56109798E9
Fix,gps,34.486742,109.464257,362.645752,0.000000,3.000000,1627819597999
Raw,1932944491,945824000000,,,-1311853870175550421,0.0,8.21587711470223,,,0,10,0.0,16431,43615930707997,6,43.19987869262695,-400.26713008286356,0.03419131693737919,4,-409649.33015057223,3.4028234663852886E38,1.57542003E9,,,,0,,1,,1.57542003E9
Raw,1932944491,945824000000,,,-1311853870175550421,0.0,8.21587711470223,,,0,12,0.0,16431,43615922491009,11,38.50401306152344,-530.3536977058002,0.05585035817817094,4,-530479.1941199716,3.4028234663852886E38,1.57542003E9,,,,0,,1,,1.57542003E9
Raw,1932944492,945824000000,,,-1311853870175550421,0.0,8.21587711470223,,,0,15,0.0,16431,43615917262615,8,41.39300537109375,415.83841607689646,0.04283142144803337,4,391586.77774589264,3.4028234663852886E38,1.57542003E9,,,,0,,1,,1.57542003E9
Raw,1932944492,945824000000,,,-1311853870175550421,0.0,8.21587711470223,,,0,18,0.0,16431,43615922394700,25,31.21024513244629,551.2885058003712,0.12872762432778717,4,501361.1912524126,3.4028234663852886E38,1.57542003E9,,,,0,,1,,1.57542003E9
Raw,1932944492,945824000000,,,-1311853870175550421,0.0,8.21587711470223,,,0,23,0.0,16431,43615931515962,9,40.17134475708008,48.476138259988346,0.04779722537831216,4,3500.9221988875183,3.4028234663852886E38,1.57542003E9,,,,0,,1,,1.57542003E9
Raw,1932944492,945824000000,,,-1311853870175550421,0.0,8.21587711470223,,,0,24,0.0,16431,43615927040076,13,36.73578643798828,420.6360671517864,0.06917718946335863,4,364878.55143563414,3.4028234663852886E38,1.57542003E9,,,,0,,1,,1.57542003E9
Raw,1932944493,945824000000,,,-1311853870175550421,0.0,8.21587711470223,,,0,25,0.0,16431,43615921263955,26,30.877178192138672,-724.103192609803,0.13353943313529554,4,-689490.8343239786,3.4028234663852886E38,1.57542003E9,,,,0,,1,,1.57542003E9
Raw,1932944493,945824000000,,,-1311853870175550421,0.0,8.21587711470223,,,0,31,0.0,16,945016074582,1000000000,11.395769119262695,-844.9030747267739,2.99792458E8,2,-13.505286322605402,3.4028234663852886E38,1.57542003E9,,,,0,,1,,1.57542003E9
Raw,1932944494,945824000000,,,-1311853870175550421,0.0,8.21587711470223,,,0,32,0.0,16431,43615926091151,13,36.87752151489258,-418.7546133043577,0.06790730176321894,4,-408498.2221128014,3.4028234663852886E38,1.57542003E9,,,,0,,1,,1.57542003E9
Raw,1932944495,945824000000,,,-1311853870175550421,0.0,8.21587711470223,,,0,10,0.0,32995,54397928581094,76,27.883800506591797,-839.33161555899,0.1897082950316188,4,-820725.7104134058,3.4028234663852886E38,1.59806246E9,,,,0,,3,,1.59806246E9
Raw,1932944495,945824000000,,,-1311853870175550421,0.0,8.21587711470223,,,0,9,0.0,32995,54397933284596,33,40.969913482666016,-216.8645577423381,0.04409886279997538,4,-276943.44830925216,3.4028234663852886E38,1.59862502E9,,,,0,,3,,1.59862502E9
Raw,1932944495,945824000000,,,-1311853870175550421,0.0,8.21587711470223,,,0,16,0.0,32995,54397926012288,33,35.99683380126953,466.67986403864666,0.0750227093585274,4,384218.6199095116,3.4028234663852886E38,1.60143744E9,,,,0,,3,,1.60143744E9
Raw,1932944496,945824000000,,,-1311853870175550421,0.0,8.21587711470223,,,0,23,0.0,32995,54397924377298,75,27.96428680419922,-109.83696175491428,0.18721663114589382,4,-172274.6055222105,3.4028234663852886E38,1.60368755E9,,,,0,,3,,1.60368755E9
Raw,1932944496,945824000000,,,-1311853870175550421,0.0,8.21587711470223,,,0,7,0.0,32995,54397932382822,33,38.25588607788086,-203.8448037322006,0.0592351388579436,4,-210517.37472610062,3.4028234663852886E38,1.60481254E9,,,,0,,3,,1.60481254E9
Raw,1932944496,945824000000,,,-1311853870175550421,0.0,8.21587711470223,,,0,8,0.0,32961,54397926152927,59,30.082021713256836,-563.4010018590998,0.14719905098449038,4,-762813.0443118244,3.4028234663852886E38,1.60537498E9,,,,0,,3,,1.60537498E9
Raw,1932944498,945824000000,,,-1311853870175550421,0.0,8.21587711470223,,,0,193,0.0,35,8742157,9,39.83498764038086,-247.53893902515006,0.04910371677138248,4,-228727.03603692751,3.4028234663852886E38,1.57542003E9,,,,0,,4,,1.57542003E9
Raw,1932944498,945824000000,,,-1311853870175550421,0.0,8.21587711470223,,,0,194,0.0,35,12124534,8,40.796321868896484,-112.16820178107452,0.04473215078851006,4,-111671.78757433803,3.4028234663852886E38,1.57542003E9,,,,0,,4,,1.57542003E9
Raw,1932944498,945824000000,,,-1311853870175550421,0.0,8.21587711470223,,,0,6,0.0,16431,43601878400258,7,35.80818557739258,-75.29818374233412,0.07887447627486577,4,-52622.65936252391,3.4028234663852886E38,1.56109798E9,,,,0,,5,,1.56109798E9
Raw,1932944499,945824000000,,,-1311853870175550421,0.0,8.21587711470223,,,0,14,0.0,16431,43601924688091,6,39.23940658569336,97.66383300603167,0.051747998668902645,4,65314.9117989078,3.4028234663852886E38,1.56109798E9,,,,0,,5,,1.56109798E9
Raw,1932944499,945824000000,,,-1311853870175550421,0.0,8.21587711470223,,,0,16,0.0,16431,43601877760833,7,36.53479766845703,-75.05440045144059,0.0726953252430978,4,-52180.072344580185,3.4028234663852886E38,1.56109798E9,,,,0,,5,,1.56109798E9
Raw,1932944499,945824000000,,,-1311853870175550421,0.0,8.21587711470223,,,0,24,0.0,16431,43601924148185,6,40.8919563293457,-44.77712665049708,0.04283146721305067,4,-73781.2567892057,3.4028234663852886E38,1.56109798E9,,,,0,,5,,1.56109798E9
Raw,1932944500,945824000000,,,-1311853870175550421,0.0,8.21587711470223,,,0,25,0.0,16431,43601921487997,12,31.73379898071289,-627.7270033318173,0.12105972896222156,4,-271557.9871932755,3.4028234663852886E38,1.56109798E9,,,,0,,5,,1.56109798E9
Raw,1932944500,945824000000,,,-1311853870175550421,0.0,8.21587711470223,,,0,26,0.0,16431,43601916201945,6,41.85410690307617,397.3230534059667,0.04058671807704686,4,305852.2436840702,3.4028234663852886E38,1.56109798E9,,,,0,,5,,1.56109798E9
Raw,1932944500,945824000000,,,-1311853870175550421,0.0,8.21587711470223,,,0,27,0.0,16431,43601913378613,31,23.43044090270996,68.98849856626623,0.31660658344592285,4,20540.78213646972,3.4028234663852886E38,1.56109798E9,,,,0,,5,,1.56109798E9
Raw,1932944501,945824000000,,,-1311853870175550421,0.0,8.21587711470223,,,0,33,0.0,16431,43601925698484,6,38.6385612487793,-148.37880949223984,0.055575722309332165,4,-139904.6717341547,3.4028234663852886E38,1.56109798E9,,,,0,,5,,1.56109798E9
Fix,gps,34.486742,109.464257,362.568848,0.000000,3.000000,1627819598999
Raw,1932945524,946824000000,,,-1311853870175550806,0.0,7.6678894787073615,,,0,10,0.0,16431,43616930709322,7,42.33812713623047,-400.2483506493195,0.037556840946007336,4,-410049.59155823325,3.4028234663852886E38,1.57542003E9,,,,0,,1,,1.57542003E9
Raw,1932945524,946824000000,,,-1311853870175550806,0.0,7.6678894787073615,,,0,12,0.0,16431,43616922492735,10,38.9588623046875,-530.5262571831752,0.05302409793002727,4,-531009.7529621085,3.4028234663852886E38,1.57542003E9,,,,0,,1,,1.57542003E9
Raw,1932945525,946824000000,,,-1311853870175550806,0.0,7.6678894787073615,,,0,15,0.0,16431,43616917261252,10,39.142181396484375,416.04267223883767,0.05458261311293228,4,392002.8000107313,3.4028234663852886E38,1.57542003E9,,,,0,,1,,1.57542003E9
Raw,1932945525,946824000000,,,-1311853870175550806,0.0,7.6678894787073615,,,0,18,0.0,16431,43616922392891,17,34.71124267578125,550.8225986197044,0.08616701528941967,4,501911.73903649853,3.4028234663852886E38,1.57542003E9,,,,0,,1,,1.57542003E9
Raw,1932945525,946824000000,,,-1311853870175550806,0.0,7.6678894787073615,,,0,23,0.0,16431,43616931515813,9,39.75836944580078,48.31988723805952,0.05002376835834138,4,3549.2249550805755,3.4028234663852886E38,1.57542003E9,,,,0,,1,,1.57542003E9
Raw,1932945526,946824000000,,,-1311853870175550806,0.0,7.6678894787073615,,,0,24,0.0,16431,43616927038651,7,41.759883880615234,421.0090314735155,0.0393493443414733,4,365299.63215195993,3.4028234663852886E38,1.57542003E9,,,,0,,1,,1.57542003E9
Raw,1932945526,946824000000,,,-1311853870175550806,0.0,7.6678894787073615,,,0,25,0.0,16431,43616921266380,35,28.410633087158203,-724.313754026201,0.17731887275631641,4,-690215.3689261266,3.4028234663852886E38,1.57542003E9,,,,0,,1,,1.57542003E9
Raw,1932945526,946824000000,,,-1311853870175550806,0.0,7.6678894787073615,,,0,31,0.0,16,946016077400,1000000000,14.280168533325195,-844.9030747267739,2.99792458E8,2,-13.498679064958761,3.4028234663852886E38,1.57542003E9,,,,0,,1,,1.57542003E9
Raw,1932945527,946824000000,,,-1311853870175550806,0.0,7.6678894787073615,,,0,32,0.0,16431,43616926092612,10,38.997642517089844,-418.8020220013809,0.053437435084944834,4,-408916.98300041805,3.4028234663852886E38,1.57542003E9,,,,0,,1,,1.57542003E9
Raw,1932945527,946824000000,,,-1311853870175550806,0.0,7.6678894787073615,,,0,10,0.0,32995,54398928583866,64,29.266845703125,-839.6655554680005,0.16201117342489735,4,-821565.0876882919,3.4028234663852886E38,1.59806246E9,,,,0,,3,,1.59806246E9
Raw,1932945527,946824000000,,,-1311853870175550806,0.0,7.6678894787073615,,,0,9,0.0,32995,54398933285267,33,41.217594146728516,-216.92219117631817,0.04292642546349948,4,-277160.33003253804,3.4028234663852886E38,1.59862502E9,,,,0,,3,,1.59862502E9
Raw,1932945528,946824000000,,,-1311853870175550806,0.0,7.6678894787073615,,,0,16,0.0,32995,54398926010755,33,36.63179016113281,467.3125366790796,0.06981003228308863,4,384686.12257505895,3.4028234663852886E38,1.60143744E9,,,,0,,3,,1.60143744E9
Raw,1932945528,946824000000,,,-1311853870175550806,0.0,7.6678894787073615,,,0,23,0.0,32995,54398924377640,33,35.45931625366211,-109.53040709971987,0.07944900198118265,4,-172384.00309167278,3.4028234663852886E38,1.60368755E9,,,,0,,3,,1.60368755E9
Raw,1932945528,946824000000,,,-1311853870175550806,0.0,7.6678894787073615,,,0,7,0.0,32995,54398932383501,33,41.86851501464844,-203.7292130809035,0.03983744489284044,4,-210721.03940779148,3.4028234663852886E38,1.60481254E9,,,,0,,3,,1.60481254E9
Raw,1932945529,946824000000,,,-1311853870175550806,0.0,7.6678894787073615,,,0,8,0.0,32961,54398926154827,46,32.1249885559082,-563.3430276005545,0.11657973317198861,4,-763376.2594503829,3.4028234663852886E38,1.60537498E9,,,,0,,3,,1.60537498E9
Raw,1932945529,946824000000,,,-1311853870175550806,0.0,7.6678894787073615,,,0,193,0.0,35,8742988,10,38.93512725830078,-247.58172954931445,0.05429222991768495,4,-228974.66707514654,3.4028234663852886E38,1.57542003E9,,,,0,,4,,1.57542003E9
Raw,1932945529,946824000000,,,-1311853870175550806,0.0,7.6678894787073615,,,0,194,0.0,35,12124919,15,35.82035827636719,-112.43906358367542,0.07763989420534773,4,-111784.39255073977,3.4028234663852886E38,1.57542003E9,,,,0,,4,,1.57542003E9
Raw,1932945530,946824000000,,,-1311853870175550806,0.0,7.6678894787073615,,,0,6,0.0,16431,43602878400504,8,35.13619613647461,-75.37184445149404,0.08495274456667218,4,-52698.06782784898,3.4028234663852886E38,1.56109798E9,,,,0,,5,,1.56109798E9
Raw,1932945530,946824000000,,,-1311853870175550806,0.0,7.6678894787073615,,,0,14,0.0,16431,43602924687766,6,38.21820068359375,97.6472178084768,0.058098855885137524,4,65412.488237937265,3.4028234663852886E38,1.56109798E9,,,,0,,5,,1.56109798E9
Raw,1932945530,946824000000,,,-1311853870175550806,0.0,7.6678894787073615,,,0,16,0.0,16431,43602877761093,7,35.88896179199219,-75.08509170353938,0.07806005034784352,4,-52255.19999884852,3.4028234663852886E38,1.56109798E9,,,,0,,5,,1.56109798E9
Raw,1932945531,946824000000,,,-1311853870175550806,0.0,7.6678894787073615,,,0,24,0.0,16431,43602924148338,6,40.69158172607422,-44.724545940696515,0.04381366353305172,4,-73826.0142058314,3.4028234663852886E38,1.56109798E9,,,,0,,5,,1.56109798E9
Raw,1932945531,946824000000,,,-1311853870175550806,0.0,7.6678894787073615,,,0,25,0.0,16431,43602921490098,11,31.943971633911133,-628.2184041899632,0.11817237241597761,4,-272186.0689952273,3.4028234663852886E38,1.56109798E9,,,,0,,5,,1.56109798E9
Raw,1932945531,946824000000,,,-1311853870175550806,0.0,7.6678894787073615,,,0,26,0.0,16431,43602916200603,6,40.08265686035156,397.89839935452824,0.04910915032707325,4,306250.2391527429,3.4028234663852886E38,1.56109798E9,,,,0,,5,,1.56109798E9
Raw,1932945532,946824000000,,,-1311853870175550806,0.0,7.6678894787073615,,,0,27,0.0,16431,43602913378383,8,35.1653938293457,69.33530460261409,0.08377538541060808,4,20609.756310135625,3.4028234663852886E38,1.56109798E9,,,,0,,5,,1.56109798E9
Raw,1932945532,946824000000,,,-1311853870175550806,0.0,7.6678894787073615,,,0,33,0.0,16431,43602925698958,6,39.963958740234375,-148.18244341898367,0.047855787958636264,4,-140052.80217297448,3.4028234663852886E38,1.56109798E9,,,,0,,5,,1.56109798E9
Fix,gps,34.486742,109.464257,362.180725,0.000000,2.000000,1627819599999
Raw,1932946463,947824000000,,,-1311853870175551193,0.0,7.328123322445414,,,0,10,0.0,16431,43617930710640,6,44.74700927734375,-400.0768136456402,0.03192657888995401,4,-410449.6182156113,3.4028234663852886E38,1.57542003E9,,,,0,,1,,1.57542003E9
Raw,1932946463,947824000000,,,-1311853870175551193,0.0,7.328123322445414,,,0,12,0.0,16431,43617922494506,166,31.448810577392578,-530.5681445222417,0.12526974443401234,4,-531540.2845678572,3.4028234663852886E38,1.57542003E9,,,,1,,1,,1.57542003E9
Raw,1932946463,947824000000,,,-1311853870175551193,0.0,7.328123322445414,,,0,15,0.0,16431,43617917259844,9,40.353843688964844,416.02218868246746,0.04787968145812485,4,392418.8258576937,3.4028234663852886E38,1.57542003E9,,,,0,,1,,1.57542003E9
Raw,1932946463,947824000000,,,-1311853870175551193,0.0,7.328123322445414,,,0,18,0.0,16431,43617922391045,13,36.85218811035156,550.7725996559855,0.06743691227354828,4,502461.7700309504,3.4028234663852886E38,1.57542003E9,,,,0,,1,,1.57542003E9
Raw,1932946464,947824000000,,,-1311853870175551193,0.0,7.328123322445414,,,0,23,0.0,16431,43617931515616,166,31.215415954589844,48.457818939607336,0.13029190590287243,4,3597.9345920370374,3.4028234663852886E38,1.57542003E9,,,,1,,1,,1.57542003E9
Raw,1932946464,947824000000,,,-1311853870175551193,0.0,7.328123322445414,,,0,24,0.0,16431,43617927037303,11,38.555335998535156,421.09215858497464,0.05634174132941558,4,365720.8166945989,3.4028234663852886E38,1.57542003E9,,,,0,,1,,1.57542003E9
Raw,1932946464,947824000000,,,-1311853870175551193,0.0,7.328123322445414,,,0,25,0.0,16431,43617921268826,22,32.295387268066406,-724.3728530058115,0.11345756048241612,4,-690940.1856292248,3.4028234663852886E38,1.57542003E9,,,,0,,1,,1.57542003E9
Raw,1932946464,947824000000,,,-1311853870175551193,0.0,7.328123322445414,,,0,31,0.0,16,947016080218,1000000000,7.0,-844.9030747267739,2.99792458E8,2,-13.49207180720433,3.4028234663852886E38,1.57542003E9,,,,0,,1,,1.57542003E9
Raw,1932946464,947824000000,,,-1311853870175551193,0.0,7.328123322445414,,,0,32,0.0,16431,43617926094009,8,40.731101989746094,-418.6408801469411,0.043968116305995175,4,-409335.54734226264,3.4028234663852886E38,1.57542003E9,,,,0,,1,,1.57542003E9
Raw,1932946465,947824000000,,,-1311853870175551193,0.0,7.328123322445414,,,0,10,0.0,32995,54399928586700,33,36.61255645751953,-839.6091830849118,0.07042572154224203,4,-822404.7817094678,3.4028234663852886E38,1.59806246E9,,,,0,,3,,1.59806246E9
Raw,1932946465,947824000000,,,-1311853870175551193,0.0,7.328123322445414,,,0,9,0.0,32995,54399933285975,40,33.36874008178711,-216.68547147453899,0.10245694006403261,4,-277376.98228902137,3.4028234663852886E38,1.59862502E9,,,,0,,3,,1.59862502E9
Raw,1932946465,947824000000,,,-1311853870175551193,0.0,7.328123322445414,,,0,16,0.0,32995,54399926009244,36,34.253543853759766,467.39781098529966,0.09145653598936726,4,385154.1894900219,3.4028234663852886E38,1.60143744E9,,,,0,,3,,1.60143744E9
Raw,1932946465,947824000000,,,-1311853870175551193,0.0,7.328123322445414,,,0,23,0.0,32995,54399924377981,33,37.7887077331543,-109.25059865228172,0.0609454399614201,4,-172493.5492613234,3.4028234663852886E38,1.60368755E9,,,,0,,3,,1.60368755E9
Raw,1932946466,947824000000,,,-1311853870175551193,0.0,7.328123322445414,,,0,7,0.0,32995,54399932384185,33,42.628761291503906,-203.60031323033422,0.036685633113879706,4,-210924.5531392786,3.4028234663852886E38,1.60481254E9,,,,0,,3,,1.60481254E9
Raw,1932946466,947824000000,,,-1311853870175551193,0.0,7.328123322445414,,,0,8,0.0,32961,54399926156697,33,35.36607360839844,-563.2233981781594,0.0806179653367996,4,-763939.4345121859,3.4028234663852886E38,1.60537498E9,,,,0,,3,,1.60537498E9
Raw,1932946466,947824000000,,,-1311853870175551193,0.0,7.328123322445414,,,0,193,0.0,35,8743861,23,32.06669998168945,-247.70872078231844,0.11782291906475972,4,-229222.3351178707,3.4028234663852886E38,1.57542003E9,,,,0,,4,,1.57542003E9
Raw,1932946466,947824000000,,,-1311853870175551193,0.0,7.328123322445414,,,0,194,0.0,35,12125309,23,32.076026916503906,-112.43346554019155,0.1183063973493792,4,-111896.76780213205,3.4028234663852886E38,1.57542003E9,,,,0,,4,,1.57542003E9
Raw,1932946466,947824000000,,,-1311853870175551193,0.0,7.328123322445414,,,0,6,0.0,16431,43603878400776,7,35.424041748046875,-75.0783007740772,0.08229151713138133,4,-52773.23008450106,3.4028234663852886E38,1.56109798E9,,,,0,,5,,1.56109798E9
Raw,1932946466,947824000000,,,-1311853870175551193,0.0,7.328123322445414,,,0,14,0.0,16431,43603924687462,6,37.58353805541992,97.59917006539376,0.06243901042431521,4,65510.110806067874,3.4028234663852886E38,1.56109798E9,,,,0,,5,,1.56109798E9
Raw,1932946467,947824000000,,,-1311853870175551193,0.0,7.328123322445414,,,0,16,0.0,16431,43603877761356,6,37.465911865234375,-75.12840198516574,0.06563050047327815,4,-52330.2038896286,3.4028234663852886E38,1.56109798E9,,,,0,,5,,1.56109798E9
Raw,1932946467,947824000000,,,-1311853870175551193,0.0,7.328123322445414,,,0,24,0.0,16431,43603924148477,6,37.508121490478516,-44.62137834480197,0.06287920748393386,4,-73870.61268145787,3.4028234663852886E38,1.56109798E9,,,,0,,5,,1.56109798E9
Raw,1932946467,947824000000,,,-1311853870175551193,0.0,7.328123322445414,,,0,25,0.0,16431,43603921492208,13,30.65426254272461,-628.1950917897016,0.13704611517934046,4,-272814.30135437346,3.4028234663852886E38,1.56109798E9,,,,0,,5,,1.56109798E9
Raw,1932946467,947824000000,,,-1311853870175551193,0.0,7.328123322445414,,,0,26,0.0,16431,43603916199298,6,37.86973571777344,397.90214842474575,0.06251322048010102,4,306648.1865572687,3.4028234663852886E38,1.56109798E9,,,,0,,5,,1.56109798E9
Raw,1932946467,947824000000,,,-1311853870175551193,0.0,7.328123322445414,,,0,27,0.0,16431,43603913378173,7,35.6778450012207,69.30680314834689,0.07911360265073308,4,20678.448936771292,3.4028234663852886E38,1.56109798E9,,,,0,,5,,1.56109798E9
Raw,1932946467,947824000000,,,-1311853870175551193,0.0,7.328123322445414,,,0,33,0.0,16431,43603925699473,6,39.38421630859375,-148.14606039664557,0.05108827514219097,4,-140200.81477360002,3.4028234663852886E38,1.56109798E9,,,,0,,5,,1.56109798E9
Fix,gps,34.486742,109.464257,361.912964,0.000000,2.000000,1627819600999
Raw,1932947458,948824000000,,,-1311853870175551577,0.0,7.198214534358956,,,0,10,0.0,16431,43618930711974,6,44.71363067626953,-399.9834617972242,0.031926820196408884,4,-410849.55783219635,3.4028234663852886E38,1.57542003E9,,,,0,,1,,1.57542003E9
Raw,1932947458,948824000000,,,-1311853870175551577,0.0,7.198214534358956,,,0,12,0.0,16431,43618922496250,12,37.41279983520508,-530.601477164721,0.0632676318276138,4,-532070.8230088421,3.4028234663852886E38,1.57542003E9,,,,0,,1,,1.57542003E9
Raw,1932947458,948824000000,,,-1311853870175551577,0.0,7.198214534358956,,,0,15,0.0,16431,43618917258455,14,36.44949722290039,416.20657477225586,0.07329086957372538,4,392834.99340674485,3.4028234663852886E38,1.57542003E9,,,,0,,1,,1.57542003E9
Raw,1932947458,948824000000,,,-1311853870175551577,0.0,7.198214534358956,,,0,18,0.0,16431,43618922389197,15,35.626129150390625,550.5629925483702,0.07759505280930246,4,503012.24401759857,3.4028234663852886E38,1.57542003E9,,,,0,,1,,1.57542003E9
Raw,1932947458,948824000000,,,-1311853870175551577,0.0,7.198214534358956,,,0,23,0.0,16431,43618931515439,18,34.218868255615234,48.7635811776876,0.0928084429214272,4,3646.770949780394,3.4028234663852886E38,1.57542003E9,,,,0,,1,,1.57542003E9
Raw,1932947458,948824000000,,,-1311853870175551577,0.0,7.198214534358956,,,0,24,0.0,16431,43618927035834,9,39.55162048339844,421.23901989013143,0.05037301368675334,4,366142.1822630081,3.4028234663852886E38,1.57542003E9,,,,0,,1,,1.57542003E9
Raw,1932947459,948824000000,,,-1311853870175551577,0.0,7.198214534358956,,,0,25,0.0,16431,43618921271241,15,35.70172882080078,-724.4883243685108,0.07672523456951841,4,-691664.886354277,3.4028234663852886E38,1.57542003E9,,,,0,,1,,1.57542003E9
Raw,1932947459,948824000000,,,-1311853870175551577,0.0,7.198214534358956,,,0,31,0.0,16,948016083036,1000000000,7.226095199584961,-844.9030747267739,2.99792458E8,2,-13.511893580284667,3.4028234663852886E38,1.57542003E9,,,,0,,1,,1.57542003E9
Raw,1932947459,948824000000,,,-1311853870175551577,0.0,7.198214534358956,,,0,32,0.0,16431,43618926095341,11,37.99789047241211,-418.598174828918,0.05982285321015615,4,-409754.0696057112,3.4028234663852886E38,1.57542003E9,,,,0,,1,,1.57542003E9
Raw,1932947459,948824000000,,,-1311853870175551577,0.0,7.198214534358956,,,0,10,0.0,32995,54400928589542,34,34.887691497802734,-839.7576462655252,0.08555752510988285,4,-823244.5900081831,3.4028234663852886E38,1.59806246E9,,,,0,,3,,1.59806246E9
Raw,1932947460,948824000000,,,-1311853870175551577,0.0,7.198214534358956,,,0,9,0.0,32995,54400933286682,166,30.470502853393555,-216.66054015759255,0.1420921410244963,4,-277593.52911440976,3.4028234663852886E38,1.59862502E9,,,,1,,3,,1.59862502E9
Raw,1932947460,948824000000,,,-1311853870175551577,0.0,7.198214534358956,,,0,16,0.0,32995,54400926007597,33,37.80122375488281,467.81440085137797,0.06115194004040608,4,385622.12485607207,3.4028234663852886E38,1.60143744E9,,,,0,,3,,1.60143744E9
Raw,1932947460,948824000000,,,-1311853870175551577,0.0,7.198214534358956,,,0,23,0.0,32995,54400924378342,33,40.766265869140625,-109.03892103543268,0.043486289722454746,4,-172603.13621104704,3.4028234663852886E38,1.60368755E9,,,,0,,3,,1.60368755E9
Raw,1932947460,948824000000,,,-1311853870175551577,0.0,7.198214534358956,,,0,7,0.0,32995,54400932384833,33,43.01854705810547,-203.37710722256634,0.0351736068676429,4,-211127.93378409598,3.4028234663852886E38,1.60481254E9,,,,0,,3,,1.60481254E9
Raw,1932947460,948824000000,,,-1311853870175551577,0.0,7.198214534358956,,,0,8,0.0,32961,54400926158532,44,32.565025329589844,-563.376632902686,0.11087609731182929,4,-764502.7582676447,3.4028234663852886E38,1.60537498E9,,,,0,,3,,1.60537498E9
Raw,1932947460,948824000000,,,-1311853870175551577,0.0,7.198214534358956,,,0,193,0.0,35,8744662,32,29.165346145629883,-248.08332106196065,0.1639262147344217,4,-229470.00701663777,3.4028234663852886E38,1.57542003E9,,,,0,,4,,1.57542003E9
Raw,1932947460,948824000000,,,-1311853870175551577,0.0,7.198214534358956,,,0,194,0.0,35,12125612,17,34.42506790161133,-112.50687915154168,0.09078952334353596,4,-112008.62040210077,3.4028234663852886E38,1.57542003E9,,,,0,,4,,1.57542003E9
