# 
# Header Description:
# 
# Version: v2.0.0.1 Platform: 10 Manufacturer: HUAWEI Model: BLA-AL00
# 
# Raw,ElapsedRealtimeMillis,TimeNanos,LeapSecond,TimeUncertaintyNanos,FullBiasNanos,BiasNanos,BiasUncertaintyNanos,DriftNanosPerSecond,DriftUncertaintyNanosPerSecond,HardwareClockDiscontinuityCount,Svid,TimeOffsetNanos,State,ReceivedSvTimeNanos,ReceivedSvTimeUncertaintyNanos,Cn0DbHz,PseudorangeRateMetersPerSecond,PseudorangeRateUncertaintyMetersPerSecond,AccumulatedDeltaRangeState,AccumulatedDeltaRangeMeters,AccumulatedDeltaRangeUncertaintyMeters,CarrierFrequencyHz,CarrierCycles,CarrierPhase,CarrierPhaseUncertainty,MultipathIndicator,SnrInDb,ConstellationType,AgcDb,CarrierFrequencyHz
# 
# Fix,Provider,Latitude,Longitude,Altitude,Speed,Accuracy,(UTC)TimeInMs
# 
# Nav,Svid,Type,Status,MessageId,Sub-messageId,Data(Bytes)
# 
Fix,gps,34.486354,109.463874,357.027557,0.403363,2.000000,1627952237999
Raw,2065585070,1839291000000,,,-1311985616708825660,0.0,6.993154287761289,,,0,1,0.0,16431,176255924815775,9,40.1602897644043,508.8129716991666,0.04665025835419376,4,573506.4382601716,3.4028234663852886E38,1.57542003E9,,,,0,,1,,1.57542003E9
Raw,2065585070,1839291000000,,,-1311985616708825660,0.0,6.993154287761289,,,0,2,0.0,16,1839014973935,1000000000,7.0,-685.2422393526685,2.99792458E8,2,-10.227767144236438,3.4028234663852886E38,1.57542003E9,,,,0,,1,,1.57542003E9
Raw,2065585071,1839291000000,,,-1311985616708825660,0.0,6.993154287761289,,,0,3,0.0,16431,176255926113567,6,43.89006042480469,-145.8151441538223,0.031099679915488482,4,-6355.273119576807,3.4028234663852886E38,1.57542003E9,,,,0,,1,,1.57542003E9
Raw,2065585071,1839291000000,,,-1311985616708825660,0.0,6.993154287761289,,,0,6,0.0,16431,176255925064069,24,31.579030990600586,-625.552610770575,0.1238745854001444,4,-556915.4191997009,3.4028234663852886E38,1.57542003E9,,,,0,,1,,1.57542003E9
Raw,2065585071,1839291000000,,,-1311985616708825660,0.0,6.993154287761289,,,0,14,0.0,16431,176255932500600,8,41.018218994140625,-42.10776309378818,0.04372651445873735,4,-255446.22120838324,3.4028234663852886E38,1.57542003E9,,,,0,,1,,1.57542003E9
Raw,2065585072,1839291000000,,,-1311985616708825660,0.0,6.993154287761289,,,0,17,0.0,16431,176255929636370,7,41.46845245361328,-181.23134944773983,0.041116077871741236,4,-128349.39164437618,3.4028234663852886E38,1.57542003E9,,,,0,,1,,1.57542003E9
Raw,2065585072,1839291000000,,,-1311985616708825660,0.0,6.993154287761289,,,0,19,0.0,16431,176255927994120,166,29.618473052978516,-429.9143683734476,0.15553866863221344,4,-551021.1536287123,3.4028234663852886E38,1.57542003E9,,,,1,,1,,1.57542003E9
Raw,2065585072,1839291000000,,,-1311985616708825660,0.0,6.993154287761289,,,0,21,0.0,17,288520,16,35.25749969482422,470.93161640741073,0.08326071202601204,4,524295.0578668019,3.4028234663852886E38,1.57542003E9,,,,0,,1,,1.57542003E9
Raw,2065585072,1839291000000,,,-1311985616708825660,0.0,6.993154287761289,,,0,22,0.0,16431,176255922556653,7,42.23947525024414,179.49668874055487,0.036497380795429496,4,1075.7137757315754,3.4028234663852886E38,1.57542003E9,,,,0,,1,,1.57542003E9
Raw,2065585073,1839291000000,,,-1311985616708825660,0.0,6.993154287761289,,,0,24,0.0,16,1839016872011,1000000000,26.610881805419922,-363.87827964469807,2.99792458E8,2,-524293.8181618054,3.4028234663852886E38,1.57542003E9,,,,0,,1,,1.57542003E9
Raw,2065585073,1839291000000,,,-1311985616708825660,0.0,6.993154287761289,,,0,30,0.0,16431,176255920792451,40,27.4016170501709,492.235094434189,0.2026458823632712,4,32445.119701352123,3.4028234663852886E38,1.57542003E9,,,,0,,1,,1.57542003E9
Raw,2065585073,1839291000000,,,-1311985616708825660,0.0,6.993154287761289,,,0,10,0.0,99,1922437180,40,33.34923553466797,-834.2836629233966,0.1007304755885357,4,-540986.2628562878,3.4028234663852886E38,1.59806246E9,,,,0,,3,,1.59806246E9
Raw,2065585074,1839291000000,,,-1311985616708825660,0.0,6.993154287761289,,,0,18,0.0,16,1839007681817,1000000000,25.986927032470703,380.96517839784383,2.99792458E8,2,2.665041991567345,3.4028234663852886E38,1.60031245E9,,,,0,,3,,1.60031245E9
Raw,2065585074,1839291000000,,,-1311985616708825660,0.0,6.993154287761289,,,0,9,0.0,32995,14237933381706,33,35.18964385986328,-333.2464673500831,0.0835491481277959,4,-671620.9055202899,3.4028234663852886E38,1.59862502E9,,,,0,,3,,1.59862502E9
Raw,2065585074,1839291000000,,,-1311985616708825660,0.0,6.993154287761289,,,0,16,0.0,32995,14237932276237,80,27.379152297973633,422.2566538769895,0.20162918338067937,4,25108.280638114327,3.4028234663852886E38,1.60143744E9,,,,0,,3,,1.60143744E9
Raw,2065585074,1839291000000,,,-1311985616708825660,0.0,6.993154287761289,,,0,19,0.0,99,1933181038,56,30.540685653686523,1.395976813122597,0.1409488809667795,4,12.040531166645177,3.4028234663852886E38,1.60368755E9,,,,0,,3,,1.60368755E9
Raw,2065585075,1839291000000,,,-1311985616708825660,0.0,6.993154287761289,,,0,3,0.0,32995,14237922793603,33,44.61861801147461,-475.6250774127104,0.030502504686062443,1,-854359.5170311708,5.524407606571913E-4,1.60481254E9,,,,0,,3,,1.60481254E9
Raw,2065585075,1839291000000,,,-1311985616708825660,0.0,6.993154287761289,,,0,193,0.0,35,11473669,10,39.40650939941406,-180.24476457877404,0.051998591261832566,1,-5029.700771728867,9.728373843245208E-4,1.57542003E9,,,,0,,4,,1.57542003E9
Raw,2065585075,1839291000000,,,-1311985616708825660,0.0,6.993154287761289,,,0,194,0.0,35,15889307,10,39.04456329345703,-142.48743534630466,0.05491763800233118,1,-100962.31287118042,0.0010142326354980469,1.57542003E9,,,,0,,4,,1.57542003E9
Raw,2065585079,1839291000000,,,-1311985616708825660,0.0,6.993154287761289,,,0,195,0.0,35,7984748,9,39.970787048339844,-125.50428359081434,0.04823012915835506,1,-1377.498415375507,9.116463479585946E-4,1.57542003E9,,,,0,,4,,1.57542003E9
Raw,2065585080,1839291000000,,,-1311985616708825660,0.0,6.993154287761289,,,0,7,0.0,16431,176241879805409,10,33.451576232910156,-93.01642592010842,0.10267985730286222,4,-188108.79747429583,3.4028234663852886E38,1.56109798E9,,,,0,,5,,1.56109798E9
Raw,2065585080,1839291000000,,,-1311985616708825660,0.0,6.993154287761289,,,0,8,0.0,16431,176241878209987,9,34.14407730102539,-195.64816039197558,0.09479734896887954,4,-387130.8742309386,3.4028234663852886E38,1.56109798E9,,,,0,,5,,1.56109798E9
Raw,2065585080,1839291000000,,,-1311985616708825660,0.0,6.993154287761289,,,0,10,0.0,16431,176241880449164,8,34.99623489379883,-158.88056865570036,0.08664745644107263,4,-273414.5618583669,3.4028234663852886E38,1.56109798E9,,,,0,,5,,1.56109798E9
Raw,2065585080,1839291000000,,,-1311985616708825660,0.0,6.993154287761289,,,0,30,0.0,16431,176241924693576,11,32.605377197265625,-306.94479707423466,0.11010384176802424,4,-214913.42275938278,3.4028234663852886E38,1.56109798E9,,,,0,,5,,1.56109798E9
Raw,2065585081,1839291000000,,,-1311985616708825660,0.0,6.993154287761289,,,0,32,0.0,16431,176241913736807,6,38.5233268737793,-650.1329465797389,0.05775014725556485,1,-437258.1919556728,0.0010868400568142533,1.56109798E9,,,,0,,5,,1.56109798E9
Raw,2065585081,1839291000000,,,-1311985616708825660,0.0,6.993154287761289,,,0,33,0.0,16431,176241910779815,12,31.81829071044922,51.64549571419394,0.12156180448569076,4,11276.86394642384,3.4028234663852886E38,1.56109798E9,,,,0,,5,,1.56109798E9
Raw,2065585081,1839291000000,,,-1311985616708825660,0.0,6.993154287761289,,,0,36,0.0,16431,176241920964415,10,32.992183685302734,-296.4550690179267,0.10827167674438054,4,-257636.313152527,3.4028234663852886E38,1.56109798E9,,,,0,,5,,1.56109798E9
Fix,gps,34.486353,109.463876,357.025940,0.371045,2.000000,1627952238999
Raw,2065586169,1840291000000,,,-1311985616708826045,0.0,6.932442705988898,,,0,1,0.0,16431,176256924814086,8,41.388206481933594,508.8191065413407,0.04061420621062184,4,574015.1942801436,3.4028234663852886E38,1.57542003E9,,,,0,,1,,1.57542003E9
Raw,2065586169,1840291000000,,,-1311985616708826045,0.0,6.932442705988898,,,0,2,0.0,16,1840014976221,1000000000,7.0,-685.2422393526685,2.99792458E8,2,-10.222408456466807,3.4028234663852886E38,1.57542003E9,,,,0,,1,,1.57542003E9
Raw,2065586170,1840291000000,,,-1311985616708826045,0.0,6.932442705988898,,,0,3,0.0,16431,176256926114020,6,43.75404357910156,-145.70766512717762,0.031370723230468925,4,-6501.035165443302,3.4028234663852886E38,1.57542003E9,,,,0,,1,,1.57542003E9
Raw,2065586170,1840291000000,,,-1311985616708826045,0.0,6.932442705988898,,,0,6,0.0,16431,176256925066069,39,27.483144760131836,-625.5093260507911,0.19795884563475685,4,-557540.8745259293,3.4028234663852886E38,1.57542003E9,,,,0,,1,,1.57542003E9
Raw,2065586170,1840291000000,,,-1311985616708826045,0.0,6.932442705988898,,,0,14,0.0,16431,176256932500770,8,40.716285705566406,-42.08757349860548,0.04519374091349007,4,-255488.33012349808,3.4028234663852886E38,1.57542003E9,,,,0,,1,,1.57542003E9
Raw,2065586171,1840291000000,,,-1311985616708826045,0.0,6.932442705988898,,,0,17,0.0,16431,176256929636988,7,42.33201599121094,-181.33218239536257,0.03738904142983571,4,-128530.70139600664,3.4028234663852886E38,1.57542003E9,,,,0,,1,,1.57542003E9
Raw,2065586172,1840291000000,,,-1311985616708826045,0.0,6.932442705988898,,,0,19,0.0,16431,176256927995680,166,26.00734519958496,-430.26960981778484,0.23497813484797248,4,-551451.4073282874,3.4028234663852886E38,1.57542003E9,,,,1,,1,,1.57542003E9
Raw,2065586172,1840291000000,,,-1311985616708826045,0.0,6.932442705988898,,,0,21,0.0,5,915286949,16,35.143150329589844,470.7765071477754,0.08432735312385042,4,524765.7897899383,3.4028234663852886E38,1.57542003E9,,,,0,,1,,1.57542003E9
Raw,2065586172,1840291000000,,,-1311985616708826045,0.0,6.932442705988898,,,0,22,0.0,16431,176256922556055,6,43.77509307861328,179.51391742232715,0.03065745879396818,4,1255.1680889034587,3.4028234663852886E38,1.57542003E9,,,,0,,1,,1.57542003E9
Raw,2065586172,1840291000000,,,-1311985616708826045,0.0,6.932442705988898,,,0,24,0.0,16,1840016873224,1000000000,35.293094635009766,-363.6926325040183,2.99792458E8,2,-524293.8123494493,3.4028234663852886E38,1.57542003E9,,,,0,,1,,1.57542003E9
Raw,2065586173,1840291000000,,,-1311985616708826045,0.0,6.932442705988898,,,0,30,0.0,16431,176256920790718,40,27.347219467163086,491.80691653289296,0.20389520076836098,4,32936.88232918717,3.4028234663852886E38,1.57542003E9,,,,0,,1,,1.57542003E9
Raw,2065586173,1840291000000,,,-1311985616708826045,0.0,6.932442705988898,,,0,10,0.0,99,922439986,33,35.34211730957031,-834.2107264664378,0.08016903547978821,4,-541820.5984454894,3.4028234663852886E38,1.59806246E9,,,,0,,3,,1.59806246E9
Raw,2065586173,1840291000000,,,-1311985616708826045,0.0,6.932442705988898,,,0,18,0.0,16,1840007680546,1000000000,23.25902557373047,380.96517839784383,2.99792458E8,2,2.659077761776515,3.4028234663852886E38,1.60031245E9,,,,0,,3,,1.60031245E9
Raw,2065586174,1840291000000,,,-1311985616708826045,0.0,6.932442705988898,,,0,9,0.0,32995,14238933382689,33,35.64802932739258,-333.2158613041256,0.07937819101804566,4,-671954.1600082463,3.4028234663852886E38,1.59862502E9,,,,0,,3,,1.59862502E9
Raw,2065586174,1840291000000,,,-1311985616708826045,0.0,6.932442705988898,,,0,16,0.0,32995,14238932274849,87,26.63700294494629,422.11943790702867,0.21941718023170764,4,25530.291658081725,3.4028234663852886E38,1.60143744E9,,,,0,,3,,1.60143744E9
Raw,2065586174,1840291000000,,,-1311985616708826045,0.0,6.932442705988898,,,0,19,0.0,99,933181066,55,30.70966148376465,1.547868742115992,0.13827904138732333,4,13.542785627946891,3.4028234663852886E38,1.60368755E9,,,,0,,3,,1.60368755E9
Raw,2065586175,1840291000000,,,-1311985616708826045,0.0,6.932442705988898,,,0,3,0.0,32995,14238922795177,33,44.689273834228516,-475.56730764890426,0.0305027875970785,1,-854835.1295379895,5.479650571942329E-4,1.60481254E9,,,,0,,3,,1.60481254E9
Raw,2065586175,1840291000000,,,-1311985616708826045,0.0,6.932442705988898,,,0,193,0.0,35,11474266,10,38.808372497558594,-180.2925993065038,0.05555851882328214,1,-5209.921935658022,0.001042190589942038,1.57542003E9,,,,0,,4,,1.57542003E9
Raw,2065586175,1840291000000,,,-1311985616708826045,0.0,6.932442705988898,,,0,194,0.0,35,15889780,10,39.3681755065918,-142.47787521725002,0.05301379248022173,1,-101104.7449891465,9.77140269242227E-4,1.57542003E9,,,,0,,4,,1.57542003E9
Raw,2065586175,1840291000000,,,-1311985616708826045,0.0,6.932442705988898,,,0,195,0.0,35,7985166,10,39.14754867553711,-125.58441144609947,0.052882259660035125,1,-1503.09403066433,0.0010022781789302826,1.57542003E9,,,,0,,4,,1.57542003E9
Raw,2065586176,1840291000000,,,-1311985616708826045,0.0,6.932442705988898,,,0,7,0.0,16431,176242879805708,12,31.85820198059082,-93.05237439112585,0.12263692459309866,4,-188201.86976367296,3.4028234663852886E38,1.56109798E9,,,,0,,5,,1.56109798E9
Raw,2065586176,1840291000000,,,-1311985616708826045,0.0,6.932442705988898,,,0,8,0.0,16431,176242878210642,8,34.7657356262207,-195.58181889035393,0.08847605179336665,4,-387326.4858063798,3.4028234663852886E38,1.56109798E9,,,,0,,5,,1.56109798E9
Raw,2065586176,1840291000000,,,-1311985616708826045,0.0,6.932442705988898,,,0,10,0.0,16431,176242880449689,9,33.789695739746094,-159.09268082387007,0.0990114749713154,4,-273573.5344837125,3.4028234663852886E38,1.56109798E9,,,,0,,5,,1.56109798E9
Raw,2065586177,1840291000000,,,-1311985616708826045,0.0,6.932442705988898,,,0,30,0.0,16431,176242924694591,11,31.995813369750977,-307.12540001134903,0.1180471759704595,4,-215220.42957838296,3.4028234663852886E38,1.56109798E9,,,,0,,5,,1.56109798E9
Raw,2065586177,1840291000000,,,-1311985616708826045,0.0,6.932442705988898,,,0,32,0.0,16431,176242913738979,6,36.60246658325195,-650.1960672892192,0.07143255192292075,1,-437908.2944722038,0.0013558404752984643,1.56109798E9,,,,0,,5,,1.56109798E9
Raw,2065586177,1840291000000,,,-1311985616708826045,0.0,6.932442705988898,,,0,33,0.0,16431,176242910779661,13,30.943910598754883,51.70406641572839,0.13423077612850787,4,11328.468992726946,3.4028234663852886E38,1.56109798E9,,,,0,,5,,1.56109798E9
Raw,2065586178,1840291000000,,,-1311985616708826045,0.0,6.932442705988898,,,0,36,0.0,16431,176242920965410,12,31.69450569152832,-296.2201727275715,0.12511092318214445,4,-257932.70614544413,3.4028234663852886E38,1.56109798E9,,,,0,,5,,1.56109798E9
Fix,gps,34.486354,109.463878,357.049683,0.350574,2.000000,1627952239999
Raw,2065587115,1841291000000,,,-1311985616708826430,0.0,6.969353979827017,,,0,1,0.0,16431,176257924812383,6,43.088531494140625,508.81917470625376,0.0335471243933579,4,574524.0057595177,3.4028234663852886E38,1.57542003E9,,,,0,,1,,1.57542003E9
Raw,2065587115,1841291000000,,,-1311985616708826430,0.0,6.969353979827017,,,0,2,0.0,16,1841014978506,1000000000,14.124128341674805,-685.2422393526685,2.99792458E8,2,-10.259919270220067,3.4028234663852886E38,1.57542003E9,,,,0,,1,,1.57542003E9
Raw,2065587115,1841291000000,,,-1311985616708826430,0.0,6.969353979827017,,,0,3,0.0,16431,176257926114517,6,43.17941665649414,-145.62871311664253,0.033441155495791464,1,-6646.681783162442,6.641614600084722E-4,1.57542003E9,,,,0,,1,,1.57542003E9
Raw,2065587116,1841291000000,,,-1311985616708826430,0.0,6.969353979827017,,,0,6,0.0,16,1841005068211,1000000000,27.74772834777832,-625.4622240958765,2.99792458E8,2,-524291.1236809075,3.4028234663852886E38,1.57542003E9,,,,0,,1,,1.57542003E9
Raw,2065587116,1841291000000,,,-1311985616708826430,0.0,6.969353979827017,,,0,14,0.0,16431,176257932500891,13,36.84730911254883,-41.988546921178454,0.06929307480808353,4,-255530.36731091063,3.4028234663852886E38,1.57542003E9,,,,0,,1,,1.57542003E9
Raw,2065587116,1841291000000,,,-1311985616708826430,0.0,6.969353979827017,,,0,17,0.0,16431,176257929637591,8,40.529605865478516,-181.28743212994812,0.04561169201424306,4,-128712.00171801614,3.4028234663852886E38,1.57542003E9,,,,0,,1,,1.57542003E9
Raw,2065587117,1841291000000,,,-1311985616708826430,0.0,6.969353979827017,,,0,19,0.0,16431,176257927997124,166,26.925342559814453,-430.0736356927787,0.2115554991410542,4,-551881.5509308138,3.4028234663852886E38,1.57542003E9,,,,1,,1,,1.57542003E9
Raw,2065587117,1841291000000,,,-1311985616708826430,0.0,6.969353979827017,,,0,21,0.0,39,1915285370,13,36.83979797363281,470.74532170005705,0.06985194471802647,4,525236.5510273832,3.4028234663852886E38,1.57542003E9,,,,0,,1,,1.57542003E9
Raw,2065587117,1841291000000,,,-1311985616708826430,0.0,6.969353979827017,,,0,22,0.0,16431,176257922555443,6,45.01491165161133,179.6249410244502,0.030459662389182116,1,1434.7478620629704,5.376490880735219E-4,1.57542003E9,,,,0,,1,,1.57542003E9
Raw,2065587118,1841291000000,,,-1311985616708826430,0.0,6.969353979827017,,,0,24,0.0,17,874344,18,34.04083251953125,-363.4936932052947,0.09565144068453563,4,-524584.7450905449,3.4028234663852886E38,1.57542003E9,,,,0,,1,,1.57542003E9
Raw,2065587118,1841291000000,,,-1311985616708826430,0.0,6.969353979827017,,,0,30,0.0,16431,176257920789112,31,29.621936798095703,491.8428735245245,0.15777874141554005,4,33428.70176531172,3.4028234663852886E38,1.57542003E9,,,,0,,1,,1.57542003E9
Raw,2065587119,1841291000000,,,-1311985616708826430,0.0,6.969353979827017,,,0,10,0.0,99,1922442764,33,37.25392150878906,-834.2833902637444,0.06441764430561095,4,-542654.8857732172,3.4028234663852886E38,1.59806246E9,,,,0,,3,,1.59806246E9
Raw,2065587119,1841291000000,,,-1311985616708826430,0.0,6.969353979827017,,,0,18,0.0,16,1841007679275,1000000000,22.0301513671875,381.05648529886844,2.99792458E8,2,2.677611845114032,3.4028234663852886E38,1.60031245E9,,,,0,,3,,1.60031245E9
Raw,2065587119,1841291000000,,,-1311985616708826430,0.0,6.969353979827017,,,0,9,0.0,32995,14239933383817,33,37.24479675292969,-333.07414644990376,0.06645290615513569,4,-672287.3253714889,3.4028234663852886E38,1.59862502E9,,,,0,,3,,1.59862502E9
Raw,2065587120,1841291000000,,,-1311985616708826430,0.0,6.969353979827017,,,0,16,0.0,32995,14239932273409,57,30.3554630279541,422.08027716448396,0.14377248268346343,4,25952.329359424726,3.4028234663852886E38,1.60143744E9,,,,0,,3,,1.60143744E9
Raw,2065587120,1841291000000,,,-1311985616708826430,0.0,6.969353979827017,,,0,19,0.0,99,1933181043,54,30.73642349243164,1.4885929597622267,0.13786094051015008,4,15.052320417197624,3.4028234663852886E38,1.60368755E9,,,,0,,3,,1.60368755E9
Raw,2065587120,1841291000000,,,-1311985616708826430,0.0,6.969353979827017,,,0,3,0.0,32995,14239922796788,33,43.954734802246094,-475.4758985005101,0.030503076748778737,1,-855310.6314382692,5.963205476291478E-4,1.60481254E9,,,,0,,3,,1.60481254E9
Raw,2065587121,1841291000000,,,-1311985616708826430,0.0,6.969353979827017,,,0,193,0.0,35,11474880,11,37.9992561340332,-180.32772127795056,0.060781280844352165,1,-5390.211348839521,0.0011439392110332847,1.57542003E9,,,,0,,4,,1.57542003E9
Raw,2065587121,1841291000000,,,-1311985616708826430,0.0,6.969353979827017,,,0,194,0.0,35,15890261,9,39.87507629394531,-142.52844506211574,0.050170628298868564,1,-101247.25647785727,9.21747472602874E-4,1.57542003E9,,,,0,,4,,1.57542003E9
Raw,2065587121,1841291000000,,,-1311985616708826430,0.0,6.969353979827017,,,0,195,0.0,35,7985563,16,35.32853317260742,-125.60325052394245,0.08129133515957998,1,-1628.6826658739756,0.0015557472361251712,1.57542003E9,,,,0,,4,,1.57542003E9
Raw,2065587121,1841291000000,,,-1311985616708826430,0.0,6.969353979827017,,,0,7,0.0,16431,176243879806004,9,34.03046417236328,-93.06270137545226,0.0962893800630108,1,-188294.9468403701,0.0018230925779789686,1.56109798E9,,,,0,,5,,1.56109798E9
Raw,2065587122,1841291000000,,,-1311985616708826430,0.0,6.969353979827017,,,0,8,0.0,16431,176243878211281,8,34.88167953491211,-195.67079114310673,0.08734641306898183,4,-387522.15784510033,3.4028234663852886E38,1.56109798E9,,,,0,,5,,1.56109798E9
Raw,2065587122,1841291000000,,,-1311985616708826430,0.0,6.969353979827017,,,0,10,0.0,16431,176243880450220,13,30.888824462890625,-158.98273081912748,0.13681193142534193,4,-273732.49511616916,3.4028234663852886E38,1.56109798E9,,,,0,,5,,1.56109798E9
Raw,2065587122,1841291000000,,,-1311985616708826430,0.0,6.969353979827017,,,0,30,0.0,16431,176243924695602,13,31.077476501464844,-307.00007881871466,0.13111765659144925,4,-215527.4635818736,3.4028234663852886E38,1.56109798E9,,,,0,,5,,1.56109798E9
Raw,2065587123,1841291000000,,,-1311985616708826430,0.0,6.969353979827017,,,0,32,0.0,16431,176243913741162,8,34.997840881347656,-650.1800485346535,0.08542551383724262,1,-438558.47262658493,0.0016309473430737853,1.56109798E9,,,,0,,5,,1.56109798E9
Raw,2065587123,1841291000000,,,-1311985616708826430,0.0,6.969353979827017,,,0,33,0.0,16431,176243910779492,13,30.836788177490234,51.79513473955734,0.1358724089037484,4,11380.189997264897,3.4028234663852886E38,1.56109798E9,,,,0,,5,,1.56109798E9
Raw,2065587123,1841291000000,,,-1311985616708826430,0.0,6.969353979827017,,,0,36,0.0,16431,176243920966437,166,30.050630569458008,-296.3066740022264,0.15039260045923197,4,-258229.09853416908,3.4028234663852886E38,1.56109798E9,,,,1,,5,,1.56109798E9
Fix,gps,34.486354,109.463880,357.029388,0.242907,2.000000,1627952240999
Raw,2065588159,1842291000000,,,-1311985616708826816,0.0,7.003383163380316,,,0,1,0.0,16431,176258924810700,7,42.21133804321289,508.7684600109478,0.037019759344757014,1,575032.8170506136,7.424678187817335E-4,1.57542003E9,,,,0,,1,,1.57542003E9
Raw,2065588159,1842291000000,,,-1311985616708826816,0.0,7.003383163380316,,,0,2,0.0,16,1842014980730,1000000000,9.6842041015625,-685.0565581295323,2.99792458E8,2,-10.23035312792035,3.4028234663852886E38,1.57542003E9,,,,0,,1,,1.57542003E9
Raw,2065588159,1842291000000,,,-1311985616708826816,0.0,7.003383163380316,,,0,3,0.0,16431,176258926114994,6,44.06779479980469,-145.5269940251502,0.03109993786376783,1,-6792.230071598907,5.995905958116055E-4,1.57542003E9,,,,0,,1,,1.57542003E9
Raw,2065588160,1842291000000,,,-1311985616708826816,0.0,7.003383163380316,,,0,6,0.0,16,1842005070358,1000000000,29.902751922607422,-625.2765428727403,2.99792458E8,2,-524291.1178638922,3.4028234663852886E38,1.57542003E9,,,,0,,1,,1.57542003E9
Raw,2065588160,1842291000000,,,-1311985616708826816,0.0,7.003383163380316,,,0,14,0.0,16431,176258932501031,10,39.4468994140625,-41.93220862054625,0.05195170708183311,1,-255572.32407537053,9.683240787126124E-4,1.57542003E9,,,,0,,1,,1.57542003E9
Raw,2065588160,1842291000000,,,-1311985616708826816,0.0,7.003383163380316,,,0,17,0.0,16431,176258929638195,7,42.11137390136719,-181.30997767493795,0.03830658842221127,1,-128893.30438672578,7.510621217079461E-4,1.57542003E9,,,,0,,1,,1.57542003E9
Raw,2065588161,1842291000000,,,-1311985616708826816,0.0,7.003383163380316,,,0,19,0.0,16431,176258927998333,166,25.02943992614746,-430.05431093993025,0.26280909000711405,4,-552311.6698085343,3.4028234663852886E38,1.57542003E9,,,,1,,1,,1.57542003E9
Raw,2065588161,1842291000000,,,-1311985616708826816,0.0,7.003383163380316,,,0,21,0.0,39,2915283800,13,36.58060073852539,470.6804287028376,0.07188424432279483,4,525707.2642363437,3.4028234663852886E38,1.57542003E9,,,,0,,1,,1.57542003E9
Raw,2065588161,1842291000000,,,-1311985616708826816,0.0,7.003383163380316,,,0,22,0.0,16431,176258922554856,6,44.077308654785156,179.6433625922008,0.030459556297551094,1,1614.3996584366987,5.989339551888406E-4,1.57542003E9,,,,0,,1,,1.57542003E9
Raw,2065588161,1842291000000,,,-1311985616708826816,0.0,7.003383163380316,,,0,24,0.0,17,875556,19,33.63483810424805,-363.56011991305763,0.10008345809480995,4,-524293.8165299648,3.4028234663852886E38,1.57542003E9,,,,0,,1,,1.57542003E9
Raw,2065588162,1842291000000,,,-1311985616708826816,0.0,7.003383163380316,,,0,30,0.0,16431,176258920787476,37,27.961593627929688,491.86714023356876,0.19022623853472398,4,33920.5253030676,3.4028234663852886E38,1.57542003E9,,,,0,,1,,1.57542003E9
Raw,2065588162,1842291000000,,,-1311985616708826816,0.0,7.003383163380316,,,0,10,0.0,99,922445530,33,36.32186508178711,-834.2003653996549,0.07166533776366346,4,-543489.1312449346,3.4028234663852886E38,1.59806246E9,,,,0,,3,,1.59806246E9
Raw,2065588162,1842291000000,,,-1311985616708826816,0.0,7.003383163380316,,,0,18,0.0,16,1842007678127,1000000000,19.63941192626953,380.96517839784383,2.99792458E8,2,2.671006221400558,3.4028234663852886E38,1.60031245E9,,,,0,,3,,1.60031245E9
Raw,2065588163,1842291000000,,,-1311985616708826816,0.0,7.003383163380316,,,0,9,0.0,32995,14240933385010,33,36.30305099487305,-332.94275858000833,0.07378752818332829,4,-672620.3481593416,3.4028234663852886E38,1.59862502E9,,,,0,,3,,1.59862502E9
Raw,2065588163,1842291000000,,,-1311985616708826816,0.0,7.003383163380316,,,0,16,0.0,32995,14240932272046,64,29.294113159179688,422.2034170799009,0.16217163389647593,4,26374.470426941025,3.4028234663852886E38,1.60143744E9,,,,0,,3,,1.60143744E9
Raw,2065588163,1842291000000,,,-1311985616708826816,0.0,7.003383163380316,,,0,19,0.0,99,933181083,53,30.941335678100586,1.6127272574751128,0.1347019477839288,4,16.615252397289566,3.4028234663852886E38,1.60368755E9,,,,0,,3,,1.60368755E9
Raw,2065588164,1842291000000,,,-1311985616708826816,0.0,7.003383163380316,,,0,3,0.0,32995,14240922798353,33,43.5272216796875,-475.4157429647473,0.031575220049833846,1,-855786.0428764113,6.264052935875952E-4,1.60481254E9,,,,0,,3,,1.60481254E9
Raw,2065588164,1842291000000,,,-1311985616708826816,0.0,7.003383163380316,,,0,193,0.0,35,11475483,11,37.95133972167969,-180.34708011325552,0.061106199985839216,1,-5570.519844731894,0.0011502670822665095,1.57542003E9,,,,0,,4,,1.57542003E9
Raw,2065588165,1842291000000,,,-1311985616708826816,0.0,7.003383163380316,,,0,194,0.0,35,15890737,10,38.99774169921875,-142.51027911278908,0.055199271758361285,1,-101389.75228685862,0.001019714749418199,1.57542003E9,,,,0,,4,,1.57542003E9
Raw,2065588165,1842291000000,,,-1311985616708826816,0.0,7.003383163380316,,,0,195,0.0,35,7985997,11,38.187782287597656,-125.68419635818412,0.058893003749038164,1,-1754.331727519397,0.0011193775571882725,1.57542003E9,,,,0,,4,,1.57542003E9
Raw,2065588165,1842291000000,,,-1311985616708826816,0.0,7.003383163380316,,,0,7,0.0,16431,176244879806311,11,31.963138580322266,-93.08252884453441,0.12120710895976355,1,-188388.04034265134,0.0023129964247345924,1.56109798E9,,,,0,,5,,1.56109798E9
Raw,2065588165,1842291000000,,,-1311985616708826816,0.0,7.003383163380316,,,0,8,0.0,16431,176244878211961,8,34.890960693359375,-195.65182425605178,0.08725674691871577,4,-387717.82355029316,3.4028234663852886E38,1.56109798E9,,,,0,,5,,1.56109798E9
Raw,2065588166,1842291000000,,,-1311985616708826816,0.0,7.003383163380316,,,0,10,0.0,16431,176244880450751,12,31.73642349243164,-158.99465967891047,0.12443418338990808,1,-273891.47589357645,0.0022383832838386297,1.56109798E9,,,,0,,5,,1.56109798E9
Raw,2065588166,1842291000000,,,-1311985616708826816,0.0,7.003383163380316,,,0,30,0.0,16431,176244924696639,11,32.43352508544922,-307.01156460656284,0.1122876152591552,1,-215834.50266080617,0.002065757755190134,1.56109798E9,,,,0,,5,,1.56109798E9
Raw,2065588166,1842291000000,,,-1311985616708826816,0.0,7.003383163380316,,,0,32,0.0,16431,176244913743315,8,35.166900634765625,-650.2259916860462,0.08382692514100415,1,-439208.6763206465,0.0015995098510757089,1.56109798E9,,,,0,,5,,1.56109798E9
Raw,2065588167,1842291000000,,,-1311985616708826816,0.0,7.003383163380316,,,0,33,0.0,16431,176244910779329,13,30.74317169189453,51.85552033190163,0.137323692490655,1,11431.980953067205,0.0025095567107200623,1.56109798E9,,,,0,,5,,1.56109798E9
Raw,2065588167,1842291000000,,,-1311985616708826816,0.0,7.003383163380316,,,0,36,0.0,16431,176244920967364,166,31.444116592407227,-296.2511195980942,0.12506254539839845,4,-258525.4086118944,3.4028234663852886E38,1.56109798E9,,,,1,,5,,1.56109798E9
Fix,gps,34.486354,109.463882,357.050720,0.169432,2.000000,1627952241999
Raw,2065589145,1843291000000,,,-1311985616708827203,0.0,7.476745020135019,,,0,1,0.0,16431,176259924808979,6,42.913692474365234,508.84126013808054,0.03421101461687226,1,575541.6047772157,6.84793689288199E-4,1.57542003E9,,,,0,,1,,1.57542003E9
Raw,2065589146,1843291000000,,,-1311985616708827203,0.0,7.476745020135019,,,0,2,0.0,16,1843014983078,1000000000,7.0,-685.4278524108918,2.99792458E8,2,-10.230538396157899,3.4028234663852886E38,1.57542003E9,,,,0,,1,,1.57542003E9
Raw,2065589146,1843291000000,,,-1311985616708827203,0.0,7.476745020135019,,,0,3,0.0,16431,176259926115493,6,43.90751647949219,-145.39504379472214,0.031100027313574377,1,-6937.719150288517,6.10757153481245E-4,1.57542003E9,,,,0,,1,,1.57542003E9
Raw,2065589146,1843291000000,,,-1311985616708827203,0.0,7.476745020135019,,,0,6,0.0,16,1843005072444,1000000000,26.990385055541992,-625.4622240958765,2.99792458E8,2,-524291.1138985072,3.4028234663852886E38,1.57542003E9,,,,0,,1,,1.57542003E9
Raw,2065589147,1843291000000,,,-1311985616708827203,0.0,7.476745020135019,,,0,14,0.0,16431,176259932501183,10,38.886322021484375,-41.8089621974527,0.05526531067833035,1,-255614.22899347165,0.0010328793432563543,1.57542003E9,,,,0,,1,,1.57542003E9
Raw,2065589147,1843291000000,,,-1311985616708827203,0.0,7.476745020135019,,,0,17,0.0,16431,176259929638786,7,41.725826263427734,-181.29155610718738,0.039966656178512916,1,-129074.62438060719,7.8515091445297E-4,1.57542003E9,,,,0,,1,,1.57542003E9
Raw,2065589147,1843291000000,,,-1311985616708827203,0.0,7.476745020135019,,,0,19,0.0,16431,176259927999768,166,26.36686134338379,-430.0716929927569,0.22550975217164948,4,-552741.8304675794,3.4028234663852886E38,1.57542003E9,,,,1,,1,,1.57542003E9
Raw,2065589148,1843291000000,,,-1311985616708827203,0.0,7.476745020135019,,,0,21,0.0,39,3915282259,14,36.091896057128906,470.65749120959777,0.07588529672557748,1,526177.902778105,0.0014248559018597007,1.57542003E9,,,,0,,1,,1.57542003E9
Raw,2065589148,1843291000000,,,-1311985616708827203,0.0,7.476745020135019,,,0,22,0.0,16431,176259922554240,6,44.35894012451172,179.77628417263975,0.030459446045463953,1,1794.0976427176988,5.798257188871503E-4,1.57542003E9,,,,0,,1,,1.57542003E9
Raw,2065589148,1843291000000,,,-1311985616708827203,0.0,7.476745020135019,,,0,24,0.0,51,16876757,22,32.527225494384766,-363.4910006912294,0.11328277972087764,4,-524657.3776056577,3.4028234663852886E38,1.57542003E9,,,,0,,1,,1.57542003E9
Raw,2065589148,1843291000000,,,-1311985616708827203,0.0,7.476745020135019,,,0,30,0.0,16431,176259920785812,36,28.236480712890625,491.7910341081533,0.18441647775989378,4,34412.288602049775,3.4028234663852886E38,1.57542003E9,,,,0,,1,,1.57542003E9
Raw,2065589149,1843291000000,,,-1311985616708827203,0.0,7.476745020135019,,,0,10,0.0,99,1922448349,33,36.438995361328125,-834.151286662262,0.07071179450495058,1,-544323.3370078009,0.001349642057903111,1.59806246E9,,,,0,,3,,1.59806246E9
Raw,2065589149,1843291000000,,,-1311985616708827203,0.0,7.476745020135019,,,0,18,0.0,16,1843007676735,1000000000,12.281597137451172,380.69132585968305,2.99792458E8,2,2.663126170709946,3.4028234663852886E38,1.60031245E9,,,,0,,3,,1.60031245E9
Raw,2065589149,1843291000000,,,-1311985616708827203,0.0,7.476745020135019,,,0,9,0.0,32995,14241933386052,33,36.16560363769531,-332.85077002985327,0.07492622006022698,1,-672953.2498688889,0.0013903508661314845,1.59862502E9,,,,0,,3,,1.59862502E9
Raw,2065589150,1843291000000,,,-1311985616708827203,0.0,7.476745020135019,,,0,16,0.0,32995,14241932270751,63,29.410465240478516,422.255188331359,0.16004289491888057,4,26796.6829782969,3.4028234663852886E38,1.60143744E9,,,,0,,3,,1.60143744E9
Raw,2065589150,1843291000000,,,-1311985616708827203,0.0,7.476745020135019,,,0,19,0.0,99,1933181015,53,31.032224655151367,1.6597964612790719,0.13332445404674004,4,18.201603447858385,3.4028234663852886E38,1.60368755E9,,,,0,,3,,1.60368755E9
Raw,2065589150,1843291000000,,,-1311985616708827203,0.0,7.476745020135019,,,0,3,0.0,32995,14241922799937,33,43.80718231201172,-475.2833326211562,0.030589982436410174,1,-856261.41413105,6.065371562726796E-4,1.60481254E9,,,,0,,3,,1.60481254E9
Raw,2065589151,1843291000000,,,-1311985616708827203,0.0,7.476745020135019,,,0,193,0.0,35,11476094,12,37.887691497802734,-180.3288971227006,0.06154054328369912,1,-5750.895333508736,0.0011587269837036729,1.57542003E9,,,,0,,4,,1.57542003E9
Raw,2065589151,1843291000000,,,-1311985616708827203,0.0,7.476745020135019,,,0,194,0.0,35,15891226,9,39.67835235595703,-142.51689962996863,0.05125459769644053,1,-101532.30184080219,9.428620687685907E-4,1.57542003E9,,,,0,,4,,1.57542003E9
Raw,2065589151,1843291000000,,,-1311985616708827203,0.0,7.476745020135019,,,0,195,0.0,35,7986417,13,36.992557525634766,-125.69037380342888,0.0673692050106757,1,-1880.0592432062695,0.0012845111778005958,1.57542003E9,,,,0,,4,,1.57542003E9
Raw,2065589151,1843291000000,,,-1311985616708827203,0.0,7.476745020135019,,,0,7,0.0,16431,176245879806634,11,32.63166809082031,-93.02573043073915,0.11249208503555536,1,-188481.16305672738,0.0021416498348116875,1.56109798E9,,,,0,,5,,1.56109798E9
Raw,2065589152,1843291000000,,,-1311985616708827203,0.0,7.476745020135019,,,0,8,0.0,16431,176245878212597,8,34.955116271972656,-195.67459133700902,0.08663887758055627,1,-387913.4926434151,0.0016389895463362336,1.56109798E9,,,,0,,5,,1.56109798E9
Raw,2065589152,1843291000000,,,-1311985616708827203,0.0,7.476745020135019,,,0,10,0.0,16431,176245880451281,13,30.63277816772461,-159.03136648458553,0.14079511050863946,1,-274050.5018080647,0.002541655907407403,1.56109798E9,,,,0,,5,,1.56109798E9
Raw,2065589153,1843291000000,,,-1311985616708827203,0.0,7.476745020135019,,,0,30,0.0,16431,176245924697659,11,32.005374908447266,-307.04459050693345,0.1179187926155546,1,-216141.5336289525,0.002170135732740164,1.56109798E9,,,,0,,5,,1.56109798E9
Raw,2065589153,1843291000000,,,-1311985616708827203,0.0,7.476745020135019,,,0,32,0.0,16431,176245913745498,7,35.500701904296875,-650.286999283222,0.08076014476419346,1,-439858.94699298305,0.0015392060158774257,1.56109798E9,,,,0,,5,,1.56109798E9
Raw,2065589153,1843291000000,,,-1311985616708827203,0.0,7.476745020135019,,,0,33,0.0,16431,176245910779162,14,30.319934844970703,51.923250693626585,0.14408393442849488,1,11483.797452679297,0.0026348684914410114,1.56109798E9,,,,0,,5,,1.56109798E9
Raw,2065589154,1843291000000,,,-1311985616708827203,0.0,7.476745020135019,,,0,36,0.0,16431,176245920968402,12,31.505409240722656,-296.15722243037385,0.12418455602279765,4,-258821.64315654873,3.4028234663852886E38,1.56109798E9,,,,0,,5,,1.56109798E9
Fix,gps,34.486354,109.463882,357.058075,0.000000,2.000000,1627952242999
Raw,2065590154,1844291000000,,,-1311985616708827590,0.0,7.691662747163245,,,0,1,0.0,16431,176260924807298,7,42.32756042480469,508.8331485134281,0.03653859011328331,1,576050.4310982139,7.325991173274815E-4,1.57542003E9,,,,0,,1,,1.57542003E9
Raw,2065590154,1844291000000,,,-1311985616708827590,0.0,7.691662747163245,,,0,2,0.0,16,1844014985364,1000000000,7.0,-685.4278524108918,2.99792458E8,2,-10.26805937359249,3.4028234663852886E38,1.57542003E9,,,,0,,1,,1.57542003E9
Raw,2065590155,1844291000000,,,-1311985616708827590,0.0,7.691662747163245,,,0,3,0.0,16431,176260926115973,6,44.35026168823242,-145.28292955399036,0.031100114683152866,1,-7083.072441845682,5.804053507745266E-4,1.57542003E9,,,,0,,1,,1.57542003E9
Raw,2065590155,1844291000000,,,-1311985616708827590,0.0,7.691662747163245,,,0,6,0.0,16,1844005074531,1000000000,28.99524688720703,-625.4622240958765,2.99792458E8,2,-524291.1090073071,3.4028234663852886E38,1.57542003E9,,,,0,,1,,1.57542003E9
Raw,2065590155,1844291000000,,,-1311985616708827590,0.0,7.691662747163245,,,0,14,0.0,16431,176260932501299,9,39.60446548461914,-41.7983753343953,0.05105826161175206,1,-255656.0282154834,9.509166702628136E-4,1.57542003E9,,,,0,,1,,1.57542003E9
Raw,2065590155,1844291000000,,,-1311985616708827590,0.0,7.691662747163245,,,0,17,0.0,16431,176260929639401,7,41.99008560180664,-181.3281095418081,0.03882109122810645,1,-129255.93471520074,7.616232614964247E-4,1.57542003E9,,,,0,,1,,1.57542003E9
Raw,2065590156,1844291000000,,,-1311985616708827590,0.0,7.691662747163245,,,0,19,0.0,16431,176260928001232,166,26.851089477539062,-430.1721339921296,0.21336020515431575,4,-553171.9620520917,3.4028234663852886E38,1.57542003E9,,,,1,,1,,1.57542003E9
Raw,2065590156,1844291000000,,,-1311985616708827590,0.0,7.691662747163245,,,0,21,0.0,39,4915280674,15,35.66705322265625,470.62412448466193,0.07955119942527766,1,526648.531510417,0.001496280892752111,1.57542003E9,,,,0,,1,,1.57542003E9
Raw,2065590156,1844291000000,,,-1311985616708827590,0.0,7.691662747163245,,,0,22,0.0,16431,176260922553650,6,44.106197357177734,179.84441500322885,0.03045933995383293,1,1973.9107161950221,5.969454068690538E-4,1.57542003E9,,,,0,,1,,1.57542003E9
Raw,2065590157,1844291000000,,,-1311985616708827590,0.0,7.691662747163245,,,0,24,0.0,51,16877960,24,31.840917587280273,-363.4362301835972,0.12234747334002188,4,-525020.859177583,3.4028234663852886E38,1.57542003E9,,,,0,,1,,1.57542003E9
Raw,2065590157,1844291000000,,,-1311985616708827590,0.0,7.691662747163245,,,0,30,0.0,16431,176260920784145,41,27.187908172607422,491.7405239075865,0.20759900522330077,4,34904.06887094943,3.4028234663852886E38,1.57542003E9,,,,0,,1,,1.57542003E9
Raw,2065590157,1844291000000,,,-1311985616708827590,0.0,7.691662747163245,,,0,10,0.0,99,922451104,33,36.012638092041016,-834.1960028452199,0.07424771623459636,1,-545157.5096466067,0.0014175436226651073,1.59806246E9,,,,0,,3,,1.59806246E9
Raw,2065590157,1844291000000,,,-1311985616708827590,0.0,7.691662747163245,,,0,18,0.0,16,1844007675465,1000000000,15.02271842956543,380.69132585968305,2.99792458E8,2,2.6571662283801314,3.4028234663852886E38,1.60031245E9,,,,0,,3,,1.60031245E9
Raw,2065590158,1844291000000,,,-1311985616708827590,0.0,7.691662747163245,,,0,9,0.0,32995,14242933387239,33,35.79838180541992,-332.7242900336971,0.0780581115752923,1,-673286.0138658602,0.0014503924176096916,1.59862502E9,,,,0,,3,,1.59862502E9
Raw,2065590158,1844291000000,,,-1311985616708827590,0.0,7.691662747163245,,,0,16,0.0,32995,14242932269280,69,28.63932991027832,422.36592223260163,0.174696137861034,1,27219.01238438593,0.0031168023124337196,1.60143744E9,,,,0,,3,,1.60143744E9
Raw,2065590158,1844291000000,,,-1311985616708827590,0.0,7.691662747163245,,,0,19,0.0,99,933181006,52,31.16954803466797,1.5955961633615479,0.1312703536519107,1,19.822997229610245,0.002325887093320489,1.60368755E9,,,,0,,3,,1.60368755E9
Raw,2065590159,1844291000000,,,-1311985616708827590,0.0,7.691662747163245,,,0,3,0.0,32995,14242922801538,33,43.498435974121094,-475.18899238150107,0.03167894438132435,1,-856736.6637370373,6.284847622737288E-4,1.60481254E9,,,,0,,3,,1.60481254E9
Raw,2065590159,1844291000000,,,-1311985616708827590,0.0,7.691662747163245,,,0,193,0.0,35,11476697,12,37.83245086669922,-180.36435991871258,0.061920118337215,1,-5931.258542482414,0.0011661198223009706,1.57542003E9,,,,0,,4,,1.57542003E9
Raw,2065590160,1844291000000,,,-1311985616708827590,0.0,7.691662747163245,,,0,194,0.0,35,15891687,9,39.85167694091797,-142.5322111735615,0.05029849991767088,1,-101674.81700823765,9.242338710464537E-4,1.57542003E9,,,,0,,4,,1.57542003E9
Raw,2065590160,1844291000000,,,-1311985616708827590,0.0,7.691662747163245,,,0,195,0.0,35,7986837,12,37.60208511352539,-125.77600597544244,0.06290109980402944,1,-2005.7935881362187,0.001197461155243218,1.57542003E9,,,,0,,4,,1.57542003E9
Raw,2065590160,1844291000000,,,-1311985616708827590,0.0,7.691662747163245,,,0,7,0.0,16431,176246879806947,11,31.951744079589844,-93.11855400107902,0.12136166158365386,1,-188574.27954051585,0.002316032536327839,1.56109798E9,,,,0,,5,,1.56109798E9
Raw,2065590161,1844291000000,,,-1311985616708827590,0.0,7.691662747163245,,,0,8,0.0,16431,176246878213248,8,35.12001037597656,-195.63904333485573,0.0850713092451374,1,-388109.14004341763,0.0016081677749752998,1.56109798E9,,,,0,,5,,1.56109798E9
Raw,2065590161,1844291000000,,,-1311985616708827590,0.0,7.691662747163245,,,0,10,0.0,16431,176246880451806,12,31.268787384033203,-158.9847928077471,0.1311138705763814,1,-274209.4998606313,0.0023621979635208845,1.56109798E9,,,,0,,5,,1.56109798E9
Raw,2065590161,1844291000000,,,-1311985616708827590,0.0,7.691662747163245,,,0,30,0.0,16431,176246924698675,11,32.241695404052734,-306.99632974849715,0.1147766330947888,1,-216448.55037300749,0.002111888024955988,1.56109798E9,,,,0,,5,,1.56109798E9
Raw,2065590162,1844291000000,,,-1311985616708827590,0.0,7.691662747163245,,,0,32,0.0,16431,176246913747663,7,35.98613357543945,-650.3101071887445,0.07650524629179623,1,-440509.2040692981,0.0014555436791852117,1.56109798E9,,,,0,,5,,1.56109798E9
Raw,2065590162,1844291000000,,,-1311985616708827590,0.0,7.691662747163245,,,0,33,0.0,16431,176246910778989,14,30.256488800048828,52.02121645459434,0.14512599555158512,1,11535.725787288025,0.0026541852857917547,1.56109798E9,,,,0,,5,,1.56109798E9
Raw,2065590162,1844291000000,,,-1311985616708827590,0.0,7.691662747163245,,,0,36,0.0,16431,176246920969352,11,31.989513397216797,-296.10476952978524,0.11746213263107502,4,-259117.80835768688,3.4028234663852886E38,1.56109798E9,,,,0,,5,,1.56109798E9
Fix,gps,34.486354,109.463882,357.064545,0.000000,2.000000,1627952243999
Raw,2065591179,1845291000000,,,-1311985616708827977,0.0,7.843312866432485,,,0,1,0.0,16431,176261924805606,6,42.749813079833984,508.86218676638555,0.03484553618064608,1,576559.2559985794,6.978365709073842E-4,1.57542003E9,,,,0,,1,,1.57542003E9
Raw,2065591179,1845291000000,,,-1311985616708827977,0.0,7.843312866432485,,,0,2,0.0,16,1845014987650,1000000000,16.04959487915039,-685.4278524108918,2.99792458E8,2,-10.262699233915818,3.4028234663852886E38,1.57542003E9,,,,0,,1,,1.57542003E9
Raw,2065591179,1845291000000,,,-1311985616708827977,0.0,7.843312866432485,,,0,3,0.0,16431,176261926116443,6,44.897369384765625,-145.1834769458568,0.031100197892275236,1,-7228.331244961672,5.449741729535162E-4,1.57542003E9,,,,0,,1,,1.57542003E9
Raw,2065591180,1845291000000,,,-1311985616708827977,0.0,7.843312866432485,,,0,6,0.0,16,1845005076617,1000000000,29.112689971923828,-625.4622240958765,2.99792458E8,2,-524291.1236809075,3.4028234663852886E38,1.57542003E9,,,,0,,1,,1.57542003E9
Raw,2065591181,1845291000000,,,-1311985616708827977,0.0,7.843312866432485,,,0,14,0.0,16431,176261932501449,12,37.63563919067383,-41.66940305860592,0.06347619549283456,1,-255697.74102412807,0.0011928444728255272,1.57542003E9,,,,0,,1,,1.57542003E9
Raw,2065591181,1845291000000,,,-1311985616708827977,0.0,7.843312866432485,,,0,17,0.0,16431,176261929639998,8,40.43986511230469,-181.272299519252,0.04606782778125171,1,-129437.23957443047,9.10439935978502E-4,1.57542003E9,,,,0,,1,,1.57542003E9
Raw,2065591182,1845291000000,,,-1311985616708827977,0.0,7.843312866432485,,,0,19,0.0,16431,176261928002699,34,28.73324203491211,-430.1064230159536,0.17207375244406553,1,-553602.086655372,0.003134204773232341,1.57542003E9,,,,0,,1,,1.57542003E9
Raw,2065591182,1845291000000,,,-1311985616708827977,0.0,7.843312866432485,,,0,21,0.0,39,5915279129,18,34.04056930541992,470.58574763861725,0.09536732313620278,1,527119.1116215343,0.0018044182797893882,1.57542003E9,,,,0,,1,,1.57542003E9
Raw,2065591182,1845291000000,,,-1311985616708827977,0.0,7.843312866432485,,,0,22,0.0,16431,176261922553045,6,44.8402099609375,179.961181499276,0.03045923178197385,1,2153.797280024629,5.485723377205431E-4,1.57542003E9,,,,0,,1,,1.57542003E9
Raw,2065591183,1845291000000,,,-1311985616708827977,0.0,7.843312866432485,,,0,24,0.0,51,16879125,27,30.617536544799805,-363.3281887964199,0.14039337686583642,4,-525384.2626018043,3.4028234663852886E38,1.57542003E9,,,,0,,1,,1.57542003E9
Raw,2065591183,1845291000000,,,-1311985616708827977,0.0,7.843312866432485,,,0,30,0.0,16431,176261920782659,62,23.63262367248535,492.1769156809046,0.3107091868234124,4,35395.85158071483,3.4028234663852886E38,1.57542003E9,,,,0,,1,,1.57542003E9
Raw,2065591183,1845291000000,,,-1311985616708827977,0.0,7.843312866432485,,,0,10,0.0,99,1922453870,33,36.052364349365234,-834.070579405216,0.0739114182456252,1,-545991.6213623246,0.0014110748888924718,1.59806246E9,,,,0,,3,,1.59806246E9
Raw,2065591184,1845291000000,,,-1311985616708827977,0.0,7.843312866432485,,,0,18,0.0,16,1845007674195,1000000000,17.400413513183594,380.69132585968305,2.99792458E8,2,2.6750460553860496,3.4028234663852886E38,1.60031245E9,,,,0,,3,,1.60031245E9
Raw,2065591184,1845291000000,,,-1311985616708827977,0.0,7.843312866432485,,,0,9,0.0,32995,14243933388405,38,33.89540100097656,-332.4947787714725,0.09658818402144198,1,-673618.6235439054,0.001805654028430581,1.59862502E9,,,,0,,3,,1.59862502E9
Raw,2065591185,1845291000000,,,-1311985616708827977,0.0,7.843312866432485,,,0,16,0.0,32995,14243932267788,79,27.483938217163086,422.4810527707357,0.19923630536503223,1,27641.451720463258,0.003560237353667617,1.60143744E9,,,,0,,3,,1.60143744E9
Raw,2065591185,1845291000000,,,-1311985616708827977,0.0,7.843312866432485,,,0,19,0.0,99,1933181047,51,31.24724769592285,1.700620054925226,0.1301224422042534,1,21.503003849257748,0.0023051733151078224,1.60368755E9,,,,0,,3,,1.60368755E9
Raw,2065591185,1845291000000,,,-1311985616708827977,0.0,7.843312866432485,,,0,3,0.0,32995,14243922803108,33,43.66178894042969,-475.1125113490639,0.03109840057523204,1,-857211.853341998,6.167753599584103E-4,1.60481254E9,,,,0,,3,,1.60481254E9
Raw,2065591186,1845291000000,,,-1311985616708827977,0.0,7.843312866432485,,,0,193,0.0,35,11477284,11,38.61042785644531,-180.38796201985463,0.05679214814834904,1,-6111.654613135615,0.0010662139393389225,1.57542003E9,,,,0,,4,,1.57542003E9
Raw,2065591186,1845291000000,,,-1311985616708827977,0.0,7.843312866432485,,,0,194,0.0,35,15892173,9,40.23585891723633,-142.49797534598434,0.04824602626118388,1,-101817.3385377961,8.842454990372062E-4,1.57542003E9,,,,0,,4,,1.57542003E9
Raw,2065591187,1845291000000,,,-1311985616708827977,0.0,7.843312866432485,,,0,195,0.0,35,7987266,16,34.92361831665039,-125.80554694463359,0.08510242113599159,1,-2131.577867882392,0.0016299895942211151,1.57542003E9,,,,0,,4,,1.57542003E9
Raw,2065591187,1845291000000,,,-1311985616708827977,0.0,7.843312866432485,,,0,7,0.0,16431,176247879807262,8,34.937156677246094,-93.12482517307922,0.08709824186151288,1,-188667.4008879139,0.0016423814231529832,1.56109798E9,,,,0,,5,,1.56109798E9
Raw,2065591187,1845291000000,,,-1311985616708827977,0.0,7.843312866432485,,,0,8,0.0,16431,176247878213903,8,34.493629455566406,-195.65405665695403,0.09118797854691763,1,-388304.78630461387,0.0017284245695918798,1.56109798E9,,,,0,,5,,1.56109798E9
Raw,2065591188,1845291000000,,,-1311985616708827977,0.0,7.843312866432485,,,0,10,0.0,16431,176247880452353,15,29.620389938354492,-159.0298838977268,0.15774562418483673,1,-274368.52491523884,0.002855854807421565,1.56109798E9,,,,0,,5,,1.56109798E9
Raw,2065591188,1845291000000,,,-1311985616708827977,0.0,7.843312866432485,,,0,30,0.0,16431,176247924699689,12,31.512252807617188,-306.9487847216478,0.12475803329417268,1,-216755.550724952,0.002296904567629099,1.56109798E9,,,,0,,5,,1.56109798E9
Raw,2065591189,1845291000000,,,-1311985616708827977,0.0,7.843312866432485,,,0,32,0.0,16431,176247913749828,7,36.56512451171875,-650.3197184414839,0.07173162215054352,1,-441159.4953354703,0.0013616818469017744,1.56109798E9,,,,0,,5,,1.56109798E9
Raw,2065591189,1845291000000,,,-1311985616708827977,0.0,7.843312866432485,,,0,33,0.0,16431,176247910778837,15,29.452346801757812,51.99938664119148,0.15901529554125826,1,11587.700936799045,0.002911643823608756,1.56109798E9,,,,0,,5,,1.56109798E9
Raw,2065591189,1845291000000,,,-1311985616708827977,0.0,7.843312866432485,,,0,36,0.0,16431,176247920970336,11,32.01813507080078,-296.0467611887834,0.11707648331162612,4,-259413.8851462683,3.4028234663852886E38,1.56109798E9,,,,0,,5,,1.56109798E9
Fix,gps,34.486354,109.463882,357.101196,0.000000,3.000000,1627952244999
Raw,2065592151,1846291000000,,,-1311985616708828363,0.0,7.981635703970762,,,0,1,0.0,16431,176262924803895,7,42.31877517700195,508.90942505112616,0.03657408296443029,1,577068.1099615097,7.333406829275191E-4,1.57542003E9,,,,0,,1,,1.57542003E9
Raw,2065592151,1846291000000,,,-1311985616708828363,0.0,7.981635703970762,,,0,2,0.0,16,1846014989936,1000000000,7.0,-685.2422393526685,2.99792458E8,2,-10.233125831821262,3.4028234663852886E38,1.57542003E9,,,,0,,1,,1.57542003E9
Raw,2065592152,1846291000000,,,-1311985616708828363,0.0,7.981635703970762,,,0,3,0.0,16431,176262926116939,6,44.59497833251953,-145.04835704697211,0.031100287342081784,1,-7373.456686533363,5.642810720019042E-4,1.57542003E9,,,,0,,1,,1.57542003E9
Raw,2065592152,1846291000000,,,-1311985616708828363,0.0,7.981635703970762,,,0,6,0.0,17,78590,30,29.80695915222168,-625.2153989457383,0.15170627279956284,4,-524791.3703491734,3.4028234663852886E38,1.57542003E9,,,,0,,1,,1.57542003E9
Raw,2065592152,1846291000000,,,-1311985616708828363,0.0,7.981635703970762,,,0,14,0.0,16431,176262932501589,11,38.24038314819336,-41.4951266774836,0.059358350765893186,1,-255739.32971486065,0.0011126192985102534,1.57542003E9,,,,0,,1,,1.57542003E9
Raw,2065592153,1846291000000,,,-1311985616708828363,0.0,7.981635703970762,,,0,17,0.0,16431,176262929640589,8,41.16386413574219,-181.2652274095235,0.042522366125726185,1,-129618.52776248558,8.376281475648284E-4,1.57542003E9,,,,0,,1,,1.57542003E9
Raw,2065592153,1846291000000,,,-1311985616708828363,0.0,7.981635703970762,,,0,19,0.0,16431,176262928004076,166,27.14558219909668,-430.0161726710812,0.20629598365063329,1,-554032.1730582911,0.003762793494388461,1.57542003E9,,,,1,,1,,1.57542003E9
Raw,2065592153,1846291000000,,,-1311985616708828363,0.0,7.981635703970762,,,0,21,0.0,16431,176262915277563,17,34.87144088745117,470.54454194868117,0.0869178860887756,1,527589.6645311313,0.001639810623601079,1.57542003E9,,,,0,,1,,1.57542003E9
Raw,2065592154,1846291000000,,,-1311985616708828363,0.0,7.981635703970762,,,0,22,0.0,16431,176262922552441,6,44.75527572631836,180.05027304062662,0.03045912152988671,1,2333.7804049956017,5.539627745747566E-4,1.57542003E9,,,,0,,1,,1.57542003E9
Raw,2065592154,1846291000000,,,-1311985616708828363,0.0,7.981635703970762,,,0,24,0.0,16431,176262916880403,29,30.16434669494629,-363.2869149415708,0.14775052776391073,1,-525747.5707272212,0.0026581049896776676,1.57542003E9,,,,0,,1,,1.57542003E9
Raw,2065592155,1846291000000,,,-1311985616708828363,0.0,7.981635703970762,,,0,30,0.0,16,1846020780974,1000000000,27.18706512451172,491.6069547604736,2.99792458E8,2,9.817271526670083,3.4028234663852886E38,1.57542003E9,,,,0,,1,,1.57542003E9
Raw,2065592155,1846291000000,,,-1311985616708828363,0.0,7.981635703970762,,,0,10,0.0,99,922456682,33,36.22133255004883,-834.0258632222581,0.07249651368701882,1,-546825.6842992775,0.0013838903978466988,1.59806246E9,,,,0,,3,,1.59806246E9
Raw,2065592155,1846291000000,,,-1311985616708828363,0.0,7.981635703970762,,,0,18,0.0,16,1846007672925,1000000000,25.997589111328125,380.69132585968305,2.99792458E8,2,2.669086112969676,3.4028234663852886E38,1.60031245E9,,,,0,,3,,1.60031245E9
Raw,2065592156,1846291000000,,,-1311985616708828363,0.0,7.981635703970762,,,0,9,0.0,32995,14244933389502,37,34.1143684387207,-332.358039955903,0.0942438086032244,1,-673951.0811567518,0.0017607036279514432,1.59862502E9,,,,0,,3,,1.59862502E9
Raw,2065592156,1846291000000,,,-1311985616708828363,0.0,7.981635703970762,,,0,16,0.0,32995,14244932266498,71,28.38942527770996,422.64205829534944,0.1797304894663213,1,28064.028395322424,0.0032077801879495382,1.60143744E9,,,,0,,3,,1.60143744E9
Raw,2065592156,1846291000000,,,-1311985616708828363,0.0,7.981635703970762,,,0,19,0.0,99,933181113,55,30.686613082885742,1.7832769349920223,0.138640177299322,1,23.23840720064576,0.002458869246765971,1.60368755E9,,,,0,,3,,1.60368755E9
Raw,2065592156,1846291000000,,,-1311985616708828363,0.0,7.981635703970762,,,0,3,0.0,32995,14244922804690,33,43.476890563964844,-475.0213748603219,0.031756927970809645,1,-857686.9418472699,6.300454842858016E-4,1.60481254E9,,,,0,,3,,1.60481254E9
Raw,2065592157,1846291000000,,,-1311985616708828363,0.0,7.981635703970762,,,0,193,0.0,35,11477897,11,38.12565612792969,-180.3749425214629,0.05993352550336456,1,-6292.031576313673,0.0011274127755314112,1.57542003E9,,,,0,,4,,1.57542003E9
Raw,2065592157,1846291000000,,,-1311985616708828363,0.0,7.981635703970762,,,0,194,0.0,35,15892650,9,40.185054779052734,-142.48903722176124,0.04851236202006623,1,-101959.83027921722,8.894323837012053E-4,1.57542003E9,,,,0,,4,,1.57542003E9
Raw,2065592157,1846291000000,,,-1311985616708828363,0.0,7.981635703970762,,,0,195,0.0,35,7987686,15,35.66093444824219,-125.76726382534434,0.07829349354065296,1,-2257.373377834262,0.0014973350334912539,1.57542003E9,,,,0,,4,,1.57542003E9
Raw,2065592158,1846291000000,,,-1311985616708828363,0.0,7.981635703970762,,,0,7,0.0,16431,176248879807575,9,33.65910339355469,-93.0597958460337,0.1003401249536729,1,-188760.48370654436,0.001902728108689189,1.56109798E9,,,,0,,5,,1.56109798E9
Raw,2065592158,1846291000000,,,-1311985616708828363,0.0,7.981635703970762,,,0,8,0.0,16431,176248878214560,8,34.624977111816406,-195.58890804131067,0.08986869791173902,1,-388500.392194395,0.0017024839762598276,1.56109798E9,,,,0,,5,,1.56109798E9
Raw,2065592158,1846291000000,,,-1311985616708828363,0.0,7.981635703970762,,,0,10,0.0,16431,176248880452881,16,29.319705963134766,-158.96592816806174,0.16317250650399295,1,-274527.5251095394,0.0029564485885202885,1.56109798E9,,,,0,,5,,1.56109798E9
Raw,2065592159,1846291000000,,,-1311985616708828363,0.0,7.981635703970762,,,0,30,0.0,16431,176248924700712,12,31.52517318725586,-306.9620768796917,0.12457405792461229,1,-217062.5164805533,0.002293490804731846,1.56109798E9,,,,0,,5,,1.56109798E9
Raw,2065592159,1846291000000,,,-1311985616708828363,0.0,7.981635703970762,,,0,32,0.0,16431,176248913752003,7,36.013641357421875,-650.2791603182218,0.07627194455449482,1,-441809.7664095641,0.0014509413158521056,1.56109798E9,,,,0,,5,,1.56109798E9
Raw,2065592159,1846291000000,,,-1311985616708828363,0.0,7.981635703970762,,,0,33,0.0,16431,176248910778649,15,29.880416870117188,52.0643052002533,0.15146167126344356,1,11639.758626652354,0.0027716271579265594,1.56109798E9,,,,0,,5,,1.56109798E9
Raw,2065592159,1846291000000,,,-1311985616708828363,0.0,7.981635703970762,,,0,36,0.0,16431,176248920971334,12,31.794843673706055,-295.93940145073657,0.12012084715087029,4,-259709.8497676007,3.4028234663852886E38,1.56109798E9,,,,0,,5,,1.56109798E9
Fix,gps,34.486354,109.463882,357.053986,0.000000,3.000000,1627952245999
Raw,2065593148,1847291000000,,,-1311985616708828748,0.0,7.394932306594659,,,0,1,0.0,16431,176263924802236,12,37.36629867553711,508.85274592592873,0.06401963843149008,1,577576.9519237565,0.0012304125120863318,1.57542003E9,,,,0,,1,,1.57542003E9
Raw,2065593148,1847291000000,,,-1311985616708828748,0.0,7.394932306594659,,,0,2,0.0,16,1847014992222,1000000000,7.0,-685.2422393526685,2.99792458E8,2,-10.270636645557461,3.4028234663852886E38,1.57542003E9,,,,0,,1,,1.57542003E9
Raw,2065593148,1847291000000,,,-1311985616708828748,0.0,7.394932306594659,,,0,3,0.0,16431,176263926117430,6,43.82392120361328,-145.16955426236723,0.031128786466493558,1,-7518.6084635936295,6.16663892287761E-4,1.57542003E9,,,,0,,1,,1.57542003E9
Raw,2065593149,1847291000000,,,-1311985616708828748,0.0,7.394932306594659,,,0,6,0.0,5,1925080598,43,26.763351440429688,-625.0165618943843,0.2149863277491465,4,-524291.1122916708,3.4028234663852886E38,1.57542003E9,,,,0,,1,,1.57542003E9
Raw,2065593149,1847291000000,,,-1311985616708828748,0.0,7.394932306594659,,,0,14,0.0,16431,176263932501712,7,42.45631408691406,-41.368501830887226,0.037397736783123386,1,-255780.82992487328,7.218198734335601E-4,1.57542003E9,,,,0,,1,,1.57542003E9
Raw,2065593149,1847291000000,,,-1311985616708828748,0.0,7.394932306594659,,,0,17,0.0,16431,176263929641230,7,42.160911560058594,-181.2703056955454,0.03809916056151086,1,-129799.73802680701,7.46790727134794E-4,1.57542003E9,,,,0,,1,,1.57542003E9
Raw,2065593150,1847291000000,,,-1311985616708828748,0.0,7.394932306594659,,,0,19,0.0,16431,176263928005295,166,22.71190643310547,-430.6058673338389,4.2014400062066155,4,-554461.8635603989,3.4028234663852886E38,1.57542003E9,,,,1,,1,,1.57542003E9
Raw,2065593150,1847291000000,,,-1311985616708828748,0.0,7.394932306594659,,,0,21,0.0,16431,176263915276002,18,34.36208724975586,470.1009587770368,0.09200103152342076,1,528060.0755922389,0.0017388468841090798,1.57542003E9,,,,0,,1,,1.57542003E9
Raw,2065593150,1847291000000,,,-1311985616708828748,0.0,7.394932306594659,,,0,22,0.0,16431,176263922551857,9,39.69195556640625,180.0627301784857,0.04877943417968156,1,2513.7871392402135,9.413863881491125E-4,1.57542003E9,,,,0,,1,,1.57542003E9
Raw,2065593150,1847291000000,,,-1311985616708828748,0.0,7.394932306594659,,,0,24,0.0,16431,176263916881668,37,28.03887367248535,-362.9027715741022,0.18787178649178737,1,-526110.6159716134,0.00339504680596292,1.57542003E9,,,,0,,1,,1.57542003E9
Raw,2065593151,1847291000000,,,-1311985616708828748,0.0,7.394932306594659,,,0,30,0.0,16,1847020779335,1000000000,22.377750396728516,491.6069547604736,2.99792458E8,2,9.828804827087017,3.4028234663852886E38,1.57542003E9,,,,0,,1,,1.57542003E9
Raw,2065593151,1847291000000,,,-1311985616708828748,0.0,7.394932306594659,,,0,10,0.0,99,1922459386,38,33.88312530517578,-833.8861251505145,0.09475548645941512,1,-547659.5377082338,0.0018113903934136033,1.59806246E9,,,,0,,3,,1.59806246E9
Raw,2065593151,1847291000000,,,-1311985616708828748,0.0,7.394932306594659,,,0,18,0.0,16,1847007671777,1000000000,23.91680908203125,380.78259867825113,2.99792458E8,2,2.663764706482094,3.4028234663852886E38,1.60031245E9,,,,0,,3,,1.60031245E9
Raw,2065593152,1847291000000,,,-1311985616708828748,0.0,7.394932306594659,,,0,9,0.0,32995,14245933390550,46,32.132572174072266,-331.7847389547328,0.11778047409143871,1,-674283.2151286749,0.0022119535133242607,1.59862502E9,,,,0,,3,,1.59862502E9
Raw,2065593152,1847291000000,,,-1311985616708828748,0.0,7.394932306594659,,,0,16,0.0,32995,14245932264964,93,26.127532958984375,422.8657073750521,0.23253679583945697,4,28486.808941437564,3.4028234663852886E38,1.60143744E9,,,,0,,3,,1.60143744E9
Raw,2065593153,1847291000000,,,-1311985616708828748,0.0,7.394932306594659,,,0,19,0.0,99,1933181026,66,29.029600143432617,2.0082688102278645,0.16728145617575296,1,25.13639407781637,0.002975678304210305,1.60368755E9,,,,0,,3,,1.60368755E9
Raw,2065593153,1847291000000,,,-1311985616708828748,0.0,7.394932306594659,,,0,3,0.0,32995,14245922806260,33,42.913543701171875,-475.3826829819202,0.033851351506339555,1,-858162.1176233756,6.722633843310177E-4,1.60481254E9,,,,0,,3,,1.60481254E9
Raw,2065593154,1847291000000,,,-1311985616708828748,0.0,7.394932306594659,,,0,193,0.0,35,11478505,13,37.04469299316406,-180.62396599004683,0.06760276885671257,1,-6472.579023381064,0.0012768242741003633,1.57542003E9,,,,0,,4,,1.57542003E9
Raw,2065593154,1847291000000,,,-1311985616708828748,0.0,7.394932306594659,,,0,194,0.0,35,15893102,14,36.51288986206055,-142.3554595540342,0.07253488973425593,1,-102102.35539457234,0.0013574417680501938,1.57542003E9,,,,0,,4,,1.57542003E9
Raw,2065593154,1847291000000,,,-1311985616708828748,0.0,7.394932306594659,,,0,195,0.0,35,7988088,6,43.50607681274414,-126.00770703549864,0.03258445517414907,1,-2383.270085957666,6.396472454071045E-4,1.57542003E9,,,,0,,4,,1.57542003E9
Raw,2065593155,1847291000000,,,-1311985616708828748,0.0,7.394932306594659,,,0,7,0.0,16431,176249879807889,13,30.78858757019043,-93.03760816683734,0.1382416721704669,4,-188853.6272004984,3.4028234663852886E38,1.56109798E9,,,,0,,5,,1.56109798E9
Raw,2065593155,1847291000000,,,-1311985616708828748,0.0,7.394932306594659,,,0,8,0.0,16431,176249878215195,11,31.909595489501953,-195.48269006555734,0.12164835861478018,1,-388695.9488964999,0.002327298978343606,1.56109798E9,,,,0,,5,,1.56109798E9
Raw,2065593155,1847291000000,,,-1311985616708828748,0.0,7.394932306594659,,,0,10,0.0,16431,176249880453394,8,34.916725158691406,-158.89462766901602,0.08741117472892251,1,-274686.4796337009,0.001646249438636005,1.56109798E9,,,,0,,5,,1.56109798E9
Raw,2065593156,1847291000000,,,-1311985616708828748,0.0,7.394932306594659,,,0,30,0.0,16431,176249924701750,11,32.43978500366211,-306.7665799090769,0.11220826704006304,1,-217369.3281573712,0.0020642695017158985,1.56109798E9,,,,0,,5,,1.56109798E9
Raw,2065593156,1847291000000,,,-1311985616708828748,0.0,7.394932306594659,,,0,32,0.0,16431,176249913754134,7,35.807193756103516,-650.4606153167492,0.07804738591941879,1,-442460.18007366534,0.001485840417444706,1.56109798E9,,,,0,,5,,1.56109798E9
Raw,2065593156,1847291000000,,,-1311985616708828748,0.0,7.394932306594659,,,0,33,0.0,16431,176249910778438,15,29.895893096923828,51.673315519330686,0.15119543535550806,1,11691.765222311707,0.0027666932437568903,1.56109798E9,,,,0,,5,,1.56109798E9
