# 
# Header Description:
# 
# Version: v2.0.0.1 Platform: 10 Manufacturer: HUAWEI Model: BLA-AL00
# 
# Raw,ElapsedRealtimeMillis,TimeNanos,LeapSecond,TimeUncertaintyNanos,FullBiasNanos,BiasNanos,BiasUncertaintyNanos,DriftNanosPerSecond,DriftUncertaintyNanosPerSecond,HardwareClockDiscontinuityCount,Svid,TimeOffsetNanos,State,ReceivedSvTimeNanos,ReceivedSvTimeUncertaintyNanos,Cn0DbHz,PseudorangeRateMetersPerSecond,PseudorangeRateUncertaintyMetersPerSecond,AccumulatedDeltaRangeState,AccumulatedDeltaRangeMeters,AccumulatedDeltaRangeUncertaintyMeters,CarrierFrequencyHz,CarrierCycles,CarrierPhase,CarrierPhaseUncertainty,MultipathIndicator,SnrInDb,ConstellationType,AgcDb,CarrierFrequencyHz
# 
# Fix,Provider,Latitude,Longitude,Altitude,Speed,Accuracy,(UTC)TimeInMs
# 
# Nav,Svid,Type,Status,MessageId,Sub-messageId,Data(Bytes)
# 
Fix,gps,34.486715,109.464177,363.613953,0.650578,3.000000,1627818796000
Raw,1932142501,143825000000,,,-1311853870175240973,0.0,7.267505583568609,,,0,10,0.0,16431,42813930559885,11,38.193458557128906,-456.5734272883942,0.05931843118943611,1,-65408.4387286815,0.0011186462361365557,1.57542003E9,,,,0,,1,,1.57542003E9
Raw,1932142502,143825000000,,,-1311853870175240973,0.0,7.267505583568609,,,0,12,0.0,16431,42813921999294,25,31.28738021850586,-582.4670688625251,0.12752222369748434,4,-83193.56887606456,3.4028234663852886E38,1.57542003E9,,,,0,,1,,1.57542003E9
Raw,1932142502,143825000000,,,-1311853870175240973,0.0,7.267505583568609,,,0,15,0.0,16431,42813919374614,54,24.817962646484375,415.3004245006839,0.2712971693709699,4,58327.634762234484,3.4028234663852886E38,1.57542003E9,,,,0,,1,,1.57542003E9
Raw,1932142502,143825000000,,,-1311853870175240973,0.0,7.267505583568609,,,0,18,0.0,16431,42813924835478,61,23.767379760742188,523.387652582016,0.3031149564938811,4,69510.80650187186,3.4028234663852886E38,1.57542003E9,,,,0,,1,,1.57542003E9
Raw,1932142503,143825000000,,,-1311853870175240973,0.0,7.267505583568609,,,0,23,0.0,16431,42813932543990,10,39.153648376464844,-27.46812530911336,0.05366617280188424,1,-4893.981451592786,0.0010015746811404824,1.57542003E9,,,,0,,1,,1.57542003E9
Raw,1932142503,143825000000,,,-1311853870175240973,0.0,7.267505583568609,,,0,24,0.0,16431,42813929089654,51,25.295101165771484,362.4486910058488,0.2551322829445426,4,50337.92879728045,3.4028234663852886E38,1.57542003E9,,,,0,,1,,1.57542003E9
Raw,1932142503,143825000000,,,-1311853870175240973,0.0,7.267505583568609,,,0,25,0.0,16431,42813920311207,11,37.954864501953125,-733.46857450788,0.06267157576088364,1,-104024.7855113393,0.0011498004896566272,1.57542003E9,,,,0,,1,,1.57542003E9
Raw,1932142503,143825000000,,,-1311853870175240973,0.0,7.267505583568609,,,0,31,0.0,16,14800018,1000000000,7.0,-854.0000913621902,2.99792458E8,4,-8553.806435506569,3.4028234663852886E38,1.57542003E9,,,,0,,1,,1.57542003E9
Raw,1932142504,143825000000,,,-1311853870175240973,0.0,7.267505583568609,,,0,32,0.0,16431,42813925939455,18,34.035484313964844,-442.59839314560713,0.09374157498242269,4,-63119.745462093495,3.4028234663852886E38,1.57542003E9,,,,0,,1,,1.57542003E9
Raw,1932142504,143825000000,,,-1311853870175240973,0.0,7.267505583568609,,,0,10,0.0,32995,53595927259095,47,31.987104415893555,-893.6421463579145,0.11862603687205187,4,-124564.97815171201,3.4028234663852886E38,1.59806246E9,,,,0,,3,,1.59806246E9
Raw,1932142504,143825000000,,,-1311853870175240973,0.0,7.267505583568609,,,0,9,0.0,32995,53595933529419,35,34.62666320800781,-347.0622341735391,0.08900917264039215,1,-50493.53854131157,0.0016598602524027228,1.59862502E9,,,,0,,3,,1.59862502E9
Raw,1932142505,143825000000,,,-1311853870175240973,0.0,7.267505583568609,,,0,16,0.0,32995,53595928135481,88,26.622425079345703,369.65828936394496,0.21903743043903479,4,47589.898774349174,3.4028234663852886E38,1.60143744E9,,,,0,,3,,1.60143744E9
Raw,1932142505,143825000000,,,-1311853870175240973,0.0,7.267505583568609,,,0,23,0.0,32995,53595924915079,40,33.30643081665039,-236.2150939691311,0.10167163732983991,4,-33579.99190074577,3.4028234663852886E38,1.60368755E9,,,,0,,3,,1.60368755E9
Raw,1932142505,143825000000,,,-1311853870175240973,0.0,7.267505583568609,,,0,7,0.0,32995,53595932793160,39,33.531532287597656,-236.1149085881823,0.10051027096709536,4,-33667.68737127114,3.4028234663852886E38,1.60481254E9,,,,0,,3,,1.60481254E9
Raw,1932142506,143825000000,,,-1311853870175240973,0.0,7.267505583568609,,,0,8,0.0,32995,53595925644784,33,36.36149978637695,-563.652325893499,0.07191654610409892,4,-78221.60039119556,3.4028234663852886E38,1.60537498E9,,,,0,,3,,1.60537498E9
Raw,1932142506,143825000000,,,-1311853870175240973,0.0,7.267505583568609,,,0,193,0.0,35,9091868,21,32.6644287109375,-238.47663537170217,0.11015468254179239,4,-33749.39517855734,3.4028234663852886E38,1.57542003E9,,,,0,,4,,1.57542003E9
Raw,1932142506,143825000000,,,-1311853870175240973,0.0,7.267505583568609,,,0,194,0.0,35,12810604,11,38.0133171081543,-122.57287706712981,0.060926563972010434,1,-17560.575340203388,0.0011420886730775237,1.57542003E9,,,,0,,4,,1.57542003E9
Raw,1932142507,143825000000,,,-1311853870175240973,0.0,7.267505583568609,,,0,1,0.0,16905,42799872735177,18,35.25093078613281,-114.05255263730766,0.18065554192153466,4,-2826.76610057319,3.4028234663852886E38,1.56109798E9,,,,0,,5,,1.56109798E9
Raw,1932142507,143825000000,,,-1311853870175240973,0.0,7.267505583568609,,,0,4,0.0,17,218525,40,28.283245086669922,-112.47254107659495,0.4020572597217702,4,-2484.3839532996903,3.4028234663852886E38,1.56109798E9,,,,0,,5,,1.56109798E9
Raw,1932142508,143825000000,,,-1311853870175240973,0.0,7.267505583568609,,,0,14,0.0,16431,42799925900560,15,29.86908531188965,61.425831520436134,0.15077940638548182,4,1643.2365020080174,3.4028234663852886E38,1.56109798E9,,,,0,,5,,1.56109798E9
Raw,1932142508,143825000000,,,-1311853870175240973,0.0,7.267505583568609,,,0,24,0.0,16431,42799924915785,10,33.10822296142578,-129.40493553370868,0.10399812278674792,4,-4068.5031291090418,3.4028234663852886E38,1.56109798E9,,,,0,,5,,1.56109798E9
Raw,1932142509,143825000000,,,-1311853870175240973,0.0,7.267505583568609,,,0,26,0.0,51,18203749,15,29.777240753173828,350.6530254629563,0.15458397708761185,4,5591.823809406531,3.4028234663852886E38,1.56109798E9,,,,0,,5,,1.56109798E9
Raw,1932142509,143825000000,,,-1311853870175240973,0.0,7.267505583568609,,,0,27,0.0,16431,42799914476765,7,35.877811431884766,2.593826448555882,0.0775654553244754,1,24.119354436423418,0.0013895208248868585,1.56109798E9,,,,0,,5,,1.56109798E9
Raw,1932142509,143825000000,,,-1311853870175240973,0.0,7.267505583568609,,,0,33,0.0,16431,42799926254007,166,29.695032119750977,-183.67161925231653,0.15387337118257083,4,-6645.80846980234,3.4028234663852886E38,1.56109798E9,,,,1,,5,,1.56109798E9
Fix,gps,34.486715,109.464178,363.574524,0.450475,3.000000,1627818797000
Raw,1932143505,144825000000,,,-1311853870175241358,0.0,6.9145306421133474,,,0,10,0.0,16431,42814930561418,13,36.56770324707031,-456.4736338556954,0.07113751733773294,1,-65864.93460697978,0.0013489025877788663,1.57542003E9,,,,0,,1,,1.57542003E9
Raw,1932143506,144825000000,,,-1311853870175241358,0.0,6.9145306421133474,,,0,12,0.0,16431,42814922001265,25,31.408447265625,-582.6015582359641,0.1257624339684782,4,-83775.76705188,3.4028234663852886E38,1.57542003E9,,,,0,,1,,1.57542003E9
Raw,1932143506,144825000000,,,-1311853870175241358,0.0,6.9145306421133474,,,0,15,0.0,16431,42814919373189,38,27.756065368652344,415.1602433570056,0.19443716930686084,4,58742.78659990652,3.4028234663852886E38,1.57542003E9,,,,0,,1,,1.57542003E9
Raw,1932143507,144825000000,,,-1311853870175241358,0.0,6.9145306421133474,,,0,18,0.0,16431,42814924833655,54,24.79561424255371,523.3867664381464,0.2693715272192556,4,70034.23665482335,3.4028234663852886E38,1.57542003E9,,,,0,,1,,1.57542003E9
Raw,1932143507,144825000000,,,-1311853870175241358,0.0,6.9145306421133474,,,0,23,0.0,16431,42814932544062,9,40.22027587890625,-27.331049929285683,0.047725278610654814,1,-4921.381542047245,8.858333458192647E-4,1.57542003E9,,,,0,,1,,1.57542003E9
Raw,1932143507,144825000000,,,-1311853870175241358,0.0,6.9145306421133474,,,0,24,0.0,16431,42814929088465,62,23.557601928710938,362.6980723402262,0.3112685185439845,4,50699.51134812638,3.4028234663852886E38,1.57542003E9,,,,0,,1,,1.57542003E9
Raw,1932143508,144825000000,,,-1311853870175241358,0.0,6.9145306421133474,,,0,25,0.0,16431,42814920313671,10,39.03961181640625,-733.5325131963168,0.05574313490308477,1,-104758.24727703641,0.001014810986816883,1.57542003E9,,,,0,,1,,1.57542003E9
Raw,1932143509,144825000000,,,-1311853870175241358,0.0,6.9145306421133474,,,0,31,0.0,16,14802927,1000000000,7.0,-854.0000913621902,2.99792458E8,4,-9407.806834114212,3.4028234663852886E38,1.57542003E9,,,,0,,1,,1.57542003E9
Raw,1932143509,144825000000,,,-1311853870175241358,0.0,6.9145306421133474,,,0,32,0.0,16431,42814925940915,24,31.727680206298828,-442.6382355372823,0.1219457979436045,4,-63562.361773041186,3.4028234663852886E38,1.57542003E9,,,,0,,1,,1.57542003E9
Raw,1932143509,144825000000,,,-1311853870175241358,0.0,6.9145306421133474,,,0,10,0.0,32995,53596927262126,49,31.62794303894043,-893.6246279752618,0.12357947592674645,4,-125458.60713406898,3.4028234663852886E38,1.59806246E9,,,,0,,3,,1.59806246E9
Raw,1932143510,144825000000,,,-1311853870175241358,0.0,6.9145306421133474,,,0,9,0.0,32995,53596933530553,33,35.07178497314453,-346.9755624866016,0.08468443675158965,1,-50840.543113901054,0.0015769408782944083,1.59862502E9,,,,0,,3,,1.59862502E9
Raw,1932143510,144825000000,,,-1311853870175241358,0.0,6.9145306421133474,,,0,16,0.0,32995,53596928134244,95,25.8914794921875,369.4183829524809,0.2381392993322876,4,47959.689936387695,3.4028234663852886E38,1.60143744E9,,,,0,,3,,1.60143744E9
Raw,1932143510,144825000000,,,-1311853870175241358,0.0,6.9145306421133474,,,0,23,0.0,32995,53596924915920,35,34.61934280395508,-236.0369279276581,0.08753280982400319,4,-33816.11786376178,3.4028234663852886E38,1.60368755E9,,,,0,,3,,1.60368755E9
Raw,1932143511,144825000000,,,-1311853870175241358,0.0,6.9145306421133474,,,0,7,0.0,32995,53596932793924,33,35.334373474121094,-236.14623036572675,0.08210258249812769,4,-33903.78456763865,3.4028234663852886E38,1.60481254E9,,,,0,,3,,1.60481254E9
Raw,1932143511,144825000000,,,-1311853870175241358,0.0,6.9145306421133474,,,0,8,0.0,32995,53596925646700,33,35.0876350402832,-563.604542289454,0.08311635251961208,4,-78785.22133513523,3.4028234663852886E38,1.60537498E9,,,,0,,3,,1.60537498E9
Raw,1932143511,144825000000,,,-1311853870175241358,0.0,6.9145306421133474,,,0,193,0.0,35,9092690,26,30.892040252685547,-238.49301199206138,0.1347197046106426,4,-33987.86564561238,3.4028234663852886E38,1.57542003E9,,,,0,,4,,1.57542003E9
Raw,1932143512,144825000000,,,-1311853870175241358,0.0,6.9145306421133474,,,0,194,0.0,35,12811015,11,38.19023895263672,-122.53911839394397,0.05974465327695269,1,-17683.108622564636,0.0011190611403435469,1.57542003E9,,,,0,,4,,1.57542003E9
Raw,1932143512,144825000000,,,-1311853870175241358,0.0,6.9145306421133474,,,0,1,0.0,16905,42800872735558,15,36.37696838378906,-113.16761017430701,0.1587497918735996,1,-2939.897266521682,0.0013119197683408856,1.56109798E9,,,,0,,5,,1.56109798E9
Raw,1932143512,144825000000,,,-1311853870175241358,0.0,6.9145306421133474,,,0,4,0.0,17,218867,166,25.892444610595703,-112.58010530938094,0.5293843247436476,4,-2597.3527023307206,3.4028234663852886E38,1.56109798E9,,,,1,,5,,1.56109798E9
Raw,1932143513,144825000000,,,-1311853870175241358,0.0,6.9145306421133474,,,0,14,0.0,16431,42800925900354,17,28.66029930114746,61.49147859200613,0.17313461882881143,4,1704.7550255349545,3.4028234663852886E38,1.56109798E9,,,,0,,5,,1.56109798E9
Raw,1932143513,144825000000,,,-1311853870175241358,0.0,6.9145306421133474,,,0,24,0.0,16431,42800924916209,15,29.894296646118164,-129.27787613579164,0.15016840179991786,4,-4197.7843319570275,3.4028234663852886E38,1.56109798E9,,,,0,,5,,1.56109798E9
Raw,1932143514,144825000000,,,-1311853870175241358,0.0,6.9145306421133474,,,0,26,0.0,51,18202601,17,28.594566345214844,349.7345714245796,0.17665464761608451,4,5941.98048628841,3.4028234663852886E38,1.56109798E9,,,,0,,5,,1.56109798E9
Raw,1932143514,144825000000,,,-1311853870175241358,0.0,6.9145306421133474,,,0,27,0.0,16431,42800914476749,11,32.35655975341797,2.871432317241238,0.11503874183025475,1,26.81263757112511,0.0020841434597969055,1.56109798E9,,,,0,,5,,1.56109798E9
Raw,1932143514,144825000000,,,-1311853870175241358,0.0,6.9145306421133474,,,0,33,0.0,16431,42800926254614,20,27.183773040771484,-183.3788850332421,0.2050826115864074,4,-6829.360822871386,3.4028234663852886E38,1.56109798E9,,,,0,,5,,1.56109798E9
Fix,gps,34.486716,109.464179,363.591217,0.311569,3.000000,1627818798000
Raw,1932144531,145825000000,,,-1311853870175241745,0.0,7.2270243033042885,,,0,10,0.0,16431,42815930562958,13,37.07801818847656,-456.3404396156043,0.067187114327737,1,-66321.3222439492,0.0012719347141683102,1.57542003E9,,,,0,,1,,1.57542003E9
Raw,1932144531,145825000000,,,-1311853870175241745,0.0,7.2270243033042885,,,0,12,0.0,16431,42815922003203,16,34.977294921875,-582.4759984661341,0.08351059734140182,4,-84358.30222605715,3.4028234663852886E38,1.57542003E9,,,,0,,1,,1.57542003E9
Raw,1932144531,145825000000,,,-1311853870175241745,0.0,7.2270243033042885,,,0,15,0.0,16431,42815919371801,38,27.871749877929688,415.1170608845912,0.19191052430609146,4,59157.99945989305,3.4028234663852886E38,1.57542003E9,,,,0,,1,,1.57542003E9
Raw,1932144532,145825000000,,,-1311853870175241745,0.0,7.2270243033042885,,,0,18,0.0,16431,42815924831989,53,24.879592895507812,523.513928083433,0.26678776747689137,4,70557.74780672991,3.4028234663852886E38,1.57542003E9,,,,0,,1,,1.57542003E9
Raw,1932144532,145825000000,,,-1311853870175241745,0.0,7.2270243033042885,,,0,23,0.0,16431,42815932544165,9,40.17446517944336,-27.187703377457808,0.04796574881384841,1,-4948.653485369444,8.90517549123615E-4,1.57542003E9,,,,0,,1,,1.57542003E9
Raw,1932144532,145825000000,,,-1311853870175241745,0.0,7.2270243033042885,,,0,24,0.0,16431,42815929087232,35,28.58583641052246,361.86397238174345,0.17518935161297078,4,51061.29187401313,3.4028234663852886E38,1.57542003E9,,,,0,,1,,1.57542003E9
Raw,1932144532,145825000000,,,-1311853870175241745,0.0,7.2270243033042885,,,0,25,0.0,16431,42815920316089,14,36.25548553466797,-733.3573293697896,0.07542621535563693,1,-105491.65408907228,0.0013982712989673018,1.57542003E9,,,,0,,1,,1.57542003E9
Raw,1932144532,145825000000,,,-1311853870175241745,0.0,7.2270243033042885,,,0,31,0.0,16,14805715,1000000000,7.0,-854.0000913621902,2.99792458E8,4,-10261.807232721763,3.4028234663852886E38,1.57542003E9,,,,0,,1,,1.57542003E9
Raw,1932144532,145825000000,,,-1311853870175241745,0.0,7.2270243033042885,,,0,32,0.0,16431,42815925942424,20,33.178550720214844,-442.53564734314864,0.10335128003217914,4,-64004.933563359846,3.4028234663852886E38,1.57542003E9,,,,0,,1,,1.57542003E9
Raw,1932144533,145825000000,,,-1311853870175241745,0.0,7.2270243033042885,,,0,10,0.0,32995,53597927265110,33,34.91377639770508,-893.5244937179978,0.08506739009547376,4,-126352.15620122507,3.4028234663852886E38,1.59806246E9,,,,0,,3,,1.59806246E9
Raw,1932144533,145825000000,,,-1311853870175241745,0.0,7.2270243033042885,,,0,9,0.0,32995,53597933531779,53,30.926586151123047,-346.2658975768836,0.13498995119827634,4,-51187.340076189495,3.4028234663852886E38,1.59862502E9,,,,0,,3,,1.59862502E9
Raw,1932144533,145825000000,,,-1311853870175241745,0.0,7.2270243033042885,,,0,16,0.0,32995,53597928132997,77,27.766210556030273,370.04287580334835,0.1921924368126815,4,48329.66060249882,3.4028234663852886E38,1.60143744E9,,,,0,,3,,1.60143744E9
Raw,1932144533,145825000000,,,-1311853870175241745,0.0,7.2270243033042885,,,0,23,0.0,32995,53597924916744,33,37.890106201171875,-235.832092363956,0.060344158361805095,4,-34052.077252770476,3.4028234663852886E38,1.60368755E9,,,,0,,3,,1.60368755E9
Raw,1932144533,145825000000,,,-1311853870175241745,0.0,7.2270243033042885,,,0,7,0.0,32995,53597932794654,33,39.30492401123047,-235.93883861778545,0.05282363883332536,4,-34139.805677810014,3.4028234663852886E38,1.60481254E9,,,,0,,3,,1.60481254E9
Raw,1932144533,145825000000,,,-1311853870175241745,0.0,7.2270243033042885,,,0,8,0.0,32995,53597925648547,33,36.6998176574707,-563.563472929344,0.06920866747435125,4,-79348.83257803567,3.4028234663852886E38,1.60537498E9,,,,0,,3,,1.60537498E9
Raw,1932144534,145825000000,,,-1311853870175241745,0.0,7.2270243033042885,,,0,193,0.0,35,9093471,24,31.72268295288086,-238.46828516985408,0.12258244758068293,4,-34226.33900561406,3.4028234663852886E38,1.57542003E9,,,,0,,4,,1.57542003E9
Raw,1932144534,145825000000,,,-1311853870175241745,0.0,7.2270243033042885,,,0,194,0.0,35,12811429,15,35.41117477416992,-122.38923227077078,0.08140320982460664,1,-17805.56530402868,0.0015410156920552254,1.57542003E9,,,,0,,4,,1.57542003E9
Raw,1932144534,145825000000,,,-1311853870175241745,0.0,7.2270243033042885,,,0,1,0.0,16905,42801872735930,21,33.868717193603516,-113.13585384544189,0.2117328011390005,1,-3052.9973279278224,0.0017511353362351656,1.56109798E9,,,,0,,5,,1.56109798E9
Raw,1932144535,145825000000,,,-1311853870175241745,0.0,7.2270243033042885,,,0,4,0.0,16905,42801869219276,31,30.58769989013672,-112.70275102917827,0.30841627624738077,4,-2710.226582162613,3.4028234663852886E38,1.56109798E9,,,,0,,5,,1.56109798E9
Raw,1932144535,145825000000,,,-1311853870175241745,0.0,7.2270243033042885,,,0,14,0.0,16431,42801925900159,13,30.568464279174805,61.66298577353598,0.13919676311885587,4,1766.3452130445153,3.4028234663852886E38,1.56109798E9,,,,0,,5,,1.56109798E9
Raw,1932144535,145825000000,,,-1311853870175241745,0.0,7.2270243033042885,,,0,24,0.0,16431,42801924916647,11,32.095706939697266,-129.1707379337122,0.11674693358247917,4,-4326.978225208465,3.4028234663852886E38,1.56109798E9,,,,0,,5,,1.56109798E9
Raw,1932144535,145825000000,,,-1311853870175241745,0.0,7.2270243033042885,,,0,26,0.0,51,18201430,8,35.24876022338867,350.03828019465436,0.08386570891294087,4,6291.95420288335,3.4028234663852886E38,1.56109798E9,,,,0,,5,,1.56109798E9
Raw,1932144535,145825000000,,,-1311853870175241745,0.0,7.2270243033042885,,,0,27,0.0,16431,42801914476748,11,32.5359001159668,2.882563967064618,0.11274105505059906,1,29.586901485354822,0.0020415526814758778,1.56109798E9,,,,0,,5,,1.56109798E9
Raw,1932144535,145825000000,,,-1311853870175241745,0.0,7.2270243033042885,,,0,33,0.0,16431,42801926255258,18,27.931285858154297,-183.3872352350902,0.18826406757828917,4,-7012.807686889135,3.4028234663852886E38,1.56109798E9,,,,0,,5,,1.56109798E9
Raw,1932145555,146825000000,,,-1311853870175242129,0.0,6.893415990606181,,,0,10,0.0,16431,42816930564452,9,39.74053955078125,-456.3366223804737,0.04995116423861731,1,-66777.6583782163,9.361357660964131E-4,1.57542003E9,,,,0,,1,,1.57542003E9
Raw,1932145555,146825000000,,,-1311853870175242129,0.0,6.893415990606181,,,0,12,0.0,16431,42816922005140,21,32.90951919555664,-582.4378942797416,0.10586067578188119,4,-84940.77809454784,3.4028234663852886E38,1.57542003E9,,,,0,,1,,1.57542003E9
Raw,1932145556,146825000000,,,-1311853870175242129,0.0,6.893415990606181,,,0,15,0.0,16431,42816919370412,45,26.33274269104004,415.3818474893169,0.2284369825293332,4,59573.273134470925,3.4028234663852886E38,1.57542003E9,,,,0,,1,,1.57542003E9
Raw,1932145556,146825000000,,,-1311853870175242129,0.0,6.893415990606181,,,0,18,0.0,16431,42816924830188,50,25.411537170410156,523.6396582655457,0.2509906487295156,4,71081.3193286011,3.4028234663852886E38,1.57542003E9,,,,0,,1,,1.57542003E9
Raw,1932145556,146825000000,,,-1311853870175242129,0.0,6.893415990606181,,,0,23,0.0,16431,42816932544248,10,38.82250213623047,-27.09400005370894,0.0556640321509036,1,-4975.815790057817,0.0010404962813481688,1.57542003E9,,,,0,,1,,1.57542003E9
Raw,1932145557,146825000000,,,-1311853870175242129,0.0,6.893415990606181,,,0,24,0.0,16431,42816929086030,33,28.919248580932617,362.014923581683,0.1686533915435674,4,51423.171960663945,3.4028234663852886E38,1.57542003E9,,,,0,,1,,1.57542003E9
Raw,1932145557,146825000000,,,-1311853870175242129,0.0,6.893415990606181,,,0,25,0.0,16431,42816920318541,23,32.22303771972656,-733.2920273830919,0.11783121501426003,1,-106225.04568784752,0.0022244045976549387,1.57542003E9,,,,0,,1,,1.57542003E9
Raw,1932145557,146825000000,,,-1311853870175242129,0.0,6.893415990606181,,,0,31,0.0,16,14808625,1000000000,7.0,-854.0000913621902,2.99792458E8,4,-11115.807631329406,3.4028234663852886E38,1.57542003E9,,,,0,,1,,1.57542003E9
Raw,1932145558,146825000000,,,-1311853870175242129,0.0,6.893415990606181,,,0,32,0.0,16431,42816925943927,17,34.76873016357422,-442.4534404580156,0.0862401727498075,4,-64447.49301594689,3.4028234663852886E38,1.57542003E9,,,,0,,1,,1.57542003E9
Raw,1932145558,146825000000,,,-1311853870175242129,0.0,6.893415990606181,,,0,10,0.0,32995,53598927268052,33,37.402587890625,-893.3975706499068,0.06419985690917546,1,-127245.62438747476,0.0012079222360625863,1.59806246E9,,,,0,,3,,1.59806246E9
Raw,1932145558,146825000000,,,-1311853870175242129,0.0,6.893415990606181,,,0,9,0.0,32995,53598933532859,42,33.01664733886719,-346.530922758805,0.10664101925238062,4,-51533.971817771526,3.4028234663852886E38,1.59862502E9,,,,0,,3,,1.59862502E9
Raw,1932145559,146825000000,,,-1311853870175242129,0.0,6.893415990606181,,,0,16,0.0,32995,53598928131750,67,28.98476791381836,370.1929749418748,0.16722662136411104,4,48699.76332366778,3.4028234663852886E38,1.60143744E9,,,,0,,3,,1.60143744E9
Raw,1932145559,146825000000,,,-1311853870175242129,0.0,6.893415990606181,,,0,23,0.0,32995,53598924917511,33,37.07890319824219,-235.671461746364,0.06616502339401559,4,-34287.84646256373,3.4028234663852886E38,1.60368755E9,,,,0,,3,,1.60368755E9
Raw,1932145559,146825000000,,,-1311853870175242129,0.0,6.893415990606181,,,0,7,0.0,32995,53598932795478,33,38.543983459472656,-235.8876467680882,0.057449512696441524,4,-34375.76393103114,3.4028234663852886E38,1.60481254E9,,,,0,,3,,1.60481254E9
Raw,1932145560,146825000000,,,-1311853870175242129,0.0,6.893415990606181,,,0,8,0.0,32995,53598925650444,33,37.63606262207031,-563.5013065286464,0.062240877022583546,4,-79912.4031165966,3.4028234663852886E38,1.60537498E9,,,,0,,3,,1.60537498E9
Raw,1932145560,146825000000,,,-1311853870175242129,0.0,6.893415990606181,,,0,193,0.0,35,9094260,22,32.41567611694336,-238.46485988297354,0.11330790055492118,4,-34464.818613475945,3.4028234663852886E38,1.57542003E9,,,,0,,4,,1.57542003E9
Raw,1932145560,146825000000,,,-1311853870175242129,0.0,6.893415990606181,,,0,194,0.0,35,12811815,23,32.19862365722656,-122.31745461733374,0.11680236749980216,1,-17928.03154297686,0.0021030919160693884,1.57542003E9,,,,0,,4,,1.57542003E9
Raw,1932145561,146825000000,,,-1311853870175242129,0.0,6.893415990606181,,,0,1,0.0,16905,42802872736293,35,29.34943962097168,-111.51323921407567,0.3559118103107155,4,-3166.094111764108,3.4028234663852886E38,1.56109798E9,,,,0,,5,,1.56109798E9
Raw,1932145561,146825000000,,,-1311853870175242129,0.0,6.893415990606181,,,0,4,0.0,16905,42802869219631,166,30.489717483520508,-112.59873137187066,0.3119126902857252,4,-2823.013004896774,3.4028234663852886E38,1.56109798E9,,,,1,,5,,1.56109798E9
Raw,1932145561,146825000000,,,-1311853870175242129,0.0,6.893415990606181,,,0,14,0.0,16431,42802925899935,15,29.84731101989746,61.749171785468036,0.15115511221480749,4,1828.0040670193218,3.4028234663852886E38,1.56109798E9,,,,0,,5,,1.56109798E9
Raw,1932145562,146825000000,,,-1311853870175242129,0.0,6.893415990606181,,,0,24,0.0,16431,42802924917076,9,33.92581558227539,-129.02166978949555,0.0947351834335568,1,-4456.057347163345,0.001845190185122192,1.56109798E9,,,,0,,5,,1.56109798E9
Raw,1932145562,146825000000,,,-1311853870175242129,0.0,6.893415990606181,,,0,26,0.0,51,18200263,6,38.35209655761719,350.1328930939617,0.05965358089251857,4,6642.015934815986,3.4028234663852886E38,1.56109798E9,,,,0,,5,,1.56109798E9
Raw,1932145562,146825000000,,,-1311853870175242129,0.0,6.893415990606181,,,0,27,0.0,16431,42802914476739,7,35.643856048583984,3.2134761290976073,0.07961197536825682,1,32.53187590570752,0.001514045987278223,1.56109798E9,,,,0,,5,,1.56109798E9
Raw,1932145562,146825000000,,,-1311853870175242129,0.0,6.893415990606181,,,0,33,0.0,16431,42802926255870,23,26.10809898376465,-183.5551594983781,0.2319718724658616,4,-7196.316836033606,3.4028234663852886E38,1.56109798E9,,,,0,,5,,1.56109798E9
Fix,gps,34.486716,109.464179,363.466705,0.305241,3.000000,1627818799000
Fix,gps,34.486716,109.464179,363.352051,0.300690,3.000000,1627818800000
Raw,1932146566,147825000000,,,-1311853870175242516,0.0,7.18305493032771,,,0,10,0.0,16431,42817930565957,6,42.83647537231445,-456.1952142683606,0.03554431598917024,1,-67233.89711977036,6.909088115207851E-4,1.57542003E9,,,,0,,1,,1.57542003E9
Raw,1932146567,147825000000,,,-1311853870175242516,0.0,7.18305493032771,,,0,12,0.0,16431,42817922007120,17,34.67290115356445,-582.3291712434338,0.08647692766568726,4,-85523.15839926618,3.4028234663852886E38,1.57542003E9,,,,0,,1,,1.57542003E9
Raw,1932146568,147825000000,,,-1311853870175242516,0.0,7.18305493032771,,,0,15,0.0,16431,42817919369038,43,26.737810134887695,415.2657967248567,0.21818688343199166,1,59988.57047212152,0.003943655639886856,1.57542003E9,,,,0,,1,,1.57542003E9
Raw,1932146568,147825000000,,,-1311853870175242516,0.0,7.18305493032771,,,0,18,0.0,16431,42817924828436,49,25.528827667236328,523.6188679670668,0.24763547385548224,1,71604.96196690873,0.004532607737928629,1.57542003E9,,,,0,,1,,1.57542003E9
Raw,1932146568,147825000000,,,-1311853870175242516,0.0,7.18305493032771,,,0,23,0.0,16431,42817932544362,13,36.642364501953125,-26.976217474426704,0.07090161947581358,1,-5002.855110218315,0.0013373573310673237,1.57542003E9,,,,0,,1,,1.57542003E9
Raw,1932146568,147825000000,,,-1311853870175242516,0.0,7.18305493032771,,,0,24,0.0,16431,42817929084844,52,25.062931060791016,361.5799632715389,0.2619986664388778,4,51785.039297771415,3.4028234663852886E38,1.57542003E9,,,,0,,1,,1.57542003E9
Raw,1932146569,147825000000,,,-1311853870175242516,0.0,7.18305493032771,,,0,25,0.0,16431,42817920321031,21,32.73715591430664,-733.419154945922,0.11126970142337678,1,-106958.41589753349,0.001976658822968602,1.57542003E9,,,,0,,1,,1.57542003E9
Raw,1932146569,147825000000,,,-1311853870175242516,0.0,7.18305493032771,,,0,31,0.0,16,14811473,1000000000,7.0,-854.0000913621902,2.99792458E8,4,-11969.80802993704,3.4028234663852886E38,1.57542003E9,,,,0,,1,,1.57542003E9
Raw,1932146569,147825000000,,,-1311853870175242516,0.0,7.18305493032771,,,0,32,0.0,16431,42817925945412,17,34.479400634765625,-442.44212508245005,0.08912529929157192,1,-64889.97230660875,0.0017155194655060768,1.57542003E9,,,,0,,1,,1.57542003E9
Raw,1932146570,147825000000,,,-1311853870175242516,0.0,7.18305493032771,,,0,10,0.0,32995,53599927271085,33,37.112335205078125,-893.4018650394287,0.06633758247198679,1,-128139.01777929187,0.0012489685323089361,1.59806246E9,,,,0,,3,,1.59806246E9
Raw,1932146570,147825000000,,,-1311853870175242516,0.0,7.18305493032771,,,0,9,0.0,32995,53599933534099,42,32.9959831237793,-346.4120431504534,0.10688944840812892,4,-51880.4226047612,3.4028234663852886E38,1.59862502E9,,,,0,,3,,1.59862502E9
Raw,1932146570,147825000000,,,-1311853870175242516,0.0,7.18305493032771,,,0,16,0.0,32995,53599928130577,101,25.397274017333984,370.8375082771777,0.25199534895666165,4,49070.073986560215,3.4028234663852886E38,1.60143744E9,,,,0,,3,,1.60143744E9
Raw,1932146570,147825000000,,,-1311853870175242516,0.0,7.18305493032771,,,0,23,0.0,32995,53599924918375,39,33.68724060058594,-235.45931549573777,0.09734893174362325,1,-34523.4298864657,0.001846206490881741,1.60368755E9,,,,0,,3,,1.60368755E9
Raw,1932146571,147825000000,,,-1311853870175242516,0.0,7.18305493032771,,,0,7,0.0,32995,53599932796199,33,36.9920654296875,-235.85140007557618,0.06823811211056979,1,-34611.673488998655,0.0012610562844201922,1.60481254E9,,,,0,,3,,1.60481254E9
Raw,1932146571,147825000000,,,-1311853870175242516,0.0,7.18305493032771,,,0,8,0.0,32995,53599925652367,33,37.39744567871094,-563.5091114111901,0.06394650593383897,1,-80475.9552873762,0.0012031319784000516,1.60537498E9,,,,0,,3,,1.60537498E9
Raw,1932146571,147825000000,,,-1311853870175242516,0.0,7.18305493032771,,,0,193,0.0,35,9095069,22,32.43402099609375,-238.50323672901823,0.11307245202226263,1,-34703.29252721693,0.0020468616858124733,1.57542003E9,,,,0,,4,,1.57542003E9
Raw,1932146571,147825000000,,,-1311853870175242516,0.0,7.18305493032771,,,0,194,0.0,35,12812187,29,30.207326889038086,-122.462586237822,0.1463044530680645,1,-18050.48271756587,0.0026449845172464848,1.57542003E9,,,,0,,4,,1.57542003E9
Raw,1932146572,147825000000,,,-1311853870175242516,0.0,7.18305493032771,,,0,1,0.0,16905,42803872736684,38,28.77302360534668,-111.54800331972893,0.38029857347671214,4,-3279.134000458432,3.4028234663852886E38,1.56109798E9,,,,0,,5,,1.56109798E9
Raw,1932146572,147825000000,,,-1311853870175242516,0.0,7.18305493032771,,,0,4,0.0,16905,42803869220010,29,30.93640899658203,-112.54241011246671,0.29628844681098565,4,-2935.6715454845485,3.4028234663852886E38,1.56109798E9,,,,0,,5,,1.56109798E9
Raw,1932146572,147825000000,,,-1311853870175242516,0.0,7.18305493032771,,,0,14,0.0,16431,42803925899738,17,28.76891326904297,61.6653928470279,0.1709961776675477,1,1889.7194502326558,0.00314999558031559,1.56109798E9,,,,0,,5,,1.56109798E9
Raw,1932146572,147825000000,,,-1311853870175242516,0.0,7.18305493032771,,,0,24,0.0,16431,42803924917533,11,32.376529693603516,-128.9161675453292,0.11306106069341015,1,-4585.001318662087,0.002205491531640291,1.56109798E9,,,,0,,5,,1.56109798E9
Raw,1932146573,147825000000,,,-1311853870175242516,0.0,7.18305493032771,,,0,26,0.0,51,18199071,8,34.8217658996582,350.09611812337357,0.08792613102453462,4,6992.127998375131,3.4028234663852886E38,1.56109798E9,,,,0,,5,,1.56109798E9
Raw,1932146573,147825000000,,,-1311853870175242516,0.0,7.18305493032771,,,0,27,0.0,16431,42803914476718,8,35.03859329223633,3.0807513215912277,0.08516952097227087,1,35.54181701410411,0.001623312826268375,1.56109798E9,,,,0,,5,,1.56109798E9
Raw,1932146574,147825000000,,,-1311853870175242516,0.0,7.18305493032771,,,0,33,0.0,16431,42803926256439,25,25.46947479248047,-183.37053483139402,0.24958436463598677,4,-7379.6793354755455,3.4028234663852886E38,1.56109798E9,,,,0,,5,,1.56109798E9
Fix,gps,34.486716,109.464180,363.406281,0.206898,3.000000,1627818801000
Raw,1932147557,148825000000,,,-1311853870175242902,0.0,7.19522587671813,,,0,10,0.0,16431,42818930567486,6,42.729373931884766,-456.1304235185107,0.03596200914164388,1,-67690.02465647027,6.994808209128678E-4,1.57542003E9,,,,0,,1,,1.57542003E9
Raw,1932147558,148825000000,,,-1311853870175242902,0.0,7.19522587671813,,,0,12,0.0,16431,42818922009033,15,35.6820182800293,-582.2946116325197,0.07703172705085659,4,-86105.43644909565,3.4028234663852886E38,1.57542003E9,,,,0,,1,,1.57542003E9
Raw,1932147558,148825000000,,,-1311853870175242902,0.0,7.19522587671813,,,0,15,0.0,16431,42818919367642,39,27.572925567626953,415.2909836602271,0.1985050802394679,1,60403.85236337369,0.0035821450874209404,1.57542003E9,,,,0,,1,,1.57542003E9
Raw,1932147558,148825000000,,,-1311853870175242902,0.0,7.19522587671813,,,0,18,0.0,16431,42818924826734,46,26.2041015625,523.7546183913971,0.22917734401653378,1,72128.65703704237,0.004193574655801058,1.57542003E9,,,,0,,1,,1.57542003E9
Raw,1932147559,148825000000,,,-1311853870175242902,0.0,7.19522587671813,,,0,23,0.0,16431,42818932544436,13,37.09931945800781,-26.86645918350206,0.06738362931203856,1,-5029.769054650876,0.0012688193237408996,1.57542003E9,,,,0,,1,,1.57542003E9
Raw,1932147559,148825000000,,,-1311853870175242902,0.0,7.19522587671813,,,0,24,0.0,16431,42818929083642,41,27.02766990661621,362.08451995790256,0.20929013078452707,4,52147.18531035133,3.4028234663852886E38,1.57542003E9,,,,0,,1,,1.57542003E9
Raw,1932147559,148825000000,,,-1311853870175242902,0.0,7.19522587671813,,,0,25,0.0,16431,42818920323454,17,34.81409454345703,-733.3673496120073,0.08838304895729354,1,-107691.78340270578,0.0016506726387888193,1.57542003E9,,,,0,,1,,1.57542003E9
Raw,1932147560,148825000000,,,-1311853870175242902,0.0,7.19522587671813,,,0,31,0.0,16,14814261,1000000000,7.0,-854.0000913621902,2.99792458E8,4,-12823.808428544697,3.4028234663852886E38,1.57542003E9,,,,0,,1,,1.57542003E9
Raw,1932147560,148825000000,,,-1311853870175242902,0.0,7.19522587671813,,,0,32,0.0,16431,42818925946867,14,36.09233093261719,-442.3923306134702,0.07420242550929029,1,-65332.39729815319,0.001424784422852099,1.57542003E9,,,,0,,1,,1.57542003E9
Raw,1932147560,148825000000,,,-1311853870175242902,0.0,7.19522587671813,,,0,10,0.0,32995,53600927274031,33,37.7929573059082,-893.3198626490348,0.061436947926348295,1,-129032.34579108979,0.0011548365000635386,1.59806246E9,,,,0,,3,,1.59806246E9
Raw,1932147561,148825000000,,,-1311853870175242902,0.0,7.19522587671813,,,0,9,0.0,32995,53600933535288,166,29.963253021240234,-346.199948023512,0.1505382996325021,4,-52226.63965610136,3.4028234663852886E38,1.59862502E9,,,,1,,3,,1.59862502E9
Raw,1932147561,148825000000,,,-1311853870175242902,0.0,7.19522587671813,,,0,16,0.0,32995,53600928129284,67,28.985769271850586,370.5488298704295,0.16720708386217853,4,49440.50909944305,3.4028234663852886E38,1.60143744E9,,,,0,,3,,1.60143744E9
Raw,1932147564,148825000000,,,-1311853870175242902,0.0,7.19522587671813,,,0,23,0.0,32995,53600924919093,43,32.71315002441406,-235.3198160011899,0.10879714235214799,1,-34758.76452689694,0.001947190728969872,1.60368755E9,,,,0,,3,,1.60368755E9
Raw,1932147564,148825000000,,,-1311853870175242902,0.0,7.19522587671813,,,0,7,0.0,32995,53600932797016,33,36.98127746582031,-235.828701159532,0.06832018542841958,1,-34847.48505294385,0.0012626235838979483,1.60481254E9,,,,0,,3,,1.60481254E9
Raw,1932147565,148825000000,,,-1311853870175242902,0.0,7.19522587671813,,,0,8,0.0,32995,53600925654197,33,36.85871505737305,-563.4983072724724,0.06797354870599392,1,-81039.45703755548,0.0012801173143088818,1.60537498E9,,,,0,,3,,1.60537498E9
Raw,1932147565,148825000000,,,-1311853870175242902,0.0,7.19522587671813,,,0,193,0.0,35,9095869,26,31.045133590698242,-238.29359553894642,0.13239514960537357,1,-34941.68305664848,0.0024017775431275368,1.57542003E9,,,,0,,4,,1.57542003E9
Raw,1932147565,148825000000,,,-1311853870175242902,0.0,7.19522587671813,,,0,194,0.0,35,12812644,15,35.76383972167969,-122.38058384742811,0.07825617424926995,1,-18172.85021066646,0.0014797000912949443,1.57542003E9,,,,0,,4,,1.57542003E9
Raw,1932147566,148825000000,,,-1311853870175242902,0.0,7.19522587671813,,,0,1,0.0,16905,42804872737078,26,31.961076736450195,-111.55078956054967,0.2636157358811947,4,-3392.154139919479,3.4028234663852886E38,1.56109798E9,,,,0,,5,,1.56109798E9
Raw,1932147566,148825000000,,,-1311853870175242902,0.0,7.19522587671813,,,0,4,0.0,16905,42804869220376,166,30.672218322753906,-112.38490656026067,0.3054320975663469,4,-3048.227381861372,3.4028234663852886E38,1.56109798E9,,,,1,,5,,1.56109798E9
Raw,1932147566,148825000000,,,-1311853870175242902,0.0,7.19522587671813,,,0,14,0.0,16431,42804925899569,24,25.58036231994629,61.906930956097995,0.2463683653400297,4,1951.542863241739,3.4028234663852886E38,1.56109798E9,,,,0,,5,,1.56109798E9
Raw,1932147567,148825000000,,,-1311853870175242902,0.0,7.19522587671813,,,0,24,0.0,16431,42804924917950,13,30.604875564575195,-128.79629102512433,0.13844222279720342,1,-4713.804204470488,0.0025498338509351015,1.56109798E9,,,,0,,5,,1.56109798E9
Raw,1932147567,148825000000,,,-1311853870175242902,0.0,7.19522587671813,,,0,26,0.0,51,18197897,12,31.259601593017578,349.89288443512805,0.13084329947317042,4,7342.339824904784,3.4028234663852886E38,1.56109798E9,,,,0,,5,,1.56109798E9
Raw,1932147567,148825000000,,,-1311853870175242902,0.0,7.19522587671813,,,0,27,0.0,16431,42804914476712,9,33.812408447265625,3.151831349746315,0.0976881503727896,1,38.697892452122694,0.001869439729489386,1.56109798E9,,,,0,,5,,1.56109798E9
Raw,1932147568,148825000000,,,-1311853870175242902,0.0,7.19522587671813,,,0,33,0.0,16431,42804926257063,20,27.199052810668945,-183.15377040790895,0.2047245460910242,4,-7562.882609783073,3.4028234663852886E38,1.56109798E9,,,,0,,5,,1.56109798E9
Fix,gps,34.486717,109.464180,363.449829,0.140652,3.000000,1627818802000
Raw,1932148510,149825000000,,,-1311853870175243287,0.0,6.802848053019025,,,0,10,0.0,16431,42819930568991,6,43.560028076171875,-455.99702478368044,0.03285583548607511,1,-68146.10074315962,6.356866215355694E-4,1.57542003E9,,,,0,,1,,1.57542003E9
Raw,1932148510,149825000000,,,-1311853870175243287,0.0,6.802848053019025,,,0,12,0.0,16431,42819922010965,20,33.32173156738281,-582.0168396118588,0.10097185693161925,4,-86687.56694699884,3.4028234663852886E38,1.57542003E9,,,,0,,1,,1.57542003E9
Raw,1932148510,149825000000,,,-1311853870175243287,0.0,6.802848053019025,,,0,15,0.0,16431,42819919366274,33,29.059329986572266,415.27090909333515,0.167830569816098,1,60819.07116858317,0.003018721239641309,1.57542003E9,,,,0,,1,,1.57542003E9
Raw,1932148511,149825000000,,,-1311853870175243287,0.0,6.802848053019025,,,0,18,0.0,16431,42819924824954,58,24.177631378173828,523.7353277210052,0.2891693738538368,4,72652.34036180448,3.4028234663852886E38,1.57542003E9,,,,0,,1,,1.57542003E9
Raw,1932148511,149825000000,,,-1311853870175243287,0.0,6.802848053019025,,,0,23,0.0,16431,42819932544500,14,36.32123947143555,-26.404092318006548,0.07348701011697628,4,-5056.588132157216,3.4028234663852886E38,1.57542003E9,,,,0,,1,,1.57542003E9
Raw,1932148511,149825000000,,,-1311853870175243287,0.0,6.802848053019025,,,0,24,0.0,16431,42819929082372,28,30.30318260192871,363.0602666056941,0.14405311376956897,4,52509.63480880285,3.4028234663852886E38,1.57542003E9,,,,0,,1,,1.57542003E9
Raw,1932148511,149825000000,,,-1311853870175243287,0.0,6.802848053019025,,,0,25,0.0,16431,42819920325891,12,37.85989761352539,-733.1460863042612,0.06332303662174396,1,-108425.15418993514,0.001162440748885274,1.57542003E9,,,,0,,1,,1.57542003E9
Raw,1932148511,149825000000,,,-1311853870175243287,0.0,6.802848053019025,,,0,31,0.0,16,14817171,1000000000,7.0,-854.0000913621902,2.99792458E8,4,-13677.808827152234,3.4028234663852886E38,1.57542003E9,,,,0,,1,,1.57542003E9
Raw,1932148511,149825000000,,,-1311853870175243287,0.0,6.802848053019025,,,0,32,0.0,16431,42819925948379,15,35.61587142944336,-442.49652068306045,0.07832642771128706,1,-65774.81946520036,0.0015051235677674413,1.57542003E9,,,,0,,1,,1.57542003E9
Raw,1932148512,149825000000,,,-1311853870175243287,0.0,6.802848053019025,,,0,10,0.0,32995,53601927277003,33,40.56482696533203,-893.1911672932047,0.04500952839793093,1,-129925.65953400664,8.393187308683991E-4,1.59806246E9,,,,0,,3,,1.59806246E9
Raw,1932148512,149825000000,,,-1311853870175243287,0.0,6.802848053019025,,,0,9,0.0,32995,53601933536471,166,27.703378677368164,-346.3521943567994,0.1945490689346242,4,-52572.74516737725,3.4028234663852886E38,1.59862502E9,,,,1,,3,,1.59862502E9
Raw,1932148512,149825000000,,,-1311853870175243287,0.0,6.802848053019025,,,0,16,0.0,32995,53601928128058,46,32.131614685058594,371.33773649156296,0.11684660979016637,4,49811.376428772164,3.4028234663852886E38,1.60143744E9,,,,0,,3,,1.60143744E9
Raw,1932148512,149825000000,,,-1311853870175243287,0.0,6.802848053019025,,,0,23,0.0,32995,53601924919867,33,38.67929458618164,-235.21138266576259,0.05518045401533728,1,-34994.00875717751,0.0010391484247520566,1.60368755E9,,,,0,,3,,1.60368755E9
Raw,1932148512,149825000000,,,-1311853870175243287,0.0,6.802848053019025,,,0,7,0.0,32995,53601932797737,34,34.7700080871582,-235.93464647563314,0.08746048445483906,1,-35083.28415154047,0.001628686091862619,1.60481254E9,,,,0,,3,,1.60481254E9
Raw,1932148512,149825000000,,,-1311853870175243287,0.0,6.802848053019025,,,0,8,0.0,32995,53601925656067,34,34.66359329223633,-563.6482700811728,0.08722562670694933,1,-81602.98287837363,0.0016481848433613777,1.60537498E9,,,,0,,3,,1.60537498E9
Raw,1932148513,149825000000,,,-1311853870175243287,0.0,6.802848053019025,,,0,193,0.0,35,9096668,35,28.418012619018555,-237.98308731879536,0.1785769780447285,1,-35180.12495763066,0.0032500415109097958,1.57542003E9,,,,0,,4,,1.57542003E9
Raw,1932148513,149825000000,,,-1311853870175243287,0.0,6.802848053019025,,,0,194,0.0,35,12813066,10,38.80933380126953,-122.09613166528874,0.05579339737345246,1,-18295.21847794125,0.0010420752223581076,1.57542003E9,,,,0,,4,,1.57542003E9
Raw,1932148513,149825000000,,,-1311853870175243287,0.0,6.802848053019025,,,0,1,0.0,16905,42805872737454,26,31.852855682373047,-112.01677342674367,0.26691472795580373,4,-3505.1198444130123,3.4028234663852886E38,1.56109798E9,,,,0,,5,,1.56109798E9
Raw,1932148513,149825000000,,,-1311853870175243287,0.0,6.802848053019025,,,0,4,0.0,16905,42805869220752,36,29.254425048828125,-112.0820839340555,0.3595484483620781,4,-3160.7084283429967,3.4028234663852886E38,1.56109798E9,,,,0,,5,,1.56109798E9
Raw,1932148513,149825000000,,,-1311853870175243287,0.0,6.802848053019025,,,0,14,0.0,16431,42805925899336,15,29.49657440185547,62.358612971473605,0.15733979665321307,4,2013.4895396410154,3.4028234663852886E38,1.56109798E9,,,,0,,5,,1.56109798E9
Raw,1932148513,149825000000,,,-1311853870175243287,0.0,6.802848053019025,,,0,24,0.0,16431,42805924918368,14,30.3404598236084,-128.32269825051162,0.1426942089503177,1,-4842.479146974552,0.002788103651255369,1.56109798E9,,,,0,,5,,1.56109798E9
Raw,1932148514,149825000000,,,-1311853870175243287,0.0,6.802848053019025,,,0,26,0.0,51,18196749,17,28.395416259765625,350.6282475170642,0.1806747965124511,4,7692.935911396454,3.4028234663852886E38,1.56109798E9,,,,0,,5,,1.56109798E9
Raw,1932148514,149825000000,,,-1311853870175243287,0.0,6.802848053019025,,,0,27,0.0,16431,42805914476703,12,31.584766387939453,3.1431459149860217,0.12548652083961104,1,41.900518704004746,0.0022778091952204704,1.56109798E9,,,,0,,5,,1.56109798E9
Raw,1932148514,149825000000,,,-1311853870175243287,0.0,6.802848053019025,,,0,33,0.0,16431,42805926257625,12,31.792524337768555,-183.656265105653,0.1211037549088676,4,-7746.1534849588525,3.4028234663852886E38,1.56109798E9,,,,0,,5,,1.56109798E9
Fix,gps,34.486717,109.464180,363.450989,0.000000,3.000000,1627818803000
Raw,1932149468,150825000000,,,-1311853870175243672,0.0,6.772236977645681,,,0,10,0.0,16431,42820930570530,6,43.995731353759766,-456.0652578616391,0.03190137692701615,4,-68602.15128575993,3.4028234663852886E38,1.57542003E9,,,,0,,1,,1.57542003E9
Raw,1932149468,150825000000,,,-1311853870175243672,0.0,6.772236977645681,,,0,12,0.0,16431,42820922012892,14,36.220481872558594,-581.397084222448,0.07242372234676941,4,-87269.37680588839,3.4028234663852886E38,1.57542003E9,,,,0,,1,,1.57542003E9
Raw,1932149468,150825000000,,,-1311853870175243672,0.0,6.772236977645681,,,0,15,0.0,16431,42820919364904,42,26.82256507873535,415.3307919694457,0.2161013299889064,4,61234.78506691541,3.4028234663852886E38,1.57542003E9,,,,0,,1,,1.57542003E9
Raw,1932149468,150825000000,,,-1311853870175243672,0.0,6.772236977645681,,,0,18,0.0,16431,42820924823206,61,22.590002059936523,523.9512741655337,4.200867527444709,4,73176.180569675,3.4028234663852886E38,1.57542003E9,,,,0,,1,,1.57542003E9
Raw,1932149469,150825000000,,,-1311853870175243672,0.0,6.772236977645681,,,0,23,0.0,16431,42820932544589,15,35.66376495361328,-26.59195694851381,0.0790880907338144,4,-5083.011498058232,3.4028234663852886E38,1.57542003E9,,,,0,,1,,1.57542003E9
Raw,1932149469,150825000000,,,-1311853870175243672,0.0,6.772236977645681,,,0,24,0.0,16431,42820929081148,45,26.329620361328125,362.6971861963566,0.22666705792922237,4,52872.76355047069,3.4028234663852886E38,1.57542003E9,,,,0,,1,,1.57542003E9
Raw,1932149469,150825000000,,,-1311853870175243672,0.0,6.772236977645681,,,0,25,0.0,16431,42820920328337,12,37.83533477783203,-733.2918910532658,0.0634924337530651,4,-109158.48270926357,3.4028234663852886E38,1.57542003E9,,,,0,,1,,1.57542003E9
Raw,1932149469,150825000000,,,-1311853870175243672,0.0,6.772236977645681,,,0,31,0.0,16,14820533,1000000000,7.0,-854.0000913621902,2.99792458E8,4,-14531.80922575989,3.4028234663852886E38,1.57542003E9,,,,1,,1,,1.57542003E9
Raw,1932149470,150825000000,,,-1311853870175243672,0.0,6.772236977645681,,,0,32,0.0,16431,42820925949822,12,37.24079895019531,-442.54464511167066,0.06514519574842265,4,-66217.34164768786,3.4028234663852886E38,1.57542003E9,,,,0,,1,,1.57542003E9
Raw,1932149470,150825000000,,,-1311853870175243672,0.0,6.772236977645681,,,0,10,0.0,32995,53602927280008,33,40.48468780517578,-893.1728309315954,0.045415122944011954,4,-130818.84357983232,3.4028234663852886E38,1.59806246E9,,,,0,,3,,1.59806246E9
Raw,1932149470,150825000000,,,-1311853870175243672,0.0,6.772236977645681,,,0,9,0.0,32995,53602933537557,58,30.11979103088379,-345.7992064997168,0.14789351431979159,4,-52918.33089168116,3.4028234663852886E38,1.59862502E9,,,,0,,3,,1.59862502E9
Raw,1932149470,150825000000,,,-1311853870175243672,0.0,6.772236977645681,,,0,16,0.0,32995,53602928126800,70,28.509721755981445,371.42420368376133,0.17654416254340144,4,50182.775138203215,3.4028234663852886E38,1.60143744E9,,,,0,,3,,1.60143744E9
Raw,1932149470,150825000000,,,-1311853870175243672,0.0,6.772236977645681,,,0,23,0.0,32995,53602924920679,33,41.16786193847656,-235.32230402051607,0.041654615632633035,4,-35229.2806893308,3.4028234663852886E38,1.60368755E9,,,,0,,3,,1.60368755E9
Raw,1932149471,150825000000,,,-1311853870175243672,0.0,6.772236977645681,,,0,7,0.0,32995,53602932798525,51,31.23273468017578,-235.41969464003,0.13026729264447534,4,-35318.818068619876,3.4028234663852886E38,1.60481254E9,,,,0,,3,,1.60481254E9
Raw,1932149471,150825000000,,,-1311853870175243672,0.0,6.772236977645681,,,0,8,0.0,32995,53602925657987,33,37.54032897949219,-563.6831023517391,0.0629207621196455,4,-82166.62714710401,3.4028234663852886E38,1.60537498E9,,,,0,,3,,1.60537498E9
Raw,1932149471,150825000000,,,-1311853870175243672,0.0,6.772236977645681,,,0,193,0.0,35,9097460,28,30.44723129272461,-238.46649584088664,0.14171342302494083,4,-35418.334225324914,3.4028234663852886E38,1.57542003E9,,,,0,,4,,1.57542003E9
Raw,1932149471,150825000000,,,-1311853870175243672,0.0,6.772236977645681,,,0,194,0.0,35,12813462,10,39.35922622680664,-122.17424865563902,0.05251214964418885,4,-18417.48100024623,3.4028234663852886E38,1.57542003E9,,,,0,,4,,1.57542003E9
Raw,1932149472,150825000000,,,-1311853870175243672,0.0,6.772236977645681,,,0,1,0.0,16905,42806872737822,33,30.04634666442871,-111.96557305643228,0.32850924899718437,4,-3617.5181325653775,3.4028234663852886E38,1.56109798E9,,,,0,,5,,1.56109798E9
Raw,1932149472,150825000000,,,-1311853870175243672,0.0,6.772236977645681,,,0,4,0.0,16905,42806869221129,34,29.74333381652832,-112.12576912270362,0.33988143975151175,4,-3272.914996743064,3.4028234663852886E38,1.56109798E9,,,,0,,5,,1.56109798E9
Raw,1932149472,150825000000,,,-1311853870175243672,0.0,6.772236977645681,,,0,14,0.0,16431,42806925899127,11,32.27063751220703,61.70940181901298,0.11461355153585556,4,2075.5525283610323,3.4028234663852886E38,1.56109798E9,,,,0,,5,,1.56109798E9
Raw,1932149472,150825000000,,,-1311853870175243672,0.0,6.772236977645681,,,0,24,0.0,16431,42806924918799,12,31.708036422729492,-128.11543431178228,0.1220356305121153,4,-4970.494573255528,3.4028234663852886E38,1.56109798E9,,,,0,,5,,1.56109798E9
Raw,1932149472,150825000000,,,-1311853870175243672,0.0,6.772236977645681,,,0,26,0.0,51,18195592,18,28.07179069519043,351.101584673253,0.18740899399498911,4,8044.216991490959,3.4028234663852886E38,1.56109798E9,,,,0,,5,,1.56109798E9
Raw,1932149473,150825000000,,,-1311853870175243672,0.0,6.772236977645681,,,0,27,0.0,16431,42806914476715,11,32.45817184448242,3.161084736692258,0.11373106054673454,4,45.08013191943848,3.4028234663852886E38,1.56109798E9,,,,0,,5,,1.56109798E9
Raw,1932149473,150825000000,,,-1311853870175243672,0.0,6.772236977645681,,,0,33,0.0,16431,42806926258224,9,33.550140380859375,-183.08821280278733,0.0991246393777388,4,-7929.220223175029,3.4028234663852886E38,1.56109798E9,,,,0,,5,,1.56109798E9
Fix,gps,34.486717,109.464180,363.396027,0.000000,3.000000,1627818804000
Raw,1932150475,151825000000,,,-1311853870175244059,0.0,6.7776281724693,,,0,10,0.0,16431,42821930572084,7,42.511329650878906,-456.02599487172483,0.03682870703933905,4,-69058.1347602678,3.4028234663852886E38,1.57542003E9,,,,0,,1,,1.57542003E9
Raw,1932150475,151825000000,,,-1311853870175244059,0.0,6.7776281724693,,,0,12,0.0,16431,42821922014889,16,35.11603546142578,-581.4689982057112,0.08219505279581762,4,-87850.93479476555,3.4028234663852886E38,1.57542003E9,,,,0,,1,,1.57542003E9
Raw,1932150476,151825000000,,,-1311853870175244059,0.0,6.7776281724693,,,0,15,0.0,16431,42821919363526,58,24.128156661987305,415.6593127678691,0.29343131181798654,4,61651.037382839,3.4028234663852886E38,1.57542003E9,,,,0,,1,,1.57542003E9
Raw,1932150476,151825000000,,,-1311853870175244059,0.0,6.7776281724693,,,0,18,0.0,16431,42821924821462,85,18.066722869873047,523.8463683643565,4.200867261175517,4,73700.04379326278,3.4028234663852886E38,1.57542003E9,,,,0,,1,,1.57542003E9
Raw,1932150476,151825000000,,,-1311853870175244059,0.0,6.7776281724693,,,0,23,0.0,16431,42821932544705,20,33.28099822998047,-26.4650296201158,0.1033395808295739,4,-5109.405851400983,3.4028234663852886E38,1.57542003E9,,,,0,,1,,1.57542003E9
Raw,1932150476,151825000000,,,-1311853870175244059,0.0,6.7776281724693,,,0,24,0.0,16431,42821929079950,57,24.348175048828125,362.92005137955925,0.2843292323401614,4,53235.944401117646,3.4028234663852886E38,1.57542003E9,,,,0,,1,,1.57542003E9
Raw,1932150476,151825000000,,,-1311853870175244059,0.0,6.7776281724693,,,0,25,0.0,16431,42821920330818,12,37.34921646118164,-733.2469703755687,0.06693717492641768,4,-109891.63684992501,3.4028234663852886E38,1.57542003E9,,,,0,,1,,1.57542003E9
Raw,1932150477,151825000000,,,-1311853870175244059,0.0,6.7776281724693,,,0,31,0.0,16,14822806,1000000000,7.0,-854.0000913621902,2.99792458E8,4,-15385.663691223135,3.4028234663852886E38,1.57542003E9,,,,1,,1,,1.57542003E9
Raw,1932150477,151825000000,,,-1311853870175244059,0.0,6.7776281724693,,,0,32,0.0,16431,42821925951335,12,37.60237503051758,-442.4389554139934,0.06253291191890992,4,-66659.8546898205,3.4028234663852886E38,1.57542003E9,,,,0,,1,,1.57542003E9
Raw,1932150477,151825000000,,,-1311853870175244059,0.0,6.7776281724693,,,0,10,0.0,32995,53603927283005,33,41.00955581665039,-893.0720150252009,0.04282940362681589,4,-131711.85168310415,3.4028234663852886E38,1.59806246E9,,,,0,,3,,1.59806246E9
Raw,1932150477,151825000000,,,-1311853870175244059,0.0,6.7776281724693,,,0,9,0.0,32995,53603933538697,48,31.742938995361328,-345.61567247134144,0.12310031619557799,4,-53263.902379247396,3.4028234663852886E38,1.59862502E9,,,,0,,3,,1.59862502E9
Raw,1932150478,151825000000,,,-1311853870175244059,0.0,6.7776281724693,,,0,16,0.0,32995,53603928125652,75,27.956790924072266,371.2422033659295,0.1880518343907719,4,50553.94591375844,3.4028234663852886E38,1.60143744E9,,,,0,,3,,1.60143744E9
Raw,1932150478,151825000000,,,-1311853870175244059,0.0,6.7776281724693,,,0,23,0.0,32995,53603924921490,33,41.15549850463867,-235.4411495464111,0.04171282041373095,4,-35464.71534306178,3.4028234663852886E38,1.60368755E9,,,,0,,3,,1.60368755E9
Raw,1932150478,151825000000,,,-1311853870175244059,0.0,6.7776281724693,,,0,7,0.0,32995,53603932799343,49,31.660913467407227,-235.45464619919414,0.12411223065363353,4,-35554.33366664131,3.4028234663852886E38,1.60481254E9,,,,0,,3,,1.60481254E9
Raw,1932150478,151825000000,,,-1311853870175244059,0.0,6.7776281724693,,,0,8,0.0,32995,53603925659903,40,33.275604248046875,-563.5919999454536,0.10216396074416734,4,-82730.39170822571,3.4028234663852886E38,1.60537498E9,,,,0,,3,,1.60537498E9
Raw,1932150478,151825000000,,,-1311853870175244059,0.0,6.7776281724693,,,0,193,0.0,35,9098239,36,28.142162322998047,-238.32767799546923,0.18428678802176768,4,-35656.51887380191,3.4028234663852886E38,1.57542003E9,,,,0,,4,,1.57542003E9
Raw,1932150478,151825000000,,,-1311853870175244059,0.0,6.7776281724693,,,0,194,0.0,35,12813911,15,35.778289794921875,-122.06607093863562,0.07813014571252813,4,-18539.466439260577,3.4028234663852886E38,1.57542003E9,,,,0,,4,,1.57542003E9
Raw,1932150479,151825000000,,,-1311853870175244059,0.0,6.7776281724693,,,0,1,0.0,16905,42807872738227,24,32.63469696044922,-112.04741355515768,0.24398112890287926,4,-3729.7945491533073,3.4028234663852886E38,1.56109798E9,,,,0,,5,,1.56109798E9
Raw,1932150479,151825000000,,,-1311853870175244059,0.0,6.7776281724693,,,0,4,0.0,16905,42807869221522,51,26.278356552124023,-112.21124792366282,0.506388684969084,4,-3385.1804481011404,3.4028234663852886E38,1.56109798E9,,,,0,,5,,1.56109798E9
Raw,1932150479,151825000000,,,-1311853870175244059,0.0,6.7776281724693,,,0,14,0.0,16431,42807925898911,166,28.319059371948242,61.6638932189409,0.18002907708103433,4,2137.859734383014,3.4028234663852886E38,1.56109798E9,,,,1,,5,,1.56109798E9
Raw,1932150479,151825000000,,,-1311853870175244059,0.0,6.7776281724693,,,0,24,0.0,16431,42807924919272,14,30.298768997192383,-128.12040182982048,0.14337667353017314,4,-5098.551680586909,3.4028234663852886E38,1.56109798E9,,,,0,,5,,1.56109798E9
Raw,1932150479,151825000000,,,-1311853870175244059,0.0,6.7776281724693,,,0,26,0.0,51,18194432,27,24.635398864746094,351.0376119023597,0.2767734113415161,4,8395.812629601329,3.4028234663852886E38,1.56109798E9,,,,0,,5,,1.56109798E9
Raw,1932150479,151825000000,,,-1311853870175244059,0.0,6.7776281724693,,,0,27,0.0,16431,42807914476719,10,33.05222702026367,3.0972237988594085,0.10638481004369071,4,48.082718669804386,3.4028234663852886E38,1.56109798E9,,,,0,,5,,1.56109798E9
Raw,1932150480,151825000000,,,-1311853870175244059,0.0,6.7776281724693,,,0,33,0.0,16431,42807926258911,166,30.735597610473633,-183.02335388802442,0.1366286882960584,4,-8112.254907071252,3.4028234663852886E38,1.56109798E9,,,,1,,5,,1.56109798E9
Fix,gps,34.486719,109.464181,363.431610,0.479178,3.000000,1627818805000
Raw,1932151515,152825000000,,,-1311853870175244444,0.0,6.695358968911418,,,0,10,0.0,16431,42822930573548,6,44.00288391113281,-456.1409890800328,0.03190191986653962,4,-69514.34313727953,3.4028234663852886E38,1.57542003E9,,,,0,,1,,1.57542003E9
Raw,1932151516,152825000000,,,-1311853870175244444,0.0,6.695358968911418,,,0,12,0.0,16431,42822922016805,20,33.23240280151367,-581.4146026051008,0.10201296114980224,4,-88432.28207997173,3.4028234663852886E38,1.57542003E9,,,,0,,1,,1.57542003E9
Raw,1932151517,152825000000,,,-1311853870175244444,0.0,6.695358968911418,,,0,15,0.0,16431,42822919362111,37,27.962318420410156,415.9813238170966,0.1899542778391694,4,62067.098118722395,3.4028234663852886E38,1.57542003E9,,,,0,,1,,1.57542003E9
Raw,1932151518,152825000000,,,-1311853870175244444,0.0,6.695358968911418,,,0,18,0.0,16431,42822924819678,84,18.15831184387207,523.7352936385487,4.200866994906326,4,74223.65134121777,3.4028234663852886E38,1.57542003E9,,,,0,,1,,1.57542003E9
Raw,1932151518,152825000000,,,-1311853870175244444,0.0,6.695358968911418,,,0,23,0.0,16431,42822932544764,14,36.04772186279297,-26.287306650577605,0.07576578346311724,4,-5135.812216349012,3.4028234663852886E38,1.57542003E9,,,,0,,1,,1.57542003E9
Raw,1932151519,152825000000,,,-1311853870175244444,0.0,6.695358968911418,,,0,24,0.0,16431,42822929078760,71,20.744176864624023,363.2949924837667,4.201633051370514,4,53599.27064008304,3.4028234663852886E38,1.57542003E9,,,,0,,1,,1.57542003E9
Raw,1932151519,152825000000,,,-1311853870175244444,0.0,6.695358968911418,,,0,25,0.0,16431,42822920333245,15,35.93077850341797,-733.0669468402152,0.07816312980863566,4,-110624.66848622587,3.4028234663852886E38,1.57542003E9,,,,0,,1,,1.57542003E9
Raw,1932151519,152825000000,,,-1311853870175244444,0.0,6.695358968911418,,,0,31,0.0,16,14825654,1000000000,7.0,-853.814410139054,2.99792458E8,4,-16239.438718537553,3.4028234663852886E38,1.57542003E9,,,,1,,1,,1.57542003E9
Raw,1932151520,152825000000,,,-1311853870175244444,0.0,6.695358968911418,,,0,32,0.0,16431,42822925952811,9,39.650203704833984,-442.79412869341763,0.04962399845082627,4,-67102.83377437615,3.4028234663852886E38,1.57542003E9,,,,0,,1,,1.57542003E9
Raw,1932151520,152825000000,,,-1311853870175244444,0.0,6.695358968911418,,,0,10,0.0,32995,53604927286013,166,31.024751663208008,-893.1994834125962,0.13237680199389096,4,-132604.9300834941,3.4028234663852886E38,1.59806246E9,,,,1,,3,,1.59806246E9
Raw,1932151520,152825000000,,,-1311853870175244444,0.0,6.695358968911418,,,0,9,0.0,32995,53604933539779,47,32.01962661743164,-345.5577663777092,0.11931732161887854,4,-53609.33745761507,3.4028234663852886E38,1.59862502E9,,,,0,,3,,1.59862502E9
Raw,1932151521,152825000000,,,-1311853870175244444,0.0,6.695358968911418,,,0,16,0.0,32995,53604928124415,59,29.991626739501953,371.36622942521603,0.14908199021460433,4,50925.39409898568,3.4028234663852886E38,1.60143744E9,,,,0,,3,,1.60143744E9
Raw,1932151521,152825000000,,,-1311853870175244444,0.0,6.695358968911418,,,0,23,0.0,32995,53604924922241,33,36.61965560913086,-235.52277702978324,0.06971028534764742,4,-35700.33180600835,3.4028234663852886E38,1.60368755E9,,,,0,,3,,1.60368755E9
Raw,1932151521,152825000000,,,-1311853870175244444,0.0,6.695358968911418,,,0,7,0.0,32995,53604932800233,33,34.977272033691406,-235.5852331313613,0.08545293956397582,4,-35789.982212112955,3.4028234663852886E38,1.60481254E9,,,,0,,3,,1.60481254E9
Raw,1932151522,152825000000,,,-1311853870175244444,0.0,6.695358968911418,,,0,8,0.0,32995,53604925661745,41,33.143001556396484,-564.1449878025362,0.10372027920624177,4,-83294.61553638426,3.4028234663852886E38,1.60537498E9,,,,0,,3,,1.60537498E9
Raw,1932151522,152825000000,,,-1311853870175244444,0.0,6.695358968911418,,,0,193,0.0,35,9099016,48,25.846986770629883,-238.31155699353394,0.23952827592836345,4,-35894.596459794935,3.4028234663852886E38,1.57542003E9,,,,0,,4,,1.57542003E9
Raw,1932151522,152825000000,,,-1311853870175244444,0.0,6.695358968911418,,,0,194,0.0,35,12814276,16,35.33654022216797,-121.9051591407773,0.08208631511470432,4,-18661.316649603305,3.4028234663852886E38,1.57542003E9,,,,0,,4,,1.57542003E9
Raw,1932151523,152825000000,,,-1311853870175244444,0.0,6.695358968911418,,,0,1,0.0,16905,42808872738595,29,31.065011978149414,-112.01564870567842,0.29221030115632707,4,-3841.9697404722965,3.4028234663852886E38,1.56109798E9,,,,0,,5,,1.56109798E9
Raw,1932151524,152825000000,,,-1311853870175244444,0.0,6.695358968911418,,,0,4,0.0,16905,42808869221890,70,23.484630584716797,-112.11419812871412,0.6984229578819643,4,-3497.4003471652227,3.4028234663852886E38,1.56109798E9,,,,0,,5,,1.56109798E9
Raw,1932151524,152825000000,,,-1311853870175244444,0.0,6.695358968911418,,,0,14,0.0,16431,42808925898705,166,25.83139991760254,61.913594076348204,0.23937988077952854,4,2200.155823094241,3.4028234663852886E38,1.56109798E9,,,,1,,5,,1.56109798E9
Raw,1932151524,152825000000,,,-1311853870175244444,0.0,6.695358968911418,,,0,24,0.0,16431,42808924919678,15,29.912059783935547,-128.19610748637177,0.14986403947211235,4,-5226.612363143367,3.4028234663852886E38,1.56109798E9,,,,0,,5,,1.56109798E9
Raw,1932151525,152825000000,,,-1311853870175244444,0.0,6.695358968911418,,,0,26,0.0,51,18193275,25,25.510845184326172,350.94940650487865,0.2505508885177894,4,8747.245504979815,3.4028234663852886E38,1.56109798E9,,,,0,,5,,1.56109798E9
Raw,1932151525,152825000000,,,-1311853870175244444,0.0,6.695358968911418,,,0,27,0.0,16431,42808914476708,6,39.10059356689453,2.804770760051303,0.05432879616651051,4,50.71832458511548,3.4028234663852886E38,1.56109798E9,,,,0,,5,,1.56109798E9
Raw,1932151526,152825000000,,,-1311853870175244444,0.0,6.695358968911418,,,0,33,0.0,16431,42808926259513,13,30.949031829833984,-183.01911062218733,0.1333397562043439,4,-8295.30839571214,3.4028234663852886E38,1.56109798E9,,,,0,,5,,1.56109798E9
Raw,1932152399,153825000000,,,-1311853870175244831,0.0,6.661871767844076,,,0,10,0.0,16431,42823930575119,6,42.661338806152344,-456.1827060068167,0.036231232257072477,4,-69970.47260623095,3.4028234663852886E38,1.57542003E9,,,,0,,1,,1.57542003E9
Raw,1932152399,153825000000,,,-1311853870175244831,0.0,6.661871767844076,,,0,12,0.0,16431,42823922018728,13,36.77787399291992,-580.9376527085205,0.06794569445228052,4,-89013.28259996227,3.4028234663852886E38,1.57542003E9,,,,0,,1,,1.57542003E9
Raw,1932152400,153825000000,,,-1311853870175244831,0.0,6.661871767844076,,,0,15,0.0,16431,42823919360739,35,28.448862075805664,416.0502044617292,0.17979590847832871,4,62482.9143674562,3.4028234663852886E38,1.57542003E9,,,,0,,1,,1.57542003E9
