# 
# Header Description:
# 
# Version: v2.0.0.1 Platform: 10 Manufacturer: HUAWEI Model: BLA-AL00
# 
# Raw,ElapsedRealtimeMillis,TimeNanos,LeapSecond,TimeUncertaintyNanos,FullBiasNanos,BiasNanos,BiasUncertaintyNanos,DriftNanosPerSecond,DriftUncertaintyNanosPerSecond,HardwareClockDiscontinuityCount,Svid,TimeOffsetNanos,State,ReceivedSvTimeNanos,ReceivedSvTimeUncertaintyNanos,Cn0DbHz,PseudorangeRateMetersPerSecond,PseudorangeRateUncertaintyMetersPerSecond,AccumulatedDeltaRangeState,AccumulatedDeltaRangeMeters,AccumulatedDeltaRangeUncertaintyMeters,CarrierFrequencyHz,CarrierCycles,CarrierPhase,CarrierPhaseUncertainty,MultipathIndicator,SnrInDb,ConstellationType,AgcDb,CarrierFrequencyHz
# 
# Fix,Provider,Latitude,Longitude,Altitude,Speed,Accuracy,(UTC)TimeInMs
# 
# Nav,Svid,Type,Status,MessageId,Sub-messageId,Data(Bytes)
# 
Fix,gps,34.486403,109.464240,360.220917,0.715457,4.000000,1627820189999
Raw,1933536542,1537824000000,,,-1311853870175780397,0.0,9.876602113452051,,,0,10,0.0,16431,44207931453371,6,42.89324188232422,-352.9205994603319,0.03548477570165828,1,-633152.038186436,6.86408020555973E-4,1.57542003E9,,,,0,,1,,1.57542003E9
Raw,1933536543,1537824000000,,,-1311853870175780397,0.0,9.876602113452051,,,0,12,0.0,16431,44207923493178,166,28.69431495666504,-482.6722728654754,0.17202903586170382,4,-781071.7532578312,3.4028234663852886E38,1.57542003E9,,,,1,,1,,1.57542003E9
Raw,1933536543,1537824000000,,,-1311853870175780397,0.0,9.876602113452051,,,0,15,0.0,16431,44207916442550,23,32.217979431152344,415.114572865265,0.11720054811308,4,737205.8153397826,3.4028234663852886E38,1.57542003E9,,,,0,,1,,1.57542003E9
Raw,1933536543,1537824000000,,,-1311853870175780397,0.0,9.876602113452051,,,0,18,0.0,16431,44207921294656,7,42.319034576416016,562.7020047582735,0.035941793485364054,1,831168.5409919252,7.33318564016372E-4,1.57542003E9,,,,0,,1,,1.57542003E9
Raw,1933536544,1537824000000,,,-1311853870175780397,0.0,9.876602113452051,,,0,23,0.0,16431,44207931364467,18,34.05218505859375,105.82313049452182,0.09453938404770762,1,48893.84962989826,0.001802006852813065,1.57542003E9,,,,0,,1,,1.57542003E9
Raw,1933536544,1537824000000,,,-1311853870175780397,0.0,9.876602113452051,,,0,24,0.0,16431,44207926173781,40,27.247665405273438,455.7617535863035,0.20357324803208643,4,571410.6919224081,3.4028234663852886E38,1.57542003E9,,,,0,,1,,1.57542003E9
Raw,1933536544,1537824000000,,,-1311853870175780397,0.0,9.876602113452051,,,0,25,0.0,16431,44207922680444,8,40.56173324584961,-708.0880507844736,0.044198281059383226,4,-866521.4269477105,3.4028234663852886E38,1.57542003E9,,,,0,,1,,1.57542003E9
Raw,1933536544,1537824000000,,,-1311853870175780397,0.0,9.876602113452051,,,0,31,0.0,16,1537017732623,1000000000,7.0,-832.6500226173453,2.99792458E8,2,-14.14289234098076,3.4028234663852886E38,1.57542003E9,,,,0,,1,,1.57542003E9
Raw,1933536545,1537824000000,,,-1311853870175780397,0.0,9.876602113452051,,,0,32,0.0,16431,44207926902161,7,42.38947296142578,-401.9012134608497,0.0366620266858633,4,-651587.018140353,3.4028234663852886E38,1.57542003E9,,,,0,,1,,1.57542003E9
Raw,1933536545,1537824000000,,,-1311853870175780397,0.0,9.876602113452051,,,0,10,0.0,32995,54989930189342,33,39.25091552734375,-786.9645345959093,0.052670147125745276,1,-1302854.5761201659,9.76388284470886E-4,1.59806246E9,,,,0,,3,,1.59806246E9
Raw,1933536545,1537824000000,,,-1311853870175780397,0.0,9.876602113452051,,,0,9,0.0,32995,54989933616165,46,32.20604705810547,-118.01859177304101,0.11684923087752103,1,-376411.0091194627,0.002067883498966694,1.59862502E9,,,,0,,3,,1.59862502E9
Raw,1933536546,1537824000000,,,-1311853870175780397,0.0,9.876602113452051,,,0,16,0.0,99,1925029269,68,21.290904998779297,528.1751811673187,4.200904805131531,4,540073.8263332993,3.4028234663852886E38,1.60143744E9,,,,0,,3,,1.60143744E9
Raw,1933536546,1537824000000,,,-1311853870175780397,0.0,9.876602113452051,,,0,23,0.0,32961,54989924504099,33,36.77676010131836,-18.645478839166216,0.06840141833413343,4,-7233.730821688981,3.4028234663852886E38,1.60368755E9,,,,0,,3,,1.60368755E9
Raw,1933536546,1537824000000,,,-1311853870175780397,0.0,9.876602113452051,,,0,7,0.0,32995,54989932760258,38,33.78105163574219,-176.5710677138651,0.0977232646224298,4,-323724.00965209136,3.4028234663852886E38,1.60481254E9,,,,0,,3,,1.60481254E9
Raw,1933536547,1537824000000,,,-1311853870175780397,0.0,9.876602113452051,,,0,8,0.0,16,7265465,1000000000,17.754554748535156,-561.6946295908288,2.99792458E8,4,-524291.9277629441,3.4028234663852886E38,1.60537498E9,,,,0,,3,,1.60537498E9
Raw,1933536547,1537824000000,,,-1311853870175780397,0.0,9.876602113452051,,,0,193,0.0,35,9238312,33,28.904651641845703,-253.98127312200472,0.16896169798377325,4,-377453.3084134656,3.4028234663852886E38,1.57542003E9,,,,0,,4,,1.57542003E9
Raw,1933536547,1537824000000,,,-1311853870175780397,0.0,9.876602113452051,,,0,194,0.0,35,12339742,27,30.776378631591797,-104.32336607769207,0.13708779462873566,4,-53236.86910777186,3.4028234663852886E38,1.57542003E9,,,,0,,4,,1.57542003E9
Raw,1933536548,1537824000000,,,-1311853870175780397,0.0,9.876602113452051,,,0,6,0.0,16431,44193878552900,9,34.146183013916016,-78.44946471366143,0.09483683169744417,4,-98370.17303939787,3.4028234663852886E38,1.56109798E9,,,,0,,5,,1.56109798E9
Raw,1933536548,1537824000000,,,-1311853870175780397,0.0,9.876602113452051,,,0,14,0.0,16431,44193924468790,15,29.766883850097656,125.38097326311481,0.15229392890538973,4,131053.95204842548,3.4028234663852886E38,1.56109798E9,,,,0,,5,,1.56109798E9
Raw,1933536548,1537824000000,,,-1311853870175780397,0.0,9.876602113452051,,,0,16,0.0,16431,44193877911780,8,35.137733459472656,-76.98535054635454,0.08485036406250795,4,-97432.7720219005,3.4028234663852886E38,1.56109798E9,,,,0,,5,,1.56109798E9
Raw,1933536549,1537824000000,,,-1311853870175780397,0.0,9.876602113452051,,,0,24,0.0,16431,44193924176978,166,27.499225616455078,15.996490200997357,0.19743449502922916,4,-82458.14528431323,3.4028234663852886E38,1.56109798E9,,,,1,,5,,1.56109798E9
Raw,1933536549,1537824000000,,,-1311853870175780397,0.0,9.876602113452051,,,0,25,0.0,16431,44193922691113,6,39.92138671875,-589.0018345814697,0.0475448479497074,1,-632247.5764928828,9.753069607540965E-4,1.56109798E9,,,,0,,5,,1.56109798E9
Raw,1933536549,1537824000000,,,-1311853870175780397,0.0,9.876602113452051,,,0,26,0.0,16431,44193915388742,19,27.58129119873047,426.3014575697471,0.19760162887242183,4,549630.0194699492,3.4028234663852886E38,1.56109798E9,,,,0,,5,,1.56109798E9
Raw,1933536550,1537824000000,,,-1311853870175780397,0.0,9.876602113452051,,,0,27,0.0,16431,44193913197877,7,35.80615997314453,113.68430873580695,0.07795634681863362,4,74654.15900300772,3.4028234663852886E38,1.56109798E9,,,,0,,5,,1.56109798E9
Raw,1933536550,1537824000000,,,-1311853870175780397,0.0,9.876602113452051,,,0,33,0.0,16431,44193925963948,13,31.007076263427734,-119.56581601057877,0.1324059917540184,4,-219519.18003019772,3.4028234663852886E38,1.56109798E9,,,,0,,5,,1.56109798E9
Fix,gps,34.486402,109.464234,360.223022,0.569409,4.000000,1627820190999
Raw,1933537497,1538824000000,,,-1311853870175780784,0.0,9.809795515139134,,,0,10,0.0,16431,44208931454564,7,41.674827575683594,-352.89091364070055,0.04051841586894933,1,-633504.9429928234,7.897744071669877E-4,1.57542003E9,,,,0,,1,,1.57542003E9
Raw,1933537497,1538824000000,,,-1311853870175780784,0.0,9.809795515139134,,,0,12,0.0,16431,44208923494872,28,30.502111434936523,-482.4685961052951,0.139823361093952,4,-781554.7207754926,3.4028234663852886E38,1.57542003E9,,,,0,,1,,1.57542003E9
Raw,1933537497,1538824000000,,,-1311853870175780784,0.0,9.809795515139134,,,0,15,0.0,16431,44208916441172,31,29.510578155517578,415.1564942867881,0.15898427518043867,4,737621.6298656015,3.4028234663852886E38,1.57542003E9,,,,0,,1,,1.57542003E9
Raw,1933537497,1538824000000,,,-1311853870175780784,0.0,9.809795515139134,,,0,18,0.0,16431,44208921292785,7,41.53424835205078,562.6433829330542,0.03931806187191825,1,831731.1839125924,8.026609430089593E-4,1.57542003E9,,,,0,,1,,1.57542003E9
Raw,1933537497,1538824000000,,,-1311853870175780784,0.0,9.809795515139134,,,0,23,0.0,16431,44208931364121,15,35.704044342041016,105.76561634913958,0.0785203049664095,1,48999.55061009592,0.0014899217057973146,1.57542003E9,,,,0,,1,,1.57542003E9
Raw,1933537498,1538824000000,,,-1311853870175780784,0.0,9.809795515139134,,,0,24,0.0,16431,44208926172264,32,29.251544952392578,456.3341684436041,0.1618602986442158,4,571867.0797180228,3.4028234663852886E38,1.57542003E9,,,,0,,1,,1.57542003E9
Raw,1933537498,1538824000000,,,-1311853870175780784,0.0,9.809795515139134,,,0,25,0.0,16431,44208922682803,8,41.09862518310547,-708.1960921716509,0.041578341990612444,4,-867229.6035701559,3.4028234663852886E38,1.57542003E9,,,,0,,1,,1.57542003E9
Raw,1933537498,1538824000000,,,-1311853870175780784,0.0,9.809795515139134,,,0,31,0.0,16,1538017735401,1000000000,7.0,-832.6500226173453,2.99792458E8,2,-14.136380903945424,3.4028234663852886E38,1.57542003E9,,,,0,,1,,1.57542003E9
Raw,1933537498,1538824000000,,,-1311853870175780784,0.0,9.809795515139134,,,0,32,0.0,16431,44208926903521,13,37.01777648925781,-401.8793666062186,0.06698326861975462,1,-651988.8540210882,0.0012807868188247085,1.57542003E9,,,,0,,1,,1.57542003E9
Raw,1933537499,1538824000000,,,-1311853870175780784,0.0,9.809795515139134,,,0,10,0.0,32995,54990930191950,33,39.986610412597656,-786.9396544026476,0.048542001109454475,1,-1303641.552404609,8.970936760306358E-4,1.59806246E9,,,,0,,3,,1.59806246E9
Raw,1933537499,1538824000000,,,-1311853870175780784,0.0,9.809795515139134,,,0,9,0.0,32995,54990933616477,50,31.465526580810547,-117.95555626970207,0.12703035793332995,4,-376529.0046975226,3.4028234663852886E38,1.59862502E9,,,,0,,3,,1.59862502E9
Raw,1933537499,1538824000000,,,-1311853870175780784,0.0,9.809795515139134,,,0,16,0.0,99,925027421,65,21.814180374145508,528.1133555911863,4.200904272593148,4,540600.8632040379,3.4028234663852886E38,1.60143744E9,,,,0,,3,,1.60143744E9
Raw,1933537499,1538824000000,,,-1311853870175780784,0.0,9.809795515139134,,,0,23,0.0,32961,54990924504139,34,34.714439392089844,-18.45805728059375,0.08651523714562648,4,-7252.260235610628,3.4028234663852886E38,1.60368755E9,,,,0,,3,,1.60368755E9
Raw,1933537499,1538824000000,,,-1311853870175780784,0.0,9.809795515139134,,,0,7,0.0,32995,54990932760790,40,33.41468048095703,-177.01122559862893,0.1018345940750896,4,-323900.87629903544,3.4028234663852886E38,1.60481254E9,,,,0,,3,,1.60481254E9
Raw,1933537499,1538824000000,,,-1311853870175780784,0.0,9.809795515139134,,,0,8,0.0,17,267067,71,20.776338577270508,-561.7655551828527,4.201307137880015,4,-524854.0996252751,3.4028234663852886E38,1.60537498E9,,,,0,,3,,1.60537498E9
Raw,1933537500,1538824000000,,,-1311853870175780784,0.0,9.809795515139134,,,0,193,0.0,35,9239197,24,31.868131637573242,-253.98002911234164,0.12060022322575692,4,-377707.29050844,3.4028234663852886E38,1.57542003E9,,,,0,,4,,1.57542003E9
Raw,1933537500,1538824000000,,,-1311853870175780784,0.0,9.809795515139134,,,0,194,0.0,35,12340014,25,31.31299591064453,-104.84321726642037,0.1290077811218952,4,-53341.69287018823,3.4028234663852886E38,1.57542003E9,,,,0,,4,,1.57542003E9
Raw,1933537500,1538824000000,,,-1311853870175780784,0.0,9.809795515139134,,,0,6,0.0,16431,44194878553152,10,33.063209533691406,-78.53542066901196,0.10698690293224883,4,-98448.6269817607,3.4028234663852886E38,1.56109798E9,,,,0,,5,,1.56109798E9
Raw,1933537500,1538824000000,,,-1311853870175780784,0.0,9.809795515139134,,,0,14,0.0,16431,44194924468364,13,30.61876106262207,125.40141421641437,0.1381416132008168,4,131179.44847058476,3.4028234663852886E38,1.56109798E9,,,,0,,5,,1.56109798E9
Raw,1933537500,1538824000000,,,-1311853870175780784,0.0,9.809795515139134,,,0,16,0.0,16431,44194877912044,7,35.598106384277344,-77.04827528170978,0.0806365792174738,4,-97509.79697627746,3.4028234663852886E38,1.56109798E9,,,,0,,5,,1.56109798E9
Raw,1933537500,1538824000000,,,-1311853870175780784,0.0,9.809795515139134,,,0,24,0.0,16431,44194924176919,12,31.79055404663086,16.372890460374677,0.12075670630128621,4,-82441.97379579504,3.4028234663852886E38,1.56109798E9,,,,0,,5,,1.56109798E9
Raw,1933537501,1538824000000,,,-1311853870175780784,0.0,9.809795515139134,,,0,25,0.0,16431,44194922693087,6,38.963932037353516,-589.0163537079484,0.05302946907887626,1,-632836.6429515556,0.0010330830700695515,1.56109798E9,,,,0,,5,,1.56109798E9
Raw,1933537501,1538824000000,,,-1311853870175780784,0.0,9.809795515139134,,,0,26,0.0,16431,44194915387309,21,26.706195831298828,426.21850087057055,0.21825355058083462,4,550056.3506869454,3.4028234663852886E38,1.56109798E9,,,,0,,5,,1.56109798E9
Raw,1933537501,1538824000000,,,-1311853870175780784,0.0,9.809795515139134,,,0,27,0.0,16431,44194913197507,11,32.12922668457031,113.9327016789452,0.11779020123784378,1,74767.9274107162,0.002139411633834243,1.56109798E9,,,,0,,5,,1.56109798E9
Raw,1933537501,1538824000000,,,-1311853870175780784,0.0,9.809795515139134,,,0,33,0.0,16431,44194925964391,11,32.201839447021484,-119.41792371111217,0.11552829438080725,4,-219638.74098446153,3.4028234663852886E38,1.56109798E9,,,,0,,5,,1.56109798E9
Fix,gps,34.486400,109.464228,360.168915,0.469586,3.000000,1627820191999
Raw,1933538518,1539824000000,,,-1311853870175781173,0.0,10.060029186780492,,,0,10,0.0,16431,44209931455722,6,43.12763214111328,-352.7505620847396,0.03459528890557399,1,-633857.7395407137,6.681329105049372E-4,1.57542003E9,,,,0,,1,,1.57542003E9
Raw,1933538518,1539824000000,,,-1311853870175781173,0.0,10.060029186780492,,,0,12,0.0,16431,44209923496481,22,32.31983947753906,-482.65843538812715,0.11353996247629927,4,-782037.4109863127,3.4028234663852886E38,1.57542003E9,,,,0,,1,,1.57542003E9
Raw,1933538518,1539824000000,,,-1311853870175781173,0.0,10.060029186780492,,,0,15,0.0,16431,44209916439793,50,25.36290168762207,415.01777868874024,0.2544833682828268,4,738036.6900486103,3.4028234663852886E38,1.57542003E9,,,,0,,1,,1.57542003E9
Raw,1933538518,1539824000000,,,-1311853870175781173,0.0,10.060029186780492,,,0,18,0.0,16431,44209921290895,7,41.42982482910156,562.6570159156634,0.039790444220069665,1,832293.8797019027,8.123688749037683E-4,1.57542003E9,,,,0,,1,,1.57542003E9
Raw,1933538518,1539824000000,,,-1311853870175781173,0.0,10.060029186780492,,,0,23,0.0,16431,44209931363793,16,35.38111877441406,105.91611595653018,0.08141702253892008,1,49105.40470050264,0.0015463568270206451,1.57542003E9,,,,0,,1,,1.57542003E9
Raw,1933538519,1539824000000,,,-1311853870175781173,0.0,10.060029186780492,,,0,24,0.0,16431,44209926170650,38,27.67500877380371,456.5465362301977,0.19385265850585953,4,572323.3237972708,3.4028234663852886E38,1.57542003E9,,,,0,,1,,1.57542003E9
Raw,1933538519,1539824000000,,,-1311853870175781173,0.0,10.060029186780492,,,0,25,0.0,16431,44209922685158,8,41.424705505371094,-708.0995706547783,0.04006457251326198,4,-867937.6817345482,3.4028234663852886E38,1.57542003E9,,,,0,,1,,1.57542003E9
Raw,1933538519,1539824000000,,,-1311853870175781173,0.0,10.060029186780492,,,0,31,0.0,16,1539017738177,1000000000,19.30364227294922,-832.464341394209,2.99792458E8,2,-14.126717673886905,3.4028234663852886E38,1.57542003E9,,,,0,,1,,1.57542003E9
Raw,1933538519,1539824000000,,,-1311853870175781173,0.0,10.060029186780492,,,0,32,0.0,16431,44209926904810,13,37.21025085449219,-401.81999496695585,0.06554273149100212,1,-652390.6638612512,0.0012527178041636944,1.57542003E9,,,,0,,1,,1.57542003E9
Raw,1933538519,1539824000000,,,-1311853870175781173,0.0,10.060029186780492,,,0,10,0.0,32995,54991930194594,33,40.59095001220703,-786.8087777696,0.04540309922582947,1,-1304428.3984639097,8.367984555661678E-4,1.59806246E9,,,,0,,3,,1.59806246E9
Raw,1933538519,1539824000000,,,-1311853870175781173,0.0,10.060029186780492,,,0,9,0.0,32995,54991933616876,59,30.04412269592285,-117.63355374108869,0.14918045989001716,4,-376646.94136025116,3.4028234663852886E38,1.59862502E9,,,,0,,3,,1.59862502E9
Raw,1933538520,1539824000000,,,-1311853870175781173,0.0,10.060029186780492,,,0,16,0.0,99,1925025863,132,23.04564666748047,528.414712671761,0.3293364808081394,4,541128.370901733,3.4028234663852886E38,1.60143744E9,,,,0,,3,,1.60143744E9
Raw,1933538520,1539824000000,,,-1311853870175781173,0.0,10.060029186780492,,,0,23,0.0,32961,54991924504402,166,29.581619262695312,-17.869555503814382,0.15556621085171796,4,-7270.558440902726,3.4028234663852886E38,1.60368755E9,,,,1,,3,,1.60368755E9
Raw,1933538520,1539824000000,,,-1311853870175781173,0.0,10.060029186780492,,,0,7,0.0,32995,54991932761429,33,36.35319137573242,-176.8528103407109,0.07326448396102181,4,-324077.7048580122,3.4028234663852886E38,1.60481254E9,,,,0,,3,,1.60481254E9
Raw,1933538521,1539824000000,,,-1311853870175781173,0.0,10.060029186780492,,,0,8,0.0,17,268947,101,16.206745147705078,-562.046803614079,299.7937523764447,4,-525416.5220138942,3.4028234663852886E38,1.60537498E9,,,,0,,3,,1.60537498E9
Raw,1933538521,1539824000000,,,-1311853870175781173,0.0,10.060029186780492,,,0,193,0.0,35,9239986,27,30.802024841308594,-253.95138280763422,0.1361325705457509,4,-377961.2529185541,3.4028234663852886E38,1.57542003E9,,,,0,,4,,1.57542003E9
Raw,1933538521,1539824000000,,,-1311853870175781173,0.0,10.060029186780492,,,0,194,0.0,35,12340356,15,35.423274993896484,-104.67989413476306,0.08120838398548919,4,-53446.4617364799,3.4028234663852886E38,1.57542003E9,,,,0,,4,,1.57542003E9
Raw,1933538521,1539824000000,,,-1311853870175781173,0.0,10.060029186780492,,,0,6,0.0,16431,44195878553449,8,34.435791015625,-78.42121035720402,0.0918363939538992,4,-98527.03898063008,3.4028234663852886E38,1.56109798E9,,,,0,,5,,1.56109798E9
Raw,1933538522,1539824000000,,,-1311853870175781173,0.0,10.060029186780492,,,0,14,0.0,16431,44195924467930,15,29.708738327026367,125.495004642026,0.1533112436354871,4,131305.042666181,3.4028234663852886E38,1.56109798E9,,,,0,,5,,1.56109798E9
Raw,1933538522,1539824000000,,,-1311853870175781173,0.0,10.060029186780492,,,0,16,0.0,16431,44195877912296,7,36.170188903808594,-77.00207651189311,0.07570212016359185,1,-97586.79695482565,0.0014250248204916716,1.56109798E9,,,,0,,5,,1.56109798E9
Raw,1933538522,1539824000000,,,-1311853870175781173,0.0,10.060029186780492,,,0,24,0.0,16431,44195924176876,13,30.670352935791016,16.185653160082786,0.13727585556620442,4,-82425.74131464474,3.4028234663852886E38,1.56109798E9,,,,0,,5,,1.56109798E9
Raw,1933538522,1539824000000,,,-1311853870175781173,0.0,10.060029186780492,,,0,25,0.0,16431,44195922695058,6,38.65202331542969,-588.9283528052065,0.05495100069994549,1,-633425.5864117693,0.001070855068974197,1.56109798E9,,,,0,,5,,1.56109798E9
Raw,1933538522,1539824000000,,,-1311853870175781173,0.0,10.060029186780492,,,0,26,0.0,16431,44195915385885,24,25.588293075561523,426.2010847352874,0.2478508523478251,4,550482.490407738,3.4028234663852886E38,1.56109798E9,,,,0,,5,,1.56109798E9
Raw,1933538522,1539824000000,,,-1311853870175781173,0.0,10.060029186780492,,,0,27,0.0,16431,44195913197152,166,28.04707908630371,113.34555467981261,0.187034536302499,4,74881.7280147107,3.4028234663852886E38,1.56109798E9,,,,1,,5,,1.56109798E9
Raw,1933538523,1539824000000,,,-1311853870175781173,0.0,10.060029186780492,,,0,33,0.0,16431,44195925964790,7,36.06855010986328,-119.45946170499934,0.07440617136632582,4,-219758.21271632626,3.4028234663852886E38,1.56109798E9,,,,0,,5,,1.56109798E9
Fix,gps,34.486400,109.464223,360.094086,0.398431,3.000000,1627820192999
Raw,1933539520,1540824000000,,,-1311853870175781561,0.0,10.437319776816983,,,0,10,0.0,16431,44210931456884,6,43.63396453857422,-352.68174960502006,0.03275315958952647,1,-634210.4455005584,6.302983383648098E-4,1.57542003E9,,,,0,,1,,1.57542003E9
Raw,1933539520,1540824000000,,,-1311853870175781561,0.0,10.437319776816983,,,0,12,0.0,16431,44210923498103,27,30.72431182861328,-482.5397602745147,0.13630826660763545,4,-782519.9630682049,3.4028234663852886E38,1.57542003E9,,,,0,,1,,1.57542003E9
Raw,1933539521,1540824000000,,,-1311853870175781561,0.0,10.437319776816983,,,0,15,0.0,16431,44210916438435,61,23.691715240478516,415.4030467772741,0.307846493461039,4,738452.1248009176,3.4028234663852886E38,1.57542003E9,,,,0,,1,,1.57542003E9
Raw,1933539521,1540824000000,,,-1311853870175781561,0.0,10.437319776816983,,,0,18,0.0,16431,44210921289019,7,42.26398468017578,562.683327572099,0.036167810264001954,1,832856.5296673744,7.379811140708625E-4,1.57542003E9,,,,0,,1,,1.57542003E9
Raw,1933539521,1540824000000,,,-1311853870175781561,0.0,10.437319776816983,,,0,23,0.0,16431,44210931363423,20,33.37744903564453,105.94056159847116,0.10201084763809404,1,49211.32210067188,0.0019475707085803151,1.57542003E9,,,,0,,1,,1.57542003E9
Raw,1933539521,1540824000000,,,-1311853870175781561,0.0,10.437319776816983,,,0,24,0.0,16431,44210926169220,54,24.74260711669922,456.831635979011,0.2712553484660667,4,572779.7844264656,3.4028234663852886E38,1.57542003E9,,,,0,,1,,1.57542003E9
Raw,1933539521,1540824000000,,,-1311853870175781561,0.0,10.437319776816983,,,0,25,0.0,16431,44210922687512,8,41.41143798828125,-708.0760537597776,0.04012549407220528,1,-868645.7844148604,8.140903082676232E-4,1.57542003E9,,,,0,,1,,1.57542003E9
Raw,1933539521,1540824000000,,,-1311853870175781561,0.0,10.437319776816983,,,0,31,0.0,16,1540017740954,1000000000,21.96045684814453,-832.464341394209,2.99792458E8,2,-14.146247628061271,3.4028234663852886E38,1.57542003E9,,,,0,,1,,1.57542003E9
Raw,1933539522,1540824000000,,,-1311853870175781561,0.0,10.437319776816983,,,0,32,0.0,16431,44210926906152,9,40.145416259765625,-401.8165185563905,0.04710474242012336,1,-652792.5021013251,8.935007499530911E-4,1.57542003E9,,,,0,,1,,1.57542003E9
Raw,1933539522,1540824000000,,,-1311853870175781561,0.0,10.437319776816983,,,0,10,0.0,32995,54992930197181,33,38.966407775878906,-786.7209131966843,0.05436430149902585,1,-1305215.1647057761,0.001008899649605155,1.59806246E9,,,,0,,3,,1.59806246E9
Raw,1933539522,1540824000000,,,-1311853870175781561,0.0,10.437319776816983,,,0,9,0.0,32995,54992933617299,65,29.200130462646484,-117.62290297342531,0.16415384160957747,4,-376764.73018556146,3.4028234663852886E38,1.59862502E9,,,,0,,3,,1.59862502E9
Raw,1933539522,1540824000000,,,-1311853870175781561,0.0,10.437319776816983,,,0,16,0.0,99,925024021,128,23.306785583496094,528.631408930333,0.3196089017156334,4,541656.3252609948,3.4028234663852886E38,1.60143744E9,,,,0,,3,,1.60143744E9
Raw,1933539522,1540824000000,,,-1311853870175781561,0.0,10.437319776816983,,,0,23,0.0,32961,54992924504380,166,26.358518600463867,-17.894554985673864,0.22509640253536356,4,-7289.1085058638755,3.4028234663852886E38,1.60368755E9,,,,1,,3,,1.60368755E9
Raw,1933539522,1540824000000,,,-1311853870175781561,0.0,10.437319776816983,,,0,7,0.0,32995,54992932761997,35,34.60045623779297,-176.71409474266306,0.08913270490346287,4,-324254.4705436381,3.4028234663852886E38,1.60481254E9,,,,0,,3,,1.60481254E9
Raw,1933539523,1540824000000,,,-1311853870175781561,0.0,10.437319776816983,,,0,8,0.0,17,270783,108,13.613731384277344,-562.0493938807747,4.20130793668759,4,-525978.9843270753,3.4028234663852886E38,1.60537498E9,,,,0,,3,,1.60537498E9
Raw,1933539523,1540824000000,,,-1311853870175781561,0.0,10.437319776816983,,,0,193,0.0,35,9240828,28,30.472972869873047,-253.9538197032756,0.14132467000522753,4,-378215.24606913555,3.4028234663852886E38,1.57542003E9,,,,0,,4,,1.57542003E9
Raw,1933539523,1540824000000,,,-1311853870175781561,0.0,10.437319776816983,,,0,194,0.0,35,12340737,16,34.95467758178711,-104.74563919339556,0.08558685632551832,4,-53551.220309532124,3.4028234663852886E38,1.57542003E9,,,,0,,4,,1.57542003E9
Raw,1933539523,1540824000000,,,-1311853870175781561,0.0,10.437319776816983,,,0,6,0.0,16431,44196878553691,8,35.19919967651367,-78.42997806914451,0.08439021761580107,1,-98605.47368181135,0.0015935730189085007,1.56109798E9,,,,0,,5,,1.56109798E9
Raw,1933539523,1540824000000,,,-1311853870175781561,0.0,10.437319776816983,,,0,14,0.0,16431,44196924467505,19,27.709524154663086,125.57451901309372,0.1927818902355516,4,131430.67903451077,3.4028234663852886E38,1.56109798E9,,,,0,,5,,1.56109798E9
Raw,1933539523,1540824000000,,,-1311853870175781561,0.0,10.437319776816983,,,0,16,0.0,16431,44196877912548,7,36.12392807006836,-77.05806546734595,0.07608920900085775,1,-97663.81454564966,0.0014326346572488546,1.56109798E9,,,,0,,5,,1.56109798E9
Raw,1933539523,1540824000000,,,-1311853870175781561,0.0,10.437319776816983,,,0,24,0.0,16431,44196924176800,12,31.882732391357422,16.348761146233294,0.11948985573411303,4,-82409.44128770496,3.4028234663852886E38,1.56109798E9,,,,0,,5,,1.56109798E9
Raw,1933539524,1540824000000,,,-1311853870175781561,0.0,10.437319776816983,,,0,25,0.0,16431,44196922697011,6,39.21195983886719,-588.8781152642919,0.051550963627586266,1,-634014.4912144883,0.0010040004272013903,1.56109798E9,,,,0,,5,,1.56109798E9
Raw,1933539524,1540824000000,,,-1311853870175781561,0.0,10.437319776816983,,,0,26,0.0,16431,44196915384469,17,28.705432891845703,426.25732078855003,0.17394878680755432,4,550908.6800833538,3.4028234663852886E38,1.56109798E9,,,,0,,5,,1.56109798E9
Raw,1933539524,1540824000000,,,-1311853870175781561,0.0,10.437319776816983,,,0,27,0.0,16431,44196913196773,166,27.650150299072266,113.83024981463763,0.19566889730348158,4,74995.61190241517,3.4028234663852886E38,1.56109798E9,,,,1,,5,,1.56109798E9
Raw,1933539525,1540824000000,,,-1311853870175781561,0.0,10.437319776816983,,,0,33,0.0,16431,44196925965209,9,33.88353729248047,-119.35261320380033,0.09538166838889939,4,-219877.6128696308,3.4028234663852886E38,1.56109798E9,,,,0,,5,,1.56109798E9
Fix,gps,34.486400,109.464218,360.067017,0.351178,3.000000,1627820193999
Raw,1933540515,1541824000000,,,-1311853870175781956,0.0,10.269243969704842,,,0,10,0.0,16431,44211931458057,6,44.39949035644531,-352.4436154812952,0.03206102194919551,1,-634563.0730199924,5.77125116251409E-4,1.57542003E9,,,,0,,1,,1.57542003E9
Raw,1933540515,1541824000000,,,-1311853870175781956,0.0,10.269243969704842,,,0,12,0.0,16431,44211923499714,37,28.082069396972656,-482.5960304102339,0.1845477651131694,4,-783002.3994928068,3.4028234663852886E38,1.57542003E9,,,,0,,1,,1.57542003E9
Raw,1933540515,1541824000000,,,-1311853870175781956,0.0,10.269243969704842,,,0,15,0.0,16431,44211916437005,59,24.044246673583984,415.3656924049251,0.29571949611586756,4,738867.5722624303,3.4028234663852886E38,1.57542003E9,,,,0,,1,,1.57542003E9
Raw,1933540516,1541824000000,,,-1311853870175781956,0.0,10.269243969704842,,,0,18,0.0,16431,44211921287130,6,42.77540969848633,562.6665249210332,0.03411265519354657,1,833419.2030878074,6.957831210456789E-4,1.57542003E9,,,,0,,1,,1.57542003E9
Raw,1933540516,1541824000000,,,-1311853870175781956,0.0,10.269243969704842,,,0,23,0.0,16431,44211931363061,25,31.482606887817383,106.279869494384,0.1263802617020765,1,49317.40279099706,0.002283805748447776,1.57542003E9,,,,0,,1,,1.57542003E9
Raw,1933540516,1541824000000,,,-1311853870175781956,0.0,10.269243969704842,,,0,24,0.0,16431,44211926167676,64,22.022846221923828,456.5531141443066,4.201109566139859,4,573236.2550226346,3.4028234663852886E38,1.57542003E9,,,,0,,1,,1.57542003E9
Raw,1933540516,1541824000000,,,-1311853870175781956,0.0,10.269243969704842,,,0,25,0.0,16431,44211922689874,8,40.797828674316406,-708.0494012787767,0.04302770760724842,1,-869353.8342961008,8.736812160350382E-4,1.57542003E9,,,,0,,1,,1.57542003E9
Raw,1933540516,1541824000000,,,-1311853870175781956,0.0,10.269243969704842,,,0,31,0.0,16,1541017743715,1000000000,21.454919815063477,-832.464341394209,2.99792458E8,2,-14.139737643281496,3.4028234663852886E38,1.57542003E9,,,,0,,1,,1.57542003E9
Raw,1933540516,1541824000000,,,-1311853870175781956,0.0,10.269243969704842,,,0,32,0.0,16431,44211926907483,8,41.12327194213867,-401.8282770038909,0.04222180645481299,1,-653194.2988079649,7.983662653714418E-4,1.57542003E9,,,,0,,1,,1.57542003E9
Raw,1933540517,1541824000000,,,-1311853870175781956,0.0,10.269243969704842,,,0,10,0.0,32995,54993930199831,33,37.316104888916016,-786.3721133366298,0.06535655940061116,1,-1306001.799547831,0.0012200090568512678,1.59806246E9,,,,0,,3,,1.59806246E9
Raw,1933540517,1541824000000,,,-1311853870175781956,0.0,10.269243969704842,,,0,9,0.0,32995,54993933617696,53,30.967605590820312,-117.51765634768287,0.1343808604225269,4,-376882.36115252716,3.4028234663852886E38,1.59862502E9,,,,0,,3,,1.59862502E9
Raw,1933540517,1541824000000,,,-1311853870175781956,0.0,10.269243969704842,,,0,16,0.0,99,1925022459,67,21.391279220581055,527.9900452634868,4.200903473785573,4,542184.238094887,3.4028234663852886E38,1.60143744E9,,,,0,,3,,1.60143744E9
Raw,1933540517,1541824000000,,,-1311853870175781956,0.0,10.269243969704842,,,0,23,0.0,32961,54993924504343,91,26.266447067260742,-18.110974324286644,0.22748648472449906,4,-7307.159359811684,3.4028234663852886E38,1.60368755E9,,,,0,,3,,1.60368755E9
Raw,1933540517,1541824000000,,,-1311853870175781956,0.0,10.269243969704842,,,0,7,0.0,32995,54993932762561,33,35.82780456542969,-176.4156346708928,0.07768991952971666,4,-324431.1794533245,3.4028234663852886E38,1.60481254E9,,,,0,,3,,1.60481254E9
Raw,1933540517,1541824000000,,,-1311853870175781956,0.0,10.269243969704842,,,0,8,0.0,16,7272959,1000000000,17.114700317382812,-561.9825581835335,2.99792458E8,6,-524740.9216484523,3.4028234663852886E38,1.60537498E9,,,,0,,3,,1.60537498E9
Raw,1933540518,1541824000000,,,-1311853870175781956,0.0,10.269243969704842,,,0,193,0.0,35,9241703,26,31.17127227783203,-253.99851884500526,0.13053618292341446,1,-378469.2543911921,0.002367150504142046,1.57542003E9,,,,0,,4,,1.57542003E9
Raw,1933540518,1541824000000,,,-1311853870175781956,0.0,10.269243969704842,,,0,194,0.0,35,12341073,18,34.244964599609375,-104.65078771689258,0.09268476920284846,4,-53655.94765367424,3.4028234663852886E38,1.57542003E9,,,,0,,4,,1.57542003E9
Raw,1933540518,1541824000000,,,-1311853870175781956,0.0,10.269243969704842,,,0,6,0.0,16431,44197878553930,7,36.08161926269531,-78.21559941761603,0.07656039729810316,1,-98683.89031849233,0.001439630170352757,1.56109798E9,,,,0,,5,,1.56109798E9
Raw,1933540518,1541824000000,,,-1311853870175781956,0.0,10.269243969704842,,,0,14,0.0,16431,44197924467135,30,23.825834274291992,125.7363339960499,0.30102151482599515,4,131556.30284941863,3.4028234663852886E38,1.56109798E9,,,,0,,5,,1.56109798E9
Raw,1933540518,1541824000000,,,-1311853870175781956,0.0,10.269243969704842,,,0,16,0.0,16431,44197877912810,6,36.65604019165039,-76.76698424741289,0.07175927254190712,1,-97740.81044137829,0.0013475032756105065,1.56109798E9,,,,0,,5,,1.56109798E9
Raw,1933540518,1541824000000,,,-1311853870175781956,0.0,10.269243969704842,,,0,24,0.0,16431,44197924176758,10,33.22666549682617,16.48697083281712,0.1024686725502868,4,-82393.0239651554,3.4028234663852886E38,1.56109798E9,,,,0,,5,,1.56109798E9
Raw,1933540519,1541824000000,,,-1311853870175781956,0.0,10.269243969704842,,,0,25,0.0,16431,44197922698976,6,39.92228698730469,-588.7815255825062,0.04754139061067292,1,-634603.3165372142,9.251614683307707E-4,1.56109798E9,,,,0,,5,,1.56109798E9
Raw,1933540519,1541824000000,,,-1311853870175781956,0.0,10.269243969704842,,,0,26,0.0,16431,44197915383081,16,29.03017234802246,426.3599089826837,0.16766671441232672,4,551334.9240267824,3.4028234663852886E38,1.56109798E9,,,,0,,5,,1.56109798E9
Raw,1933540519,1541824000000,,,-1311853870175781956,0.0,10.269243969704842,,,0,27,0.0,16431,44197913196363,17,28.6650333404541,114.03820392311155,0.17435323306774664,4,75109.57416335923,3.4028234663852886E38,1.56109798E9,,,,0,,5,,1.56109798E9
Raw,1933540519,1541824000000,,,-1311853870175781956,0.0,10.269243969704842,,,0,33,0.0,16431,44197925965610,10,33.16196823120117,-119.11045735020576,0.10355089871674511,1,-219996.98600233987,0.0020148069597780704,1.56109798E9,,,,0,,5,,1.56109798E9
Fix,gps,34.486400,109.464215,360.006592,0.239668,3.000000,1627820194999
Raw,1933541532,1542824000000,,,-1311853870175782340,0.0,9.44754682787502,,,0,10,0.0,16431,44212931459229,12,37.54254150390625,-352.5986224935609,0.06394850295277585,1,-634915.5542977721,0.0012056983541697264,1.57542003E9,,,,0,,1,,1.57542003E9
Raw,1933541532,1542824000000,,,-1311853870175782340,0.0,9.44754682787502,,,0,12,0.0,16431,44212923501352,29,30.18560028076172,-481.1948324576681,0.1449902981148239,4,-783484.4791067567,3.4028234663852886E38,1.57542003E9,,,,0,,1,,1.57542003E9
Raw,1933541533,1542824000000,,,-1311853870175782340,0.0,9.44754682787502,,,0,15,0.0,16431,44212916435587,65,23.214733123779297,415.805594671265,0.3250570689282919,4,739283.1453151879,3.4028234663852886E38,1.57542003E9,,,,0,,1,,1.57542003E9
Raw,1933541533,1542824000000,,,-1311853870175782340,0.0,9.44754682787502,,,0,18,0.0,16431,44212921285253,6,42.98725891113281,562.6519376296415,0.03329594933657139,1,833981.9008788147,6.790182087570429E-4,1.57542003E9,,,,0,,1,,1.57542003E9
Raw,1933541533,1542824000000,,,-1311853870175782340,0.0,9.44754682787502,,,0,23,0.0,16431,44212931362705,19,33.62833786010742,106.51216699742935,0.09916452151009081,1,49423.66041570477,0.0018921206938102841,1.57542003E9,,,,0,,1,,1.57542003E9
Raw,1933541533,1542824000000,,,-1311853870175782340,0.0,9.44754682787502,,,0,24,0.0,16431,44212926166181,36,28.14395523071289,456.5705984445028,0.18372169822992757,4,573692.8222469211,3.4028234663852886E38,1.57542003E9,,,,0,,1,,1.57542003E9
Raw,1933541534,1542824000000,,,-1311853870175782340,0.0,9.44754682787502,,,0,25,0.0,16431,44212922692256,11,37.996849060058594,-707.8322278658134,0.059217781435017186,1,-870061.727733095,0.0011442560935392976,1.57542003E9,,,,0,,1,,1.57542003E9
Raw,1933541534,1542824000000,,,-1311853870175782340,0.0,9.44754682787502,,,0,31,0.0,16,1542017746492,1000000000,30.792097091674805,-832.464341394209,2.99792458E8,2,-14.133227658678653,3.4028234663852886E38,1.57542003E9,,,,0,,1,,1.57542003E9
Raw,1933541534,1542824000000,,,-1311853870175782340,0.0,9.44754682787502,,,0,32,0.0,16431,44212926908802,7,41.726932525634766,-402.06129875913734,0.039470733969642985,1,-653596.1299801203,7.850509718991816E-4,1.57542003E9,,,,0,,1,,1.57542003E9
Raw,1933541534,1542824000000,,,-1311853870175782340,0.0,9.44754682787502,,,0,10,0.0,32995,54994930202447,33,38.867740631103516,-786.4025148878482,0.05496536259446658,1,-1306788.3014919646,0.0010204255813732743,1.59806246E9,,,,0,,3,,1.59806246E9
Raw,1933541534,1542824000000,,,-1311853870175782340,0.0,9.44754682787502,,,0,9,0.0,32995,54994933618143,55,30.599576950073242,-117.24518414901127,0.1400911280497391,4,-376999.72463742754,3.4028234663852886E38,1.59862502E9,,,,0,,3,,1.59862502E9
Raw,1933541534,1542824000000,,,-1311853870175782340,0.0,9.44754682787502,,,0,16,0.0,99,925020254,131,23.13343048095703,527.2068304125926,0.3260329122318,4,542710.6757585645,3.4028234663852886E38,1.60143744E9,,,,0,,3,,1.60143744E9
Raw,1933541534,1542824000000,,,-1311853870175782340,0.0,9.44754682787502,,,0,23,0.0,32961,54994924504423,33,35.07048797607422,-18.298568425295258,0.08307313370145303,4,-7325.147349538857,3.4028234663852886E38,1.60368755E9,,,,0,,3,,1.60368755E9
Raw,1933541535,1542824000000,,,-1311853870175782340,0.0,9.44754682787502,,,0,7,0.0,32995,54994932763191,47,31.907360076904297,-176.23008977758263,0.1206981437209621,4,-324607.7126822804,3.4028234663852886E38,1.60481254E9,,,,0,,3,,1.60481254E9
Raw,1933541535,1542824000000,,,-1311853870175782340,0.0,9.44754682787502,,,0,8,0.0,16,7274817,1000000000,17.481157302856445,-562.2616935024553,2.99792458E8,4,-524291.9581315534,3.4028234663852886E38,1.60537498E9,,,,0,,3,,1.60537498E9
Raw,1933541535,1542824000000,,,-1311853870175782340,0.0,9.44754682787502,,,0,193,0.0,35,9242599,38,27.818017959594727,-253.89393682716502,0.19125776538292216,1,-378723.156079112,0.0034824798349291086,1.57542003E9,,,,0,,4,,1.57542003E9
Raw,1933541535,1542824000000,,,-1311853870175782340,0.0,9.44754682787502,,,0,194,0.0,35,12341369,25,31.370582580566406,-104.28129980572879,0.1281702313797663,4,-53760.454445034775,3.4028234663852886E38,1.57542003E9,,,,0,,4,,1.57542003E9
Raw,1933541535,1542824000000,,,-1311853870175782340,0.0,9.44754682787502,,,0,6,0.0,16431,44198878554218,11,32.25918197631836,-78.33065327022291,0.11703977144683642,1,-98762.25813019408,0.0021076402626931667,1.56109798E9,,,,0,,5,,1.56109798E9
Raw,1933541535,1542824000000,,,-1311853870175782340,0.0,9.44754682787502,,,0,14,0.0,16431,44198924466679,166,27.232532501220703,125.81432317718821,0.2036192127512837,4,131681.86280378257,3.4028234663852886E38,1.56109798E9,,,,1,,5,,1.56109798E9
Raw,1933541535,1542824000000,,,-1311853870175782340,0.0,9.44754682787502,,,0,16,0.0,16431,44198877913070,10,33.01673889160156,-77.17440593268657,0.10742783639260045,1,-97817.78789053376,0.0020487781148403883,1.56109798E9,,,,0,,5,,1.56109798E9
Raw,1933541535,1542824000000,,,-1311853870175782340,0.0,9.44754682787502,,,0,24,0.0,16431,44198924176649,166,29.475372314453125,15.93963746828701,0.1574118723950101,4,-82376.55169462723,3.4028234663852886E38,1.56109798E9,,,,1,,5,,1.56109798E9
Raw,1933541536,1542824000000,,,-1311853870175782340,0.0,9.44754682787502,,,0,25,0.0,16431,44198922700945,6,43.44762420654297,-588.7484655996791,0.03184375044931871,1,-635192.0613209805,6.498744478449225E-4,1.56109798E9,,,,0,,5,,1.56109798E9
Raw,1933541536,1542824000000,,,-1311853870175782340,0.0,9.44754682787502,,,0,26,0.0,16431,44198915381619,10,33.42675018310547,426.85652445667756,0.10216782164744531,4,551761.3725648333,3.4028234663852886E38,1.56109798E9,,,,0,,5,,1.56109798E9
Raw,1933541536,1542824000000,,,-1311853870175782340,0.0,9.44754682787502,,,0,27,0.0,16431,44198913195965,15,29.717329025268555,113.50282817543712,0.15473047506845672,4,75223.47028663602,3.4028234663852886E38,1.56109798E9,,,,0,,5,,1.56109798E9
Raw,1933541536,1542824000000,,,-1311853870175782340,0.0,9.44754682787502,,,0,33,0.0,16431,44198925965939,166,30.426918029785156,-118.85830681623588,0.14147812426870254,1,-220116.1892844098,0.0026026139967143536,1.56109798E9,,,,1,,5,,1.56109798E9
Raw,1933542472,1543824000000,,,-1311853870175782727,0.0,9.99725067546885,,,0,10,0.0,16431,44213931460406,10,39.18956756591797,-352.80025430634987,0.05325908049160055,1,-635268.1823029072,9.974412387236953E-4,1.57542003E9,,,,0,,1,,1.57542003E9
Raw,1933542473,1543824000000,,,-1311853870175782727,0.0,9.99725067546885,,,0,12,0.0,16431,44213923502882,19,33.83045196533203,-480.9141975106593,0.0955168665709264,4,-783965.9363809079,3.4028234663852886E38,1.57542003E9,,,,0,,1,,1.57542003E9
Raw,1933542474,1543824000000,,,-1311853870175782727,0.0,9.99725067546885,,,0,15,0.0,16431,44213916434256,36,28.272363662719727,417.05464853791295,0.18288887476594928,4,739699.9080759876,3.4028234663852886E38,1.57542003E9,,,,0,,1,,1.57542003E9
Raw,1933542475,1543824000000,,,-1311853870175782727,0.0,9.99725067546885,,,0,18,0.0,16431,44213921283364,6,42.80535888671875,562.7955611014286,0.0339953594541975,1,834544.5872201961,6.933885160833597E-4,1.57542003E9,,,,0,,1,,1.57542003E9
Raw,1933542475,1543824000000,,,-1311853870175782727,0.0,9.99725067546885,,,0,23,0.0,16431,44213931362372,16,35.27972412109375,106.64059821422143,0.08234873172392304,1,49530.19509981378,0.0015645141247659922,1.57542003E9,,,,0,,1,,1.57542003E9
Raw,1933542475,1543824000000,,,-1311853870175782727,0.0,9.99725067546885,,,0,24,0.0,16431,44213926164640,32,29.181835174560547,457.0875270625843,0.163154217138896,4,574150.0718348369,3.4028234663852886E38,1.57542003E9,,,,0,,1,,1.57542003E9
Raw,1933542476,1543824000000,,,-1311853870175782727,0.0,9.99725067546885,,,0,25,0.0,16431,44213922694592,15,35.854888916015625,-707.4340084438008,0.07564421493533446,4,-870769.1752493094,3.4028234663852886E38,1.57542003E9,,,,0,,1,,1.57542003E9
Raw,1933542476,1543824000000,,,-1311853870175782727,0.0,9.99725067546885,,,0,31,0.0,16,1543017749336,1000000000,24.813217163085938,-832.464341394209,2.99792458E8,2,-14.126717673896025,3.4028234663852886E38,1.57542003E9,,,,0,,1,,1.57542003E9
Raw,1933542476,1543824000000,,,-1311853870175782727,0.0,9.99725067546885,,,0,32,0.0,16431,44213926910166,10,39.31098175048828,-402.488863176216,0.05172992980797997,4,-653998.4278223325,3.4028234663852886E38,1.57542003E9,,,,0,,1,,1.57542003E9
Raw,1933542477,1543824000000,,,-1311853870175782727,0.0,9.99725067546885,,,0,10,0.0,32995,54995930205073,33,39.29610061645508,-786.3602526417599,0.05240919083662415,1,-1307574.6231646442,9.713221807032824E-4,1.59806246E9,,,,0,,3,,1.59806246E9
Raw,1933542477,1543824000000,,,-1311853870175782727,0.0,9.99725067546885,,,0,9,0.0,32995,54995933618481,47,32.019622802734375,-116.35527416797242,0.1193315420578916,4,-377117.1927578023,3.4028234663852886E38,1.59862502E9,,,,0,,3,,1.59862502E9
Raw,1933542477,1543824000000,,,-1311853870175782727,0.0,9.99725067546885,,,0,16,0.0,99,1925018588,118,24.027353286743164,528.4485565510881,0.2942355779111674,4,543237.6498195698,3.4028234663852886E38,1.60143744E9,,,,0,,3,,1.60143744E9
Raw,1933542478,1543824000000,,,-1311853870175782727,0.0,9.99725067546885,,,0,23,0.0,32961,54995924504489,33,37.2481803894043,-18.27209913749823,0.06483079424000318,4,-7343.552769239713,3.4028234663852886E38,1.60368755E9,,,,0,,3,,1.60368755E9
Raw,1933542478,1543824000000,,,-1311853870175782727,0.0,9.99725067546885,,,0,7,0.0,32995,54995932763753,56,30.47610855102539,-176.9198846151478,0.14190794931121775,4,-324784.0214595804,3.4028234663852886E38,1.60481254E9,,,,0,,3,,1.60481254E9
Raw,1933542478,1543824000000,,,-1311853870175782727,0.0,9.99725067546885,,,0,8,0.0,16,7276703,1000000000,21.83734130859375,-562.1363041449079,2.99792458E8,6,-524741.8485070964,3.4028234663852886E38,1.60537498E9,,,,0,,3,,1.60537498E9
Raw,1933542479,1543824000000,,,-1311853870175782727,0.0,9.99725067546885,,,0,193,0.0,35,9243423,36,28.225162506103516,-253.07542959254147,0.18257587533124175,4,-378975.97513599246,3.4028234663852886E38,1.57542003E9,,,,0,,4,,1.57542003E9
Raw,1933542480,1543824000000,,,-1311853870175782727,0.0,9.99725067546885,,,0,194,0.0,35,12341790,32,29.29534339904785,-103.89583574306994,0.16216149902537125,4,-53864.40260598771,3.4028234663852886E38,1.57542003E9,,,,0,,4,,1.57542003E9
Raw,1933542480,1543824000000,,,-1311853870175782727,0.0,9.99725067546885,,,0,6,0.0,16431,44199878554478,10,32.71100616455078,-78.6746389832935,0.11127644136228876,1,-98840.82444181827,0.002122177043929696,1.56109798E9,,,,0,,5,,1.56109798E9
Raw,1933542480,1543824000000,,,-1311853870175782727,0.0,9.99725067546885,,,0,14,0.0,16431,44199924466246,23,26.227811813354492,126.43588493679471,0.22849013651670325,4,131808.38614161938,3.4028234663852886E38,1.56109798E9,,,,0,,5,,1.56109798E9
Raw,1933542481,1543824000000,,,-1311853870175782727,0.0,9.99725067546885,,,0,16,0.0,16431,44199877913323,7,36.110877990722656,-77.42205758239544,0.07619893687052726,1,-97894.9597892143,0.0014347888063639402,1.56109798E9,,,,0,,5,,1.56109798E9
Raw,1933542489,1543824000000,,,-1311853870175782727,0.0,9.99725067546885,,,0,24,0.0,16431,44199924176653,17,28.594438552856445,17.676344187940103,0.17413427658314184,4,-82358.70089995195,3.4028234663852886E38,1.56109798E9,,,,0,,5,,1.56109798E9
Raw,1933542490,1543824000000,,,-1311853870175782727,0.0,9.99725067546885,,,0,25,0.0,16431,44199922702900,6,43.64875793457031,-588.6743021742855,0.03112630267419081,1,-635780.7501508249,6.349985487759113E-4,1.56109798E9,,,,0,,5,,1.56109798E9
Raw,1933542490,1543824000000,,,-1311853870175782727,0.0,9.99725067546885,,,0,26,0.0,16431,44199915380173,13,30.61053466796875,426.23854135500596,0.1402345472930563,4,552188.6219018429,3.4028234663852886E38,1.56109798E9,,,,0,,5,,1.56109798E9
Raw,1933542490,1543824000000,,,-1311853870175782727,0.0,9.99725067546885,,,0,27,0.0,16431,44199913195588,19,27.700023651123047,113.27220071276139,0.19456199963224052,4,75336.93036524489,3.4028234663852886E38,1.56109798E9,,,,0,,5,,1.56109798E9
Raw,1933542491,1543824000000,,,-1311853870175782727,0.0,9.99725067546885,,,0,33,0.0,16431,44199925966360,13,31.12996482849121,-118.64253078398997,0.13056138696658037,4,-220235.26834458337,3.4028234663852886E38,1.56109798E9,,,,0,,5,,1.56109798E9
Fix,gps,34.486400,109.464213,359.907928,0.312775,3.000000,1627820195999
Fix,gps,34.486401,109.464207,359.593781,0.547971,4.000000,1627820196999
Raw,1933543532,1544824000000,,,-1311853870175783115,0.0,10.158564227147265,,,0,10,0.0,16431,44214931461594,11,38.6143913269043,-352.4339360636427,0.05676436046193353,4,-635620.6332042335,3.4028234663852886E38,1.57542003E9,,,,0,,1,,1.57542003E9
Raw,1933543532,1544824000000,,,-1311853870175783115,0.0,10.158564227147265,,,0,12,0.0,16431,44214923504505,22,32.43841552734375,-480.89248698585425,0.11201047063527697,4,-784447.0039686738,3.4028234663852886E38,1.57542003E9,,,,0,,1,,1.57542003E9
Raw,1933543532,1544824000000,,,-1311853870175783115,0.0,10.158564227147265,,,0,15,0.0,16431,44214916432794,45,26.33054542541504,417.2005555342871,0.22796548635833502,4,740118.2172819452,3.4028234663852886E38,1.57542003E9,,,,0,,1,,1.57542003E9
Raw,1933543532,1544824000000,,,-1311853870175783115,0.0,10.158564227147265,,,0,18,0.0,16431,44214921281486,6,43.632049560546875,562.3835723669808,0.030929635833240918,1,835107.26373521,6.304374546743929E-4,1.57542003E9,,,,0,,1,,1.57542003E9
Raw,1933543532,1544824000000,,,-1311853870175783115,0.0,10.158564227147265,,,0,23,0.0,16431,44214931361984,16,35.14457702636719,106.90048546582199,0.08360791873092593,1,49637.00158120347,0.0015890474896878004,1.57542003E9,,,,0,,1,,1.57542003E9
Raw,1933543532,1544824000000,,,-1311853870175783115,0.0,10.158564227147265,,,0,24,0.0,16431,44214926163115,34,28.619985580444336,457.65200070751507,0.1739823700093429,4,574607.7872860311,3.4028234663852886E38,1.57542003E9,,,,0,,1,,1.57542003E9
Raw,1933543533,1544824000000,,,-1311853870175783115,0.0,10.158564227147265,,,0,25,0.0,16431,44214922696982,13,36.588134765625,-707.4678864055845,0.06956024265818958,4,-871476.3608066741,3.4028234663852886E38,1.57542003E9,,,,0,,1,,1.57542003E9
Raw,1933543533,1544824000000,,,-1311853870175783115,0.0,10.158564227147265,,,0,31,0.0,16,1544017752051,1000000000,17.544740676879883,-832.2787283359858,2.99792458E8,2,-14.143093552289134,3.4028234663852886E38,1.57542003E9,,,,0,,1,,1.57542003E9
Raw,1933543533,1544824000000,,,-1311853870175783115,0.0,10.158564227147265,,,0,32,0.0,16431,44214926911514,9,40.392391204833984,-402.5340224311087,0.04582000605209671,4,-654400.8156238687,3.4028234663852886E38,1.57542003E9,,,,0,,1,,1.57542003E9
Raw,1933543535,1544824000000,,,-1311853870175783115,0.0,10.158564227147265,,,0,10,0.0,32995,54996930207687,33,39.85759735107422,-785.8281573305258,0.04924377852661202,4,-1308360.71419299,3.4028234663852886E38,1.59806246E9,,,,0,,3,,1.59806246E9
Raw,1933543535,1544824000000,,,-1311853870175783115,0.0,10.158564227147265,,,0,9,0.0,32995,54996933618845,52,31.08881378173828,-116.57486743534889,0.13255282257135276,4,-377233.1238419416,3.4028234663852886E38,1.59862502E9,,,,0,,3,,1.59862502E9
Raw,1933543535,1544824000000,,,-1311853870175783115,0.0,10.158564227147265,,,0,16,0.0,99,925016753,128,23.366390228271484,529.2882119499841,0.31742799061831195,4,543765.7899727949,3.4028234663852886E38,1.60143744E9,,,,0,,3,,1.60143744E9
Raw,1933543535,1544824000000,,,-1311853870175783115,0.0,10.158564227147265,,,0,23,0.0,32961,54996924504574,33,36.971923828125,-18.609924446552327,0.06689971417952664,4,-7362.056725908638,3.4028234663852886E38,1.60368755E9,,,,0,,3,,1.60368755E9
Raw,1933543536,1544824000000,,,-1311853870175783115,0.0,10.158564227147265,,,0,7,0.0,32995,54996932764367,58,30.110536575317383,-175.91690608459453,0.14790947382946218,4,-324960.1913766452,3.4028234663852886E38,1.60481254E9,,,,0,,3,,1.60481254E9
Raw,1933543536,1544824000000,,,-1311853870175783115,0.0,10.158564227147265,,,0,8,0.0,17,278503,121,23.816967010498047,-562.6980852757733,0.3018338022785725,4,-524291.9435818996,3.4028234663852886E38,1.60537498E9,,,,0,,3,,1.60537498E9
Raw,1933543536,1544824000000,,,-1311853870175783115,0.0,10.158564227147265,,,0,193,0.0,35,9244249,38,27.77476692199707,-252.82066323003346,0.19220450213542517,4,-379228.009085678,3.4028234663852886E38,1.57542003E9,,,,0,,4,,1.57542003E9
Raw,1933543536,1544824000000,,,-1311853870175783115,0.0,10.158564227147265,,,0,194,0.0,35,12342091,32,29.31643295288086,-103.00489476772128,0.16177369458965296,4,-53968.23768900589,3.4028234663852886E38,1.57542003E9,,,,0,,4,,1.57542003E9
Raw,1933543536,1544824000000,,,-1311853870175783115,0.0,10.158564227147265,,,0,6,0.0,16431,44200878554743,11,32.026851654052734,-78.73821980593681,0.12012221178047716,4,-98919.29144935691,3.4028234663852886E38,1.56109798E9,,,,0,,5,,1.56109798E9
Raw,1933543536,1544824000000,,,-1311853870175783115,0.0,10.158564227147265,,,0,14,0.0,16431,44200924465836,17,28.841211318969727,126.93621539854956,0.16932963208106955,4,131935.2046690444,3.4028234663852886E38,1.56109798E9,,,,0,,5,,1.56109798E9
Raw,1933543537,1544824000000,,,-1311853870175783115,0.0,10.158564227147265,,,0,16,0.0,16431,44200877913598,7,35.66971206665039,-77.24704416815081,0.08000126924726553,4,-97972.06706762128,3.4028234663852886E38,1.56109798E9,,,,0,,5,,1.56109798E9
Raw,1933543537,1544824000000,,,-1311853870175783115,0.0,10.158564227147265,,,0,24,0.0,16431,44200924176583,18,28.02479362487793,18.067591617440172,0.18588635026473788,4,-82341.01733753686,3.4028234663852886E38,1.56109798E9,,,,0,,5,,1.56109798E9
Raw,1933543537,1544824000000,,,-1311853870175783115,0.0,10.158564227147265,,,0,25,0.0,16431,44200922704872,6,43.23138427734375,-588.845464270943,0.0326349298277788,1,-636369.325582666,6.662565865553916E-4,1.56109798E9,,,,0,,5,,1.56109798E9
Raw,1933543537,1544824000000,,,-1311853870175783115,0.0,10.158564227147265,,,0,26,0.0,16431,44200915378751,17,28.82327651977539,427.0806847732281,0.17164096515679395,4,552615.837407563,3.4028234663852886E38,1.56109798E9,,,,0,,5,,1.56109798E9
Raw,1933543538,1544824000000,,,-1311853870175783115,0.0,10.158564227147265,,,0,27,0.0,16431,44200913195244,16,28.93031883239746,112.75724035654412,0.16917980573532987,4,75450.04600570875,3.4028234663852886E38,1.56109798E9,,,,0,,5,,1.56109798E9
Raw,1933543538,1544824000000,,,-1311853870175783115,0.0,10.158564227147265,,,0,33,0.0,16431,44200925966768,13,30.905019760131836,-118.45235919720682,0.13395873222383092,4,-220354.1639765552,3.4028234663852886E38,1.56109798E9,,,,0,,5,,1.56109798E9
Fix,gps,34.486403,109.464197,359.475708,0.777448,4.000000,1627820197999
Raw,1933544552,1545824000000,,,-1311853870175783504,0.0,10.238463499952175,,,0,10,0.0,16431,44215931462780,10,39.014892578125,-352.35748911366204,0.05429953567862905,4,-635972.9869199098,3.4028234663852886E38,1.57542003E9,,,,0,,1,,1.57542003E9
Raw,1933544553,1545824000000,,,-1311853870175783504,0.0,10.238463499952175,,,0,12,0.0,16431,44215923506113,24,31.671667098999023,-481.0337928505978,0.12228988430642951,4,-784929.0438163808,3.4028234663852886E38,1.57542003E9,,,,0,,1,,1.57542003E9
Raw,1933544553,1545824000000,,,-1311853870175783504,0.0,10.238463499952175,,,0,15,0.0,16431,44215916431509,45,26.411041259765625,416.5799821659198,0.22588963509891813,4,740534.8720275543,3.4028234663852886E38,1.57542003E9,,,,0,,1,,1.57542003E9
Raw,1933544554,1545824000000,,,-1311853870175783504,0.0,10.238463499952175,,,0,18,0.0,16431,44215921279631,6,43.319602966308594,562.5937929588135,0.03205369330574276,1,835670.0217919656,6.535282591357827E-4,1.57542003E9,,,,0,,1,,1.57542003E9
Raw,1933544554,1545824000000,,,-1311853870175783504,0.0,10.238463499952175,,,0,23,0.0,16431,44215931361645,16,35.08196258544922,106.50489891357586,0.08419798790130156,4,49743.908771043934,3.4028234663852886E38,1.57542003E9,,,,0,,1,,1.57542003E9
Raw,1933544555,1545824000000,,,-1311853870175783504,0.0,10.238463499952175,,,0,24,0.0,16431,44215926161601,50,25.4451847076416,457.75987168240977,0.25026308480533555,4,575065.1930975957,3.4028234663852886E38,1.57542003E9,,,,0,,1,,1.57542003E9
Raw,1933544555,1545824000000,,,-1311853870175783504,0.0,10.238463499952175,,,0,25,0.0,16431,44215922699322,12,37.4254035949707,-707.0698714783111,0.06321306744561958,4,-872183.4941598582,3.4028234663852886E38,1.57542003E9,,,,0,,1,,1.57542003E9
Raw,1933544555,1545824000000,,,-1311853870175783504,0.0,10.238463499952175,,,0,31,0.0,16,1545017754889,1000000000,27.5573673248291,-832.464341394209,2.99792458E8,2,-14.139737643281947,3.4028234663852886E38,1.57542003E9,,,,0,,1,,1.57542003E9
Raw,1933544556,1545824000000,,,-1311853870175783504,0.0,10.238463499952175,,,0,32,0.0,16431,44215926912842,8,40.99312210083008,-402.1943907518589,0.04284142734499838,4,-654803.1807418675,3.4028234663852886E38,1.57542003E9,,,,0,,1,,1.57542003E9
Raw,1933544556,1545824000000,,,-1311853870175783504,0.0,10.238463499952175,,,0,10,0.0,32995,54997930210314,33,38.54093551635742,-785.8510607413091,0.05700387792067599,4,-1309146.6777317317,3.4028234663852886E38,1.59806246E9,,,,0,,3,,1.59806246E9
Raw,1933544556,1545824000000,,,-1311853870175783504,0.0,10.238463499952175,,,0,9,0.0,32995,54997933619247,44,32.639705657958984,-116.52023325754283,0.1112784050975767,4,-377349.43521505495,3.4028234663852886E38,1.59862502E9,,,,0,,3,,1.59862502E9
Raw,1933544556,1545824000000,,,-1311853870175783504,0.0,10.238463499952175,,,0,16,0.0,99,1925015134,92,26.211027145385742,529.3775761509869,0.22902929834601282,4,544295.2954508115,3.4028234663852886E38,1.60143744E9,,,,0,,3,,1.60143744E9
Raw,1933544557,1545824000000,,,-1311853870175783504,0.0,10.238463499952175,,,0,23,0.0,32961,54997924504638,33,36.03550338745117,-18.308047608515665,0.07442306281816696,1,-7380.434723963601,0.001408857642672956,1.60368755E9,,,,0,,3,,1.60368755E9
Raw,1933544557,1545824000000,,,-1311853870175783504,0.0,10.238463499952175,,,0,7,0.0,32995,54997932764907,48,31.828418731689453,-175.97934514494432,0.12177945458707434,4,-325136.4625548427,3.4028234663852886E38,1.60481254E9,,,,0,,3,,1.60481254E9
Raw,1933544557,1545824000000,,,-1311853870175783504,0.0,10.238463499952175,,,0,8,0.0,17,280430,87,26.70151138305664,-562.6306020118582,0.21691162042254686,4,-524854.6824603186,3.4028234663852886E38,1.60537498E9,,,,0,,3,,1.60537498E9
Raw,1933544557,1545824000000,,,-1311853870175783504,0.0,10.238463499952175,,,0,193,0.0,35,9245058,39,27.644733428955078,-253.54396112236054,0.19507862843121226,4,-379481.31570159894,3.4028234663852886E38,1.57542003E9,,,,0,,4,,1.57542003E9
Raw,1933544557,1545824000000,,,-1311853870175783504,0.0,10.238463499952175,,,0,194,0.0,35,12342462,32,29.176361083984375,-103.80783484032804,0.1643676391285953,4,-54072.0333237082,3.4028234663852886E38,1.57542003E9,,,,0,,4,,1.57542003E9
Raw,1933544557,1545824000000,,,-1311853870175783504,0.0,10.238463499952175,,,0,6,0.0,16431,44201878555007,13,31.000497817993164,-78.45202089790064,0.13477030407795587,4,-98997.8871265057,3.4028234663852886E38,1.56109798E9,,,,0,,5,,1.56109798E9
Raw,1933544558,1545824000000,,,-1311853870175783504,0.0,10.238463499952175,,,0,14,0.0,16431,44201924465398,20,27.29610252380371,127.05957684993388,0.20214008739203204,4,132061.91155357016,3.4028234663852886E38,1.56109798E9,,,,0,,5,,1.56109798E9
Raw,1933544558,1545824000000,,,-1311853870175783504,0.0,10.238463499952175,,,0,16,0.0,16431,44201877913837,8,34.73055648803711,-76.97052467776712,0.08876842368663862,4,-98049.20050694613,3.4028234663852886E38,1.56109798E9,,,,0,,5,,1.56109798E9
Raw,1933544558,1545824000000,,,-1311853870175783504,0.0,10.238463499952175,,,0,24,0.0,16431,44201924176533,20,27.41364288330078,17.81619728797439,0.19938188804553103,4,-82323.30822359845,3.4028234663852886E38,1.56109798E9,,,,0,,5,,1.56109798E9
Raw,1933544558,1545824000000,,,-1311853870175783504,0.0,10.238463499952175,,,0,25,0.0,16431,44201922706838,6,43.139129638671875,-588.4430867892347,0.0329785522997466,1,-636957.7950652068,6.733706686645746E-4,1.56109798E9,,,,0,,5,,1.56109798E9
Raw,1933544558,1545824000000,,,-1311853870175783504,0.0,10.238463499952175,,,0,26,0.0,16431,44201915377281,23,26.001567840576172,427.2148674045584,0.23646130417057132,4,553042.5276705461,3.4028234663852886E38,1.56109798E9,,,,0,,5,,1.56109798E9
Raw,1933544558,1545824000000,,,-1311853870175783504,0.0,10.238463499952175,,,0,27,0.0,16431,44201913194841,13,30.855327606201172,113.1107691574411,0.1360212949864053,4,75563.16676640429,3.4028234663852886E38,1.56109798E9,,,,0,,5,,1.56109798E9
Raw,1933544559,1545824000000,,,-1311853870175783504,0.0,10.238463499952175,,,0,33,0.0,16431,44201925967177,14,30.01005744934082,-118.87442781817117,0.1483810698514072,4,-220472.94116599523,3.4028234663852886E38,1.56109798E9,,,,0,,5,,1.56109798E9
Fix,gps,34.486406,109.464184,359.536987,0.981091,4.000000,1627820198999
Raw,1933545528,1546824000000,,,-1311853870175783892,0.0,10.574875965615037,,,0,10,0.0,16431,44216931463943,8,40.73182678222656,-352.2783837320726,0.0449304589293987,4,-636325.3232014435,3.4028234663852886E38,1.57542003E9,,,,0,,1,,1.57542003E9
Raw,1933545528,1546824000000,,,-1311853870175783892,0.0,10.574875965615037,,,0,12,0.0,16431,44216923507706,27,30.791805267333984,-481.1344383447097,0.13525978174029823,4,-785410.445218437,3.4028234663852886E38,1.57542003E9,,,,0,,1,,1.57542003E9
Raw,1933545528,1546824000000,,,-1311853870175783892,0.0,10.574875965615037,,,0,15,0.0,16431,44216916430093,48,25.73876953125,416.60472602935533,0.2438293721055006,4,740952.0322761642,3.4028234663852886E38,1.57542003E9,,,,0,,1,,1.57542003E9
Raw,1933545528,1546824000000,,,-1311853870175783892,0.0,10.574875965615037,,,0,18,0.0,16431,44216921277752,6,43.36225891113281,562.8685657233004,0.0318974640180367,1,836232.8045686254,6.503265467472374E-4,1.57542003E9,,,,0,,1,,1.57542003E9
Raw,1933545528,1546824000000,,,-1311853870175783892,0.0,10.574875965615037,,,0,23,0.0,16431,44216931361280,20,33.43182373046875,107.15054844932985,0.10138662112298547,4,49850.97649588807,3.4028234663852886E38,1.57542003E9,,,,0,,1,,1.57542003E9
Raw,1933545529,1546824000000,,,-1311853870175783892,0.0,10.574875965615037,,,0,24,0.0,16431,44216926159985,53,24.888832092285156,457.2061680937402,0.2667439329112268,4,575523.795888157,3.4028234663852886E38,1.57542003E9,,,,0,,1,,1.57542003E9
Raw,1933545529,1546824000000,,,-1311853870175783892,0.0,10.574875965615037,,,0,25,0.0,16431,44216922701669,11,38.114830017089844,-706.9066165115669,0.058427086749694906,4,-872890.5447295301,3.4028234663852886E38,1.57542003E9,,,,0,,1,,1.57542003E9
Raw,1933545530,1546824000000,,,-1311853870175783892,0.0,10.574875965615037,,,0,31,0.0,16,1546017757606,1000000000,28.445600509643555,-832.8356356755685,2.99792458E8,2,-14.139532076755911,3.4028234663852886E38,1.57542003E9,,,,0,,1,,1.57542003E9
Raw,1933545530,1546824000000,,,-1311853870175783892,0.0,10.574875965615037,,,0,32,0.0,16431,44216926914194,6,42.67261505126953,-402.27151935097004,0.03552817757988655,4,-655205.5271782664,3.4028234663852886E38,1.57542003E9,,,,0,,1,,1.57542003E9
Raw,1933545530,1546824000000,,,-1311853870175783892,0.0,10.574875965615037,,,0,10,0.0,32995,54998930212928,33,38.4326286315918,-786.1952935521895,0.05769655225984624,4,-1309932.5349544596,3.4028234663852886E38,1.59806246E9,,,,0,,3,,1.59806246E9
Raw,1933545530,1546824000000,,,-1311853870175783892,0.0,10.574875965615037,,,0,9,0.0,32995,54998933619659,40,33.465179443359375,-115.73232354826263,0.10141204983078178,4,-377465.475495571,3.4028234663852886E38,1.59862502E9,,,,0,,3,,1.59862502E9
Raw,1933545530,1546824000000,,,-1311853870175783892,0.0,10.574875965615037,,,0,16,0.0,99,925013450,65,29.256824493408203,529.080308965195,0.16155417228301605,4,544824.55026509,3.4028234663852886E38,1.60143744E9,,,,0,,3,,1.60143744E9
Raw,1933545530,1546824000000,,,-1311853870175783892,0.0,10.574875965615037,,,0,23,0.0,32961,54998924504700,35,34.535499572753906,-18.389323616554904,0.08829929065471576,4,-7397.776243073829,3.4028234663852886E38,1.60368755E9,,,,0,,3,,1.60368755E9
Raw,1933545531,1546824000000,,,-1311853870175783892,0.0,10.574875965615037,,,0,7,0.0,32995,54998932765576,42,32.867164611816406,-175.9924668907056,0.10831190003413427,4,-325312.66977763025,3.4028234663852886E38,1.60481254E9,,,,0,,3,,1.60481254E9
Raw,1933545531,1546824000000,,,-1311853870175783892,0.0,10.574875965615037,,,0,8,0.0,17,282180,100,25.468460083007812,-562.4567133186788,0.24979789588581303,4,-525417.1256888903,3.4028234663852886E38,1.60537498E9,,,,0,,3,,1.60537498E9
Raw,1933545531,1546824000000,,,-1311853870175783892,0.0,10.574875965615037,,,0,193,0.0,35,9245999,43,26.631895065307617,-253.5049878333267,0.21900011946856401,4,-379735.64729756746,3.4028234663852886E38,1.57542003E9,,,,0,,4,,1.57542003E9
