# 
# Header Description:
# 
# Version: v2.0.0.1 Platform: 10 Manufacturer: HUAWEI Model: BLA-AL00
# 
# Raw,ElapsedRealtimeMillis,TimeNanos,LeapSecond,TimeUncertaintyNanos,FullBiasNanos,BiasNanos,BiasUncertaintyNanos,DriftNanosPerSecond,DriftUncertaintyNanosPerSecond,HardwareClockDiscontinuityCount,Svid,TimeOffsetNanos,State,ReceivedSvTimeNanos,ReceivedSvTimeUncertaintyNanos,Cn0DbHz,PseudorangeRateMetersPerSecond,PseudorangeRateUncertaintyMetersPerSecond,AccumulatedDeltaRangeState,AccumulatedDeltaRangeMeters,AccumulatedDeltaRangeUncertaintyMeters,CarrierFrequencyHz,CarrierCycles,CarrierPhase,CarrierPhaseUncertainty,MultipathIndicator,SnrInDb,ConstellationType,AgcDb,CarrierFrequencyHz
# 
# Fix,Provider,Latitude,Longitude,Altitude,Speed,Accuracy,(UTC)TimeInMs
# 
# Nav,Svid,Type,Status,MessageId,Sub-messageId,Data(Bytes)
# 
Fix,gps,34.486719,109.464181,363.170685,1.063903,3.000000,1627818919000
Raw,1932265552,266825000000,,,-1311853870175288403,0.0,7.758994229468429,,,0,10,0.0,16431,42936930745485,9,39.62702941894531,-448.4768670817484,0.05061580958491718,1,-121075.64732945779,9.484494803473353E-4,1.57542003E9,,,,0,,1,,1.57542003E9
Raw,1932265552,266825000000,,,-1311853870175288403,0.0,7.758994229468429,,,0,12,0.0,16431,42936922236878,11,38.48529052734375,-575.4732124542184,0.05592421459518668,1,-154437.93037768427,0.0010816858848556876,1.57542003E9,,,,0,,1,,1.57542003E9
Raw,1932265553,266825000000,,,-1311853870175288403,0.0,7.758994229468429,,,0,15,0.0,16431,42936919204131,63,22.241199493408203,415.4236666634704,4.203454332640952,4,109411.51549085476,3.4028234663852886E38,1.57542003E9,,,,0,,1,,1.57542003E9
Raw,1932265553,266825000000,,,-1311853870175288403,0.0,7.758994229468429,,,0,18,0.0,16431,42936924619510,68,21.2017879486084,528.831541115035,4.200831048565462,4,134201.82141270957,3.4028234663852886E38,1.57542003E9,,,,0,,1,,1.57542003E9
Raw,1932265553,266825000000,,,-1311853870175288403,0.0,7.758994229468429,,,0,23,0.0,16431,42936932552807,11,38.58497619628906,-15.845572018437586,0.057146211284946236,1,-7549.524252252746,0.0010693427175283432,1.57542003E9,,,,0,,1,,1.57542003E9
Raw,1932265555,266825000000,,,-1311853870175288403,0.0,7.758994229468429,,,0,24,0.0,16431,42936928939191,28,30.272396087646484,371.62113211755013,0.14453308062922443,4,95425.69362771246,3.4028234663852886E38,1.57542003E9,,,,0,,1,,1.57542003E9
Raw,1932265555,266825000000,,,-1311853870175288403,0.0,7.758994229468429,,,0,25,0.0,16431,42936920612020,11,38.06327819824219,-732.8581577115565,0.06199362111546067,1,-194208.1679405025,0.0011355383321642876,1.57542003E9,,,,0,,1,,1.57542003E9
Raw,1932265555,266825000000,,,-1311853870175288403,0.0,7.758994229468429,,,0,31,0.0,16,15150283,1000000000,7.0,-853.0717534114219,2.99792458E8,4,-113542.94459064594,3.4028234663852886E38,1.57542003E9,,,,0,,1,,1.57542003E9
Raw,1932265557,266825000000,,,-1311853870175288403,0.0,7.758994229468429,,,0,32,0.0,16431,42936926120323,9,40.22889709472656,-438.8535150702503,0.04652470826990557,1,-117342.9863467493,9.328239248134196E-4,1.57542003E9,,,,0,,1,,1.57542003E9
Raw,1932265558,266825000000,,,-1311853870175288403,0.0,7.758994229468429,,,0,10,0.0,32995,53718927624276,60,29.850614547729492,-886.5870778576927,0.15140816779775956,4,-234049.2094197365,3.4028234663852886E38,1.59806246E9,,,,0,,3,,1.59806246E9
Raw,1932265558,266825000000,,,-1311853870175288403,0.0,7.758994229468429,,,0,9,0.0,32995,53718933667773,33,36.707889556884766,-327.39464589494264,0.07058779627079459,1,-91976.63738451866,0.0013062014477327466,1.59862502E9,,,,0,,3,,1.59862502E9
Raw,1932265559,266825000000,,,-1311853870175288403,0.0,7.758994229468429,,,0,16,0.0,32995,53718927980420,98,25.66454315185547,385.6106513043594,0.24437670507062692,4,94039.75489334029,3.4028234663852886E38,1.60143744E9,,,,0,,3,,1.60143744E9
Raw,1932265559,266825000000,,,-1311853870175288403,0.0,7.758994229468429,,,0,23,0.0,32995,53718925008006,33,36.695465087890625,-216.63218355376557,0.06912764675189945,1,-61441.97926039531,0.0013057769974693656,1.60368755E9,,,,0,,3,,1.60368755E9
Raw,1932265559,266825000000,,,-1311853870175288403,0.0,7.758994229468429,,,0,7,0.0,32995,53718932889000,33,36.58258819580078,-231.37303345339194,0.07143766928394651,1,-62423.05107952141,0.001321929506957531,1.60481254E9,,,,0,,3,,1.60481254E9
Raw,1932265560,266825000000,,,-1311853870175288403,0.0,7.758994229468429,,,0,8,0.0,32995,53718925876032,35,34.628814697265625,-563.5715163890834,0.08761105968268007,1,-147549.93208530408,0.001654797582887113,1.60537498E9,,,,0,,3,,1.60537498E9
Raw,1932265560,266825000000,,,-1311853870175288403,0.0,7.758994229468429,,,0,193,0.0,35,9190002,25,31.493579864501953,-239.82991339039688,0.125832396198567,4,-63174.15237677074,3.4028234663852886E38,1.57542003E9,,,,0,,4,,1.57542003E9
Raw,1932265560,266825000000,,,-1311853870175288403,0.0,7.758994229468429,,,0,194,0.0,35,12860516,16,35.0011100769043,-120.90088547687617,0.08523588024736106,1,-32522.61041074225,0.0016155119519680738,1.57542003E9,,,,0,,4,,1.57542003E9
Raw,1932265561,266825000000,,,-1311853870175288403,0.0,7.758994229468429,,,0,6,0.0,16431,42922879231774,11,32.458499908447266,-73.50665645644085,0.11458219001763426,1,-2132.991073747522,0.002184775657951832,1.56109798E9,,,,0,,5,,1.56109798E9
Raw,1932265561,266825000000,,,-1311853870175288403,0.0,7.758994229468429,,,0,14,0.0,16431,42922925874196,9,33.90507125854492,66.92250525799477,0.0951317581107729,4,9538.041468002317,3.4028234663852886E38,1.56109798E9,,,,0,,5,,1.56109798E9
Raw,1932265561,266825000000,,,-1311853870175288403,0.0,7.758994229468429,,,0,16,0.0,16431,42922878591495,8,35.33080291748047,-74.5300844609078,0.08317821850209428,1,-1419.069249996292,0.0015696099726483226,1.56109798E9,,,,0,,5,,1.56109798E9
Raw,1932265562,266825000000,,,-1311853870175288403,0.0,7.758994229468429,,,0,24,0.0,16431,42922924966201,12,31.295225143432617,-116.27932141361134,0.12794110674040787,4,-19172.52225222923,3.4028234663852886E38,1.56109798E9,,,,0,,5,,1.56109798E9
Raw,1932265562,266825000000,,,-1311853870175288403,0.0,7.758994229468429,,,0,26,0.0,16431,42922918058570,28,24.4681396484375,357.8729508053789,0.28206667645197037,4,49118.815714515666,3.4028234663852886E38,1.56109798E9,,,,0,,5,,1.56109798E9
Raw,1932265562,266825000000,,,-1311853870175288403,0.0,7.758994229468429,,,0,27,0.0,16431,42922914473454,6,42.96375274658203,13.431175058668764,0.03575778483215472,1,992.6854925446298,6.871048244647682E-4,1.56109798E9,,,,0,,5,,1.56109798E9
Raw,1932265563,266825000000,,,-1311853870175288403,0.0,7.758994229468429,,,0,33,0.0,16431,42922926328217,9,33.723838806152344,-178.32021346507224,0.09719694196070194,1,-28895.05089995689,0.0018885999452322721,1.56109798E9,,,,0,,5,,1.56109798E9
Fix,gps,34.486719,109.464182,363.201263,0.841760,3.000000,1627818920000
Raw,1932266480,267825000000,,,-1311853870175288789,0.0,8.04611372602707,,,0,10,0.0,16431,42937930746995,9,40.24229431152344,-447.5218766499793,0.047286924633096666,1,-121523.81353024785,8.835902553983033E-4,1.57542003E9,,,,0,,1,,1.57542003E9
Raw,1932266480,267825000000,,,-1311853870175288789,0.0,8.04611372602707,,,0,12,0.0,16431,42937922238800,11,38.03123474121094,-574.9672924695938,0.05890413712961129,4,-155013.19041880462,3.4028234663852886E38,1.57542003E9,,,,0,,1,,1.57542003E9
Raw,1932266480,267825000000,,,-1311853870175288789,0.0,8.04611372602707,,,0,15,0.0,16431,42937919202742,71,20.760196685791016,415.567256052801,4.20345406637176,4,109827.2630324108,3.4028234663852886E38,1.57542003E9,,,,0,,1,,1.57542003E9
Raw,1932266481,267825000000,,,-1311853870175288789,0.0,8.04611372602707,,,0,18,0.0,16431,42937924617773,68,21.285558700561523,528.9628949024739,4.200830516027079,4,134730.6221877748,3.4028234663852886E38,1.57542003E9,,,,0,,1,,1.57542003E9
Raw,1932266481,267825000000,,,-1311853870175288789,0.0,8.04611372602707,,,0,23,0.0,16431,42937932552887,13,37.11022186279297,-15.839930306806295,0.06730345732263493,1,-7565.214164077311,0.0012672276934608817,1.57542003E9,,,,0,,1,,1.57542003E9
Raw,1932266481,267825000000,,,-1311853870175288789,0.0,8.04611372602707,,,0,24,0.0,16431,42937928937937,27,30.78459930419922,372.05312725397675,0.1363482901954955,4,95797.85017842405,3.4028234663852886E38,1.57542003E9,,,,0,,1,,1.57542003E9
Raw,1932266482,267825000000,,,-1311853870175288789,0.0,8.04611372602707,,,0,25,0.0,16431,42937920614462,12,37.785823822021484,-732.5385324342856,0.06388594217412186,1,-194940.89307340133,0.0011723965872079134,1.57542003E9,,,,0,,1,,1.57542003E9
Raw,1932266482,267825000000,,,-1311853870175288789,0.0,8.04611372602707,,,0,31,0.0,16,15153128,1000000000,7.0,-853.0717534114219,2.99792458E8,4,-114396.0167283184,3.4028234663852886E38,1.57542003E9,,,,0,,1,,1.57542003E9
Raw,1932266483,267825000000,,,-1311853870175288789,0.0,8.04611372602707,,,0,32,0.0,16431,42937926121761,12,37.76865005493164,-438.864319208968,0.061398180796236046,1,-117781.67494766782,0.0011747169774025679,1.57542003E9,,,,0,,1,,1.57542003E9
Raw,1932266483,267825000000,,,-1311853870175288789,0.0,8.04611372602707,,,0,10,0.0,32995,53719927627215,51,31.293621063232422,-886.0423720375452,0.12844322386843826,4,-234935.47063350247,3.4028234663852886E38,1.59806246E9,,,,0,,3,,1.59806246E9
Raw,1932266483,267825000000,,,-1311853870175288789,0.0,8.04611372602707,,,0,9,0.0,32995,53719933668891,33,35.02943801879883,-325.67859420901914,0.08511129954934848,1,-92303.58164001726,0.0015846479218453169,1.59862502E9,,,,0,,3,,1.59862502E9
Raw,1932266483,267825000000,,,-1311853870175288789,0.0,8.04611372602707,,,0,16,0.0,32995,53719927979194,80,27.41848373413086,386.1938362179212,0.19995523218231026,4,94425.93003929962,3.4028234663852886E38,1.60143744E9,,,,0,,3,,1.60143744E9
Raw,1932266484,267825000000,,,-1311853870175288789,0.0,8.04611372602707,,,0,23,0.0,32995,53719925008714,38,33.76353073120117,-216.5305326271863,0.09652160840263363,4,-61658.45049907411,3.4028234663852886E38,1.60368755E9,,,,0,,3,,1.60368755E9
Raw,1932266484,267825000000,,,-1311853870175288789,0.0,8.04611372602707,,,0,7,0.0,32995,53719932889765,33,37.09500503540039,-230.71478192933864,0.06747811743094598,1,-62654.24069158211,0.001246199244633317,1.60481254E9,,,,0,,3,,1.60481254E9
Raw,1932266484,267825000000,,,-1311853870175288789,0.0,8.04611372602707,,,0,8,0.0,32995,53719925877921,45,32.312339782714844,-564.5415712666356,0.11406586909241528,4,-148113.59975174145,3.4028234663852886E38,1.60537498E9,,,,0,,3,,1.60537498E9
Raw,1932266485,267825000000,,,-1311853870175288789,0.0,8.04611372602707,,,0,193,0.0,35,9190787,29,30.055097579956055,-239.15649517319093,0.14819904157531028,4,-63413.68432063298,3.4028234663852886E38,1.57542003E9,,,,0,,4,,1.57542003E9
Raw,1932266486,267825000000,,,-1311853870175288789,0.0,8.04611372602707,,,0,194,0.0,35,12860912,15,35.95720291137695,-120.26492387938879,0.07659273236305619,4,-32643.305127115305,3.4028234663852886E38,1.57542003E9,,,,0,,4,,1.57542003E9
Raw,1932266487,267825000000,,,-1311853870175288789,0.0,8.04611372602707,,,0,6,0.0,16431,42923879232019,10,33.11337661743164,-72.63812469625594,0.10651212832182927,1,-2206.2210042931456,0.002026109956204891,1.56109798E9,,,,0,,5,,1.56109798E9
Raw,1932266487,267825000000,,,-1311853870175288789,0.0,8.04611372602707,,,0,14,0.0,16431,42923925873950,12,31.465351104736328,67.64927956088718,0.12564017480497974,1,9605.242750699888,0.0023093409836292267,1.56109798E9,,,,0,,5,,1.56109798E9
Raw,1932266487,267825000000,,,-1311853870175288789,0.0,8.04611372602707,,,0,16,0.0,16431,42923878591737,8,35.049896240234375,-73.76929586640563,0.08580235131063252,1,-1493.3819179014388,0.0016212017508223653,1.56109798E9,,,,0,,5,,1.56109798E9
Raw,1932266487,267825000000,,,-1311853870175288789,0.0,8.04611372602707,,,0,24,0.0,16431,42923924966554,16,29.08225440979004,-115.93858205452455,0.16480723292207677,4,-19288.46165524193,3.4028234663852886E38,1.56109798E9,,,,0,,5,,1.56109798E9
Raw,1932266488,267825000000,,,-1311853870175288789,0.0,8.04611372602707,,,0,26,0.0,16431,42923918057372,14,30.074329376220703,358.3757352040034,0.14946979465032262,4,49477.12242068688,3.4028234663852886E38,1.56109798E9,,,,0,,5,,1.56109798E9
Raw,1932266488,267825000000,,,-1311853870175288789,0.0,8.04611372602707,,,0,27,0.0,16431,42923914473398,6,39.34984588623047,13.634670755798801,0.05286499792759944,1,1006.2724548565643,9.881879668682814E-4,1.56109798E9,,,,0,,5,,1.56109798E9
Raw,1932266488,267825000000,,,-1311853870175288789,0.0,8.04611372602707,,,0,33,0.0,16431,42923926328784,9,33.81416702270508,-177.55951007671138,0.0962032586213577,1,-29073.070843572405,0.0018690611468628049,1.56109798E9,,,,0,,5,,1.56109798E9
Fix,gps,34.486720,109.464181,363.142792,0.692190,3.000000,1627818921000
Raw,1932267493,268825000000,,,-1311853870175289173,0.0,8.16634715252271,,,0,10,0.0,16431,42938930748489,7,41.68418884277344,-448.266271582894,0.040349992284359926,1,-121972.08982984816,7.889237604103982E-4,1.57542003E9,,,,0,,1,,1.57542003E9
Raw,1932267493,268825000000,,,-1311853870175289173,0.0,8.16634715252271,,,0,12,0.0,16431,42938922240712,19,33.67713928222656,-572.7648159641767,0.09697954148668547,4,-155586.2300022834,3.4028234663852886E38,1.57542003E9,,,,0,,1,,1.57542003E9
Raw,1932267494,268825000000,,,-1311853870175289173,0.0,8.16634715252271,,,0,15,0.0,16431,42938919201396,42,26.869592666625977,417.3460876236395,0.21492383769824652,4,110243.70198674325,3.4028234663852886E38,1.57542003E9,,,,0,,1,,1.57542003E9
Raw,1932267494,268825000000,,,-1311853870175289173,0.0,8.16634715252271,,,0,18,0.0,16431,42938924616053,86,17.847017288208008,529.3655791262909,4.200830249757887,4,135259.51988188224,3.4028234663852886E38,1.57542003E9,,,,0,,1,,1.57542003E9
Raw,1932267494,268825000000,,,-1311853870175289173,0.0,8.16634715252271,,,0,23,0.0,16431,42938932552925,16,34.90597915649414,-15.14027498853838,0.086093757978085,4,-7580.753911577418,3.4028234663852886E38,1.57542003E9,,,,0,,1,,1.57542003E9
Raw,1932267494,268825000000,,,-1311853870175289173,0.0,8.16634715252271,,,0,24,0.0,16431,42938928936617,29,30.230575561523438,373.17048650862057,0.1452224349244121,4,96171.37275730592,3.4028234663852886E38,1.57542003E9,,,,0,,1,,1.57542003E9
Raw,1932267494,268825000000,,,-1311853870175289173,0.0,8.16634715252271,,,0,25,0.0,16431,42938920616888,14,36.059669494628906,-732.8480011395127,0.07711670020662098,1,-195673.552679596,0.0014301521005108953,1.57542003E9,,,,0,,1,,1.57542003E9
Raw,1932267494,268825000000,,,-1311853870175289173,0.0,8.16634715252271,,,0,31,0.0,16,15155974,1000000000,7.0,-853.0717534114219,2.99792458E8,4,-115249.0888659934,3.4028234663852886E38,1.57542003E9,,,,0,,1,,1.57542003E9
Raw,1932267494,268825000000,,,-1311853870175289173,0.0,8.16634715252271,,,0,32,0.0,16431,42938926123238,6,43.386863708496094,-438.7333744110074,0.032679452948931,1,-118220.43614056545,6.484869518317282E-4,1.57542003E9,,,,0,,1,,1.57542003E9
Raw,1932267495,268825000000,,,-1311853870175289173,0.0,8.16634715252271,,,0,10,0.0,32995,53720927630221,33,35.82334899902344,-886.4219824382963,0.07680543984257099,4,-235821.6158554433,3.4028234663852886E38,1.59806246E9,,,,0,,3,,1.59806246E9
Raw,1932267495,268825000000,,,-1311853870175289173,0.0,8.16634715252271,,,0,9,0.0,32995,53720933669925,42,32.92733383178711,-326.5352908361765,0.10774273299529802,4,-92630.60114761486,3.4028234663852886E38,1.59862502E9,,,,0,,3,,1.59862502E9
Raw,1932267495,268825000000,,,-1311853870175289173,0.0,8.16634715252271,,,0,16,0.0,32995,53720927977824,72,28.26181983947754,387.07183438040533,0.18158635244801602,4,94812.84835902684,3.4028234663852886E38,1.60143744E9,,,,0,,3,,1.60143744E9
Raw,1932267495,268825000000,,,-1311853870175289173,0.0,8.16634715252271,,,0,23,0.0,32995,53720925009448,33,41.277671813964844,-216.31888057217964,0.04115838971046645,4,-61874.96887499722,3.4028234663852886E38,1.60368755E9,,,,0,,3,,1.60368755E9
Raw,1932267495,268825000000,,,-1311853870175289173,0.0,8.16634715252271,,,0,7,0.0,32995,53720932890644,166,32.40725326538086,-229.9564983953909,0.11409913609953887,4,-62885.33524980475,3.4028234663852886E38,1.60481254E9,,,,1,,3,,1.60481254E9
Raw,1932267495,268825000000,,,-1311853870175289173,0.0,8.16634715252271,,,0,8,0.0,32995,53720925879816,33,38.14024353027344,-563.6026336718887,0.05882946942365244,4,-148677.33589963723,3.4028234663852886E38,1.60537498E9,,,,0,,3,,1.60537498E9
Raw,1932267496,268825000000,,,-1311853870175289173,0.0,8.16634715252271,,,0,193,0.0,35,9191580,35,28.518922805786133,-239.07377705121007,0.1765502700929834,4,-63652.56201145512,3.4028234663852886E38,1.57542003E9,,,,0,,4,,1.57542003E9
Raw,1932267496,268825000000,,,-1311853870175289173,0.0,8.16634715252271,,,0,194,0.0,35,12861310,17,34.539085388183594,-120.08887947083434,0.08976632572848703,4,-32763.289033786066,3.4028234663852886E38,1.57542003E9,,,,0,,4,,1.57542003E9
Raw,1932267496,268825000000,,,-1311853870175289173,0.0,8.16634715252271,,,0,6,0.0,16431,42924879232254,10,33.12883758544922,-73.20546126753464,0.10632889351345798,4,-2279.6025883517377,3.4028234663852886E38,1.56109798E9,,,,0,,5,,1.56109798E9
Raw,1932267497,268825000000,,,-1311853870175289173,0.0,8.16634715252271,,,0,14,0.0,16431,42924925873734,17,28.50777816772461,69.29253537998503,0.1761780424049728,4,9674.22144049956,3.4028234663852886E38,1.56109798E9,,,,0,,5,,1.56109798E9
Raw,1932267497,268825000000,,,-1311853870175289173,0.0,8.16634715252271,,,0,16,0.0,16431,42924878591990,8,34.486324310302734,-74.10046657582365,0.09132996659333004,4,-1567.7829944314356,3.4028234663852886E38,1.56109798E9,,,,0,,5,,1.56109798E9
Raw,1932267497,268825000000,,,-1311853870175289173,0.0,8.16634715252271,,,0,24,0.0,16431,42924924966924,18,28.231033325195312,-113.63131051591398,0.181684406077817,4,-19402.171320731315,3.4028234663852886E38,1.56109798E9,,,,0,,5,,1.56109798E9
Raw,1932267497,268825000000,,,-1311853870175289173,0.0,8.16634715252271,,,0,26,0.0,16431,42924918056155,12,31.50040054321289,358.9822325178268,0.12732975267652996,4,49835.54677053884,3.4028234663852886E38,1.56109798E9,,,,0,,5,,1.56109798E9
Raw,1932267497,268825000000,,,-1311853870175289173,0.0,8.16634715252271,,,0,27,0.0,16431,42924914473361,6,40.308170318603516,13.572890977967376,0.04761453558969239,1,1019.6940439236698,9.328291635029018E-4,1.56109798E9,,,,0,,5,,1.56109798E9
Raw,1932267498,268825000000,,,-1311853870175289173,0.0,8.16634715252271,,,0,33,0.0,16431,42924926329384,10,32.80024719238281,-177.74912782357603,0.10797410428096044,4,-29251.169351105575,3.4028234663852886E38,1.56109798E9,,,,0,,5,,1.56109798E9
Fix,gps,34.486721,109.464180,363.096802,0.562720,3.000000,1627818922000
Raw,1932268482,269825000000,,,-1311853870175289556,0.0,8.15712669039186,,,0,10,0.0,16431,42939930749996,7,42.40360641479492,-448.1965047943918,0.037296579453058004,1,-122420.3310130974,7.26213154848665E-4,1.57542003E9,,,,0,,1,,1.57542003E9
Raw,1932268482,269825000000,,,-1311853870175289556,0.0,8.15712669039186,,,0,12,0.0,16431,42939922242664,166,29.64987564086914,-571.8355237046258,0.15394799312351237,4,-156158.04535743754,3.4028234663852886E38,1.57542003E9,,,,1,,1,,1.57542003E9
Raw,1932268482,269825000000,,,-1311853870175289556,0.0,8.15712669039186,,,0,15,0.0,16431,42939919200025,40,27.318525314331055,417.5967981738213,0.20427135592694745,4,110660.48061897699,3.4028234663852886E38,1.57542003E9,,,,0,,1,,1.57542003E9
Raw,1932268483,269825000000,,,-1311853870175289556,0.0,8.15712669039186,,,0,18,0.0,16431,42939924614285,104,14.243358612060547,529.3086273414413,4.2008299834886955,4,135788.3227852877,3.4028234663852886E38,1.57542003E9,,,,0,,1,,1.57542003E9
Raw,1932268483,269825000000,,,-1311853870175289556,0.0,8.15712669039186,,,0,23,0.0,16431,42939932552969,18,34.0707893371582,-15.497972499898808,0.09455524370643137,4,-7596.340850500775,3.4028234663852886E38,1.57542003E9,,,,0,,1,,1.57542003E9
Raw,1932268483,269825000000,,,-1311853870175289556,0.0,8.15712669039186,,,0,24,0.0,16431,42939928935448,43,26.77691650390625,372.3080981112239,0.2153456746650142,4,96543.28379285162,3.4028234663852886E38,1.57542003E9,,,,0,,1,,1.57542003E9
Raw,1932268483,269825000000,,,-1311853870175289556,0.0,8.15712669039186,,,0,25,0.0,16431,42939920619377,23,31.999584197998047,-732.8248932339902,0.12086077595063455,1,-196406.38276242415,0.0022823726758360863,1.57542003E9,,,,0,,1,,1.57542003E9
Raw,1932268483,269825000000,,,-1311853870175289556,0.0,8.15712669039186,,,0,31,0.0,16,15158819,1000000000,7.0,-853.0717534114219,2.99792458E8,4,-116102.16100366836,3.4028234663852886E38,1.57542003E9,,,,0,,1,,1.57542003E9
Raw,1932268484,269825000000,,,-1311853870175289556,0.0,8.15712669039186,,,0,32,0.0,16431,42939926124693,6,47.770484924316406,-438.62287908696044,0.031101681094881484,1,-118659.12993914718,3.914895642083138E-4,1.57542003E9,,,,0,,1,,1.57542003E9
Raw,1932268484,269825000000,,,-1311853870175289556,0.0,8.15712669039186,,,0,10,0.0,32995,53721927633184,33,36.84510803222656,-886.2708608260741,0.06843448147890721,1,-236707.900099527,0.001287991413846612,1.59806246E9,,,,0,,3,,1.59806246E9
Raw,1932268484,269825000000,,,-1311853870175289556,0.0,8.15712669039186,,,0,9,0.0,32995,53721933671118,166,29.449167251586914,-326.01372700400793,0.1595930497615231,4,-92957.10790019481,3.4028234663852886E38,1.59862502E9,,,,1,,3,,1.59862502E9
Raw,1932268484,269825000000,,,-1311853870175289556,0.0,8.15712669039186,,,0,16,0.0,32995,53721927976573,108,24.800804138183594,387.0485901450568,0.2697764893760066,4,95200.57338588951,3.4028234663852886E38,1.60143744E9,,,,0,,3,,1.60143744E9
Raw,1932268484,269825000000,,,-1311853870175289556,0.0,8.15712669039186,,,0,23,0.0,32995,53721925010171,33,43.970298767089844,-216.08343896252006,0.030901211597039277,4,-62091.17834965695,3.4028234663852886E38,1.60368755E9,,,,0,,3,,1.60368755E9
Raw,1932268484,269825000000,,,-1311853870175289556,0.0,8.15712669039186,,,0,7,0.0,32995,53721932891343,69,28.657821655273438,-230.51200835425618,0.17444118511009188,4,-63116.69613909651,3.4028234663852886E38,1.60481254E9,,,,0,,3,,1.60481254E9
Raw,1932268485,269825000000,,,-1311853870175289556,0.0,8.15712669039186,,,0,8,0.0,32995,53721925881709,38,33.82685089111328,-563.6027018368018,0.09598411075577146,4,-149240.9782971375,3.4028234663852886E38,1.60537498E9,,,,0,,3,,1.60537498E9
Raw,1932268485,269825000000,,,-1311853870175289556,0.0,8.15712669039186,,,0,193,0.0,35,9192369,45,26.241046905517578,-239.44111776761292,0.22899358499069156,4,-63891.06728321162,3.4028234663852886E38,1.57542003E9,,,,0,,4,,1.57542003E9
Raw,1932268485,269825000000,,,-1311853870175289556,0.0,8.15712669039186,,,0,194,0.0,35,12861711,17,34.611873626708984,-120.86942736950562,0.08903657340438864,4,-32884.121041463804,3.4028234663852886E38,1.57542003E9,,,,0,,4,,1.57542003E9
Raw,1932268485,269825000000,,,-1311853870175289556,0.0,8.15712669039186,,,0,6,0.0,16431,42925879232498,14,30.53403091430664,-73.55419296267604,0.14214359754577,4,-2353.0795606604515,3.4028234663852886E38,1.56109798E9,,,,0,,5,,1.56109798E9
Raw,1932268485,269825000000,,,-1311853870175289556,0.0,8.15712669039186,,,0,14,0.0,16431,42925925873508,23,25.99894142150879,68.15639669179714,0.2348224838636669,4,9742.284586461274,3.4028234663852886E38,1.56109798E9,,,,0,,5,,1.56109798E9
Raw,1932268486,269825000000,,,-1311853870175289556,0.0,8.15712669039186,,,0,16,0.0,16431,42925878592248,12,31.7344913482666,-74.60562822579061,0.12412673400366264,4,-1642.3520877185867,3.4028234663852886E38,1.56109798E9,,,,0,,5,,1.56109798E9
Raw,1932268486,269825000000,,,-1311853870175289556,0.0,8.15712669039186,,,0,24,0.0,16431,42925924967300,25,25.464696884155273,-113.6339263444521,0.2494891900418198,4,-19514.766622235853,3.4028234663852886E38,1.56109798E9,,,,0,,5,,1.56109798E9
Raw,1932268486,269825000000,,,-1311853870175289556,0.0,8.15712669039186,,,0,26,0.0,16431,42925918054986,20,27.356325149536133,359.3671256993389,0.20319338174664225,4,50193.61218439853,3.4028234663852886E38,1.56109798E9,,,,0,,5,,1.56109798E9
Raw,1932268486,269825000000,,,-1311853870175289556,0.0,8.15712669039186,,,0,27,0.0,16431,42925914473316,6,42.19988250732422,13.766687020986375,0.03880552696176712,1,1033.362841311438,7.502680527977645E-4,1.56109798E9,,,,0,,5,,1.56109798E9
Raw,1932268486,269825000000,,,-1311853870175289556,0.0,8.15712669039186,,,0,33,0.0,16431,42925926329976,9,33.5580940246582,-178.13178860418589,0.09904786232052787,4,-29429.334004104803,3.4028234663852886E38,1.56109798E9,,,,0,,5,,1.56109798E9
Fix,gps,34.486722,109.464178,363.026367,0.476514,3.000000,1627818923000
Raw,1932269517,270825000000,,,-1311853870175289941,0.0,8.191578166975301,,,0,10,0.0,16431,42940930751498,8,41.130496978759766,-448.0411569575608,0.04287917932381771,1,-122868.48112983996,8.408523281104863E-4,1.57542003E9,,,,0,,1,,1.57542003E9
Raw,1932269517,270825000000,,,-1311853870175289941,0.0,8.191578166975301,,,0,12,0.0,16431,42940922244571,166,25.39190673828125,-573.0531535463597,0.25109148154400374,4,-156730.03814945565,3.4028234663852886E38,1.57542003E9,,,,1,,1,,1.57542003E9
Raw,1932269518,270825000000,,,-1311853870175289941,0.0,8.191578166975301,,,0,15,0.0,16431,42940919198614,55,24.558103561401367,416.08854722531737,0.27939882557053886,4,111077.22108489132,3.4028234663852886E38,1.57542003E9,,,,0,,1,,1.57542003E9
Raw,1932269518,270825000000,,,-1311853870175289941,0.0,8.191578166975301,,,0,18,0.0,16430,42940924612517,1000000000,8.911556243896484,529.2266590335039,2.99792458E8,4,136318.24790755042,3.4028234663852886E38,1.57542003E9,,,,0,,1,,1.57542003E9
Raw,1932269518,270825000000,,,-1311853870175289941,0.0,8.191578166975301,,,0,23,0.0,16431,42940932553012,15,35.798038482666016,-15.383107165879572,0.0779110228096786,4,-7611.808119667818,3.4028234663852886E38,1.57542003E9,,,,0,,1,,1.57542003E9
Raw,1932269518,270825000000,,,-1311853870175289941,0.0,8.191578166975301,,,0,24,0.0,16431,42940928934150,57,24.262876510620117,371.5460825482869,0.2870928735632654,4,96915.2257840708,3.4028234663852886E38,1.57542003E9,,,,0,,1,,1.57542003E9
Raw,1932269518,270825000000,,,-1311853870175289941,0.0,8.191578166975301,,,0,25,0.0,16431,42940920621782,20,33.231224060058594,-732.8502505816432,0.10537334491489597,1,-197139.19681167274,0.001980635104700923,1.57542003E9,,,,0,,1,,1.57542003E9
Raw,1932269519,270825000000,,,-1311853870175289941,0.0,8.191578166975301,,,0,31,0.0,16,15161665,1000000000,7.0,-853.0717534114219,2.99792458E8,4,-116955.23314134336,3.4028234663852886E38,1.57542003E9,,,,0,,1,,1.57542003E9
Raw,1932269519,270825000000,,,-1311853870175289941,0.0,8.191578166975301,,,0,32,0.0,16431,42940926126158,6,46.84092330932617,-438.60229328322066,0.03110194528384501,1,-119097.78192866477,4.3571071000769734E-4,1.57542003E9,,,,0,,1,,1.57542003E9
Raw,1932269519,270825000000,,,-1311853870175289941,0.0,8.191578166975301,,,0,10,0.0,32995,53722927636151,33,36.773277282714844,-886.2353469063773,0.0689918993896648,1,-237594.1158036757,0.0012986870715394616,1.59806246E9,,,,0,,3,,1.59806246E9
Raw,1932269519,270825000000,,,-1311853870175289941,0.0,8.191578166975301,,,0,9,0.0,32995,53722933672332,78,27.56606101989746,-326.1813104427306,0.19763482931224752,4,-93282.8698058711,3.4028234663852886E38,1.59862502E9,,,,0,,3,,1.59862502E9
Raw,1932269519,270825000000,,,-1311853870175289941,0.0,8.191578166975301,,,0,16,0.0,32995,53722927975315,118,24.04916763305664,386.28296184172837,0.29403171556136054,4,95587.04469794389,3.4028234663852886E38,1.60143744E9,,,,0,,3,,1.60143744E9
Raw,1932269519,270825000000,,,-1311853870175289941,0.0,8.191578166975301,,,0,23,0.0,32995,53722925010917,33,44.29838180541992,-215.89429837004673,0.03090134473163507,4,-62307.208896300916,3.4028234663852886E38,1.60368755E9,,,,0,,3,,1.60368755E9
Raw,1932269520,270825000000,,,-1311853870175289941,0.0,8.191578166975301,,,0,7,0.0,32995,53722932892181,116,24.228458404541016,-230.64404379082555,0.2889382854791904,4,-63347.520158255815,3.4028234663852886E38,1.60481254E9,,,,0,,3,,1.60481254E9
Raw,1932269520,270825000000,,,-1311853870175289941,0.0,8.191578166975301,,,0,8,0.0,32995,53722925883563,43,32.7427864074707,-563.540262776452,0.10860301546965845,4,-149804.56859623693,3.4028234663852886E38,1.60537498E9,,,,0,,3,,1.60537498E9
Raw,1932269520,270825000000,,,-1311853870175289941,0.0,8.191578166975301,,,0,193,0.0,35,9193177,43,26.718408584594727,-240.09347302668778,0.21683664900329136,4,-64130.16535835653,3.4028234663852886E38,1.57542003E9,,,,0,,4,,1.57542003E9
Raw,1932269520,270825000000,,,-1311853870175289941,0.0,8.191578166975301,,,0,194,0.0,35,12862112,19,33.811275482177734,-120.7352703000177,0.09741010709038977,4,-33004.908640753834,3.4028234663852886E38,1.57542003E9,,,,0,,4,,1.57542003E9
Raw,1932269520,270825000000,,,-1311853870175289941,0.0,8.191578166975301,,,0,6,0.0,16431,42926879232753,14,30.007192611694336,-73.38613236956206,0.150815818697431,4,-2426.525792788728,3.4028234663852886E38,1.56109798E9,,,,0,,5,,1.56109798E9
Raw,1932269520,270825000000,,,-1311853870175289941,0.0,8.191578166975301,,,0,14,0.0,16431,42926925873284,27,24.63229751586914,67.00562384883978,0.27465487380232334,4,9810.22499737835,3.4028234663852886E38,1.56109798E9,,,,0,,5,,1.56109798E9
Raw,1932269521,270825000000,,,-1311853870175289941,0.0,8.191578166975301,,,0,16,0.0,16431,42926878592502,16,29.05880355834961,-74.34431803163022,0.1677013294072327,4,-1716.8503277976351,3.4028234663852886E38,1.56109798E9,,,,0,,5,,1.56109798E9
Raw,1932269521,270825000000,,,-1311853870175289941,0.0,8.191578166975301,,,0,24,0.0,16431,42926924967710,63,22.191875457763672,-114.95275552021639,4.200893621825484,4,-19628.277876942382,3.4028234663852886E38,1.56109798E9,,,,0,,5,,1.56109798E9
Raw,1932269521,270825000000,,,-1311853870175289941,0.0,8.191578166975301,,,0,26,0.0,16431,42926918053790,32,23.257503509521484,358.72770473251444,0.32376599618559676,4,50551.73266914593,3.4028234663852886E38,1.56109798E9,,,,0,,5,,1.56109798E9
Raw,1932269521,270825000000,,,-1311853870175289941,0.0,8.191578166975301,,,0,27,0.0,16431,42926914473266,6,42.840911865234375,13.875093729494537,0.036229984120236924,1,1047.1425633313606,6.968914531171322E-4,1.56109798E9,,,,0,,5,,1.56109798E9
Raw,1932269521,270825000000,,,-1311853870175289941,0.0,8.191578166975301,,,0,33,0.0,16431,42926926330595,11,31.915239334106445,-177.98036024985504,0.11943374782289884,4,-29607.44145472746,3.4028234663852886E38,1.56109798E9,,,,0,,5,,1.56109798E9
Fix,gps,34.486722,109.464176,362.996979,0.341966,3.000000,1627818924000
Raw,1932270519,271825000000,,,-1311853870175290323,0.0,7.886354149077278,,,0,10,0.0,16431,42941930752996,7,41.43608856201172,-448.0484846857132,0.041463937768265735,1,-123316.5623790506,8.117830147966743E-4,1.57542003E9,,,,0,,1,,1.57542003E9
Raw,1932270519,271825000000,,,-1311853870175290323,0.0,7.886354149077278,,,0,12,0.0,16431,42941922246446,65,23.1524600982666,-574.0639710419132,0.32482238591955914,4,-157304.06036895185,3.4028234663852886E38,1.57542003E9,,,,0,,1,,1.57542003E9
Raw,1932270519,271825000000,,,-1311853870175290323,0.0,7.886354149077278,,,0,15,0.0,16431,42941919197172,60,23.87252426147461,414.8278371585386,0.302061595571973,4,111493.44366762717,3.4028234663852886E38,1.57542003E9,,,,0,,1,,1.57542003E9
Raw,1932270520,271825000000,,,-1311853870175290323,0.0,7.886354149077278,,,0,18,0.0,16430,42941924610878,1000000000,8.30694580078125,529.1485761256101,2.99792458E8,4,136847.16219953756,3.4028234663852886E38,1.57542003E9,,,,1,,1,,1.57542003E9
Raw,1932270520,271825000000,,,-1311853870175290323,0.0,7.886354149077278,,,0,23,0.0,16431,42941932553077,14,36.016536712646484,-15.31416900710159,0.07603167821365103,4,-7627.175282257727,3.4028234663852886E38,1.57542003E9,,,,0,,1,,1.57542003E9
Raw,1932270520,271825000000,,,-1311853870175290323,0.0,7.886354149077278,,,0,24,0.0,16431,42941928932890,59,24.046466827392578,371.8733082133624,0.2942948893735928,4,97287.27765251935,3.4028234663852886E38,1.57542003E9,,,,0,,1,,1.57542003E9
Raw,1932270520,271825000000,,,-1311853870175290323,0.0,7.886354149077278,,,0,25,0.0,16431,42941920624245,21,32.997711181640625,-732.7653170999884,0.10814400898792803,1,-197871.97333232782,0.0020346054807305336,1.57542003E9,,,,0,,1,,1.57542003E9
Raw,1932270520,271825000000,,,-1311853870175290323,0.0,7.886354149077278,,,0,31,0.0,16,15164449,1000000000,7.0,-853.0717534114219,2.99792458E8,4,-117808.30527901578,3.4028234663852886E38,1.57542003E9,,,,0,,1,,1.57542003E9
Raw,1932270520,271825000000,,,-1311853870175290323,0.0,7.886354149077278,,,0,32,0.0,16431,42941926127614,6,46.37788391113281,-438.5782992338286,0.031102207392580475,1,-119536.39397267462,4.595685750246048E-4,1.57542003E9,,,,0,,1,,1.57542003E9
Raw,1932270521,271825000000,,,-1311853870175290323,0.0,7.886354149077278,,,0,10,0.0,32995,53723927639098,33,36.28343963623047,-886.0677975501112,0.07291531352081998,1,-238480.2434030014,0.001374030252918601,1.59806246E9,,,,0,,3,,1.59806246E9
Raw,1932270521,271825000000,,,-1311853870175290323,0.0,7.886354149077278,,,0,9,0.0,32995,53723933673377,103,25.190746307373047,-327.2553508951339,0.2590207617256707,4,-93608.63916445033,3.4028234663852886E38,1.59862502E9,,,,0,,3,,1.59862502E9
Raw,1932270521,271825000000,,,-1311853870175290323,0.0,7.886354149077278,,,0,16,0.0,32995,53723927973923,107,24.927825927734375,386.6474055493268,0.2658804052810939,4,95973.52934042674,3.4028234663852886E38,1.60143744E9,,,,0,,3,,1.60143744E9
Raw,1932270522,271825000000,,,-1311853870175290323,0.0,7.886354149077278,,,0,23,0.0,32995,53723925011647,33,43.68357849121094,-215.75817303869462,0.031419015724864496,4,-62523.0753359897,3.4028234663852886E38,1.60368755E9,,,,0,,3,,1.60368755E9
Raw,1932270522,271825000000,,,-1311853870175290323,0.0,7.886354149077278,,,0,7,0.0,32995,53723932892661,67,21.48160171508789,-231.5916553707575,4.202319227077227,4,-63578.703377270955,3.4028234663852886E38,1.60481254E9,,,,0,,3,,1.60481254E9
Raw,1932270522,271825000000,,,-1311853870175290323,0.0,7.886354149077278,,,0,8,0.0,32995,53723925885465,46,32.10017013549805,-563.6137786351717,0.11686165399949089,4,-150368.16335739096,3.4028234663852886E38,1.60537498E9,,,,0,,3,,1.60537498E9
Raw,1932270522,271825000000,,,-1311853870175290323,0.0,7.886354149077278,,,0,193,0.0,35,9193889,47,25.928142547607422,-240.12784518409103,0.23733293636922304,4,-64369.98947824728,3.4028234663852886E38,1.57542003E9,,,,0,,4,,1.57542003E9
Raw,1932270522,271825000000,,,-1311853870175290323,0.0,7.886354149077278,,,0,194,0.0,35,12862504,20,33.286136627197266,-120.81114636885161,0.10333693477948253,4,-33125.67627687142,3.4028234663852886E38,1.57542003E9,,,,0,,4,,1.57542003E9
Raw,1932270522,271825000000,,,-1311853870175290323,0.0,7.886354149077278,,,0,6,0.0,16431,42927879232984,15,29.462650299072266,-73.41036499614978,0.16034978680400613,4,-2499.9601604635336,3.4028234663852886E38,1.56109798E9,,,,0,,5,,1.56109798E9
Raw,1932270523,271825000000,,,-1311853870175290323,0.0,7.886354149077278,,,0,14,0.0,16431,42927925873076,30,23.644262313842773,66.76207487483484,0.3076162704612653,4,9877.50297986203,3.4028234663852886E38,1.56109798E9,,,,0,,5,,1.56109798E9
Raw,1932270523,271825000000,,,-1311853870175290323,0.0,7.886354149077278,,,0,16,0.0,16431,42927878592751,17,28.66598892211914,-74.51658780812477,0.1753049956512408,4,-1791.354453593315,3.4028234663852886E38,1.56109798E9,,,,0,,5,,1.56109798E9
Raw,1932270523,271825000000,,,-1311853870175290323,0.0,7.886354149077278,,,0,24,0.0,16431,42927924968070,77,19.60382080078125,-116.70444893504862,4.200893621825484,4,-19745.785326585807,3.4028234663852886E38,1.56109798E9,,,,0,,5,,1.56109798E9
Raw,1932270523,271825000000,,,-1311853870175290323,0.0,7.886354149077278,,,0,26,0.0,16431,42927918052544,64,22.165882110595703,358.6318648647723,4.203247175209899,4,50909.96070028407,3.4028234663852886E38,1.56109798E9,,,,0,,5,,1.56109798E9
Raw,1932270523,271825000000,,,-1311853870175290323,0.0,7.886354149077278,,,0,27,0.0,16431,42927914473217,6,43.72285461425781,13.926609362528765,0.03298323073265186,1,1061.0105594768042,6.29604677669704E-4,1.56109798E9,,,,0,,5,,1.56109798E9
Raw,1932270523,271825000000,,,-1311853870175290323,0.0,7.886354149077278,,,0,33,0.0,16431,42927926331191,12,31.22384262084961,-177.95338398551723,0.12923502523508806,4,-29785.48363616898,3.4028234663852886E38,1.56109798E9,,,,0,,5,,1.56109798E9
Fix,gps,34.486722,109.464175,362.909760,0.245965,3.000000,1627818925000
Raw,1932271482,272825000000,,,-1311853870175290707,0.0,7.82874813092581,,,0,10,0.0,16431,42942930754466,8,40.64764404296875,-448.1349518779116,0.04522033870945569,1,-123764.57131480028,8.889190503396094E-4,1.57542003E9,,,,0,,1,,1.57542003E9
Raw,1932271483,272825000000,,,-1311853870175290707,0.0,7.82874813092581,,,0,12,0.0,16431,42942922248398,53,24.85342025756836,-574.5475329350588,0.26712548002094283,4,-157879.07565978952,3.4028234663852886E38,1.57542003E9,,,,0,,1,,1.57542003E9
Raw,1932271483,272825000000,,,-1311853870175290707,0.0,7.82874813092581,,,0,15,0.0,16431,42942919195714,59,23.999902725219727,415.6006227777368,0.2977141851973246,4,111908.99225797113,3.4028234663852886E38,1.57542003E9,,,,0,,1,,1.57542003E9
Raw,1932271483,272825000000,,,-1311853870175290707,0.0,7.82874813092581,,,0,18,0.0,16431,42942924608942,166,11.01693344116211,528.9061476123634,4.200829184681121,4,137375.02901780108,3.4028234663852886E38,1.57542003E9,,,,1,,1,,1.57542003E9
Raw,1932271483,272825000000,,,-1311853870175290707,0.0,7.82874813092581,,,0,23,0.0,16431,42942932553112,15,35.502708435058594,-15.87233313726859,0.0805275503044322,4,-7642.557503259669,3.4028234663852886E38,1.57542003E9,,,,0,,1,,1.57542003E9
Raw,1932271483,272825000000,,,-1311853870175290707,0.0,7.82874813092581,,,0,24,0.0,16431,42942928931675,50,25.41313934326172,372.81487015726157,0.2516822496710073,4,97659.58955294576,3.4028234663852886E38,1.57542003E9,,,,0,,1,,1.57542003E9
Raw,1932271483,272825000000,,,-1311853870175290707,0.0,7.82874813092581,,,0,25,0.0,16431,42942920626682,16,34.993072509765625,-732.8276879954251,0.0867096053345709,1,-198604.74377732692,0.00161700788885355,1.57542003E9,,,,0,,1,,1.57542003E9
Raw,1932271484,272825000000,,,-1311853870175290707,0.0,7.82874813092581,,,0,31,0.0,16,15167356,1000000000,7.0,-853.0717534114219,2.99792458E8,4,-118661.37741669081,3.4028234663852886E38,1.57542003E9,,,,0,,1,,1.57542003E9
Raw,1932271484,272825000000,,,-1311853870175290707,0.0,7.82874813092581,,,0,32,0.0,16431,42942926129090,6,46.060691833496094,-438.63634165728695,0.031102471581544,1,-119975.06523252778,4.7666137106716633E-4,1.57542003E9,,,,0,,1,,1.57542003E9
Raw,1932271484,272825000000,,,-1311853870175290707,0.0,7.82874813092581,,,0,10,0.0,32995,53724927642029,33,35.360496520996094,-886.0104026933268,0.0809362402298654,1,-239366.3013573636,0.0015280710067600012,1.59806246E9,,,,0,,3,,1.59806246E9
Raw,1932271484,272825000000,,,-1311853870175290707,0.0,7.82874813092581,,,0,9,0.0,32995,53724933674328,77,27.679086685180664,-326.71183796096466,0.19511191208016032,4,-93935.04302996033,3.4028234663852886E38,1.59862502E9,,,,0,,3,,1.59862502E9
Raw,1932271484,272825000000,,,-1311853870175290707,0.0,7.82874813092581,,,0,16,0.0,32995,53724927972754,85,26.83991813659668,386.9598735107279,0.21362780569185813,4,96360.19497266473,3.4028234663852886E38,1.60143744E9,,,,0,,3,,1.60143744E9
Raw,1932271485,272825000000,,,-1311853870175290707,0.0,7.82874813092581,,,0,23,0.0,32995,53724925012369,33,41.677574157714844,-215.65253446470217,0.039347472136219974,1,-62738.754273909646,7.756080594845116E-4,1.60368755E9,,,,0,,3,,1.60368755E9
Raw,1932271485,272825000000,,,-1311853870175290707,0.0,7.82874813092581,,,0,7,0.0,32995,53724932893674,65,21.853992462158203,-231.46638530180792,4.202319227077227,4,-63809.85988717012,3.4028234663852886E38,1.60481254E9,,,,0,,3,,1.60481254E9
Raw,1932271485,272825000000,,,-1311853870175290707,0.0,7.82874813092581,,,0,8,0.0,32995,53724925887299,33,35.94512176513672,-563.6771038393911,0.07544175049878343,1,-150931.74577658507,0.0014220979064702988,1.60537498E9,,,,0,,3,,1.60537498E9
Raw,1932271485,272825000000,,,-1311853870175290707,0.0,7.82874813092581,,,0,193,0.0,35,9194746,57,24.366918563842773,-240.19149417164738,0.28374051115756815,4,-64609.81090212275,3.4028234663852886E38,1.57542003E9,,,,0,,4,,1.57542003E9
Raw,1932271485,272825000000,,,-1311853870175290707,0.0,7.82874813092581,,,0,194,0.0,35,12862917,20,33.283546447753906,-120.83027514757504,0.10336717297455184,4,-33246.47957953149,3.4028234663852886E38,1.57542003E9,,,,0,,4,,1.57542003E9
Raw,1932271485,272825000000,,,-1311853870175290707,0.0,7.82874813092581,,,0,6,0.0,16431,42928879233240,12,31.652130126953125,-73.50865880076157,0.12539276080052436,4,-2573.390522437889,3.4028234663852886E38,1.56109798E9,,,,0,,5,,1.56109798E9
Raw,1932271486,272825000000,,,-1311853870175290707,0.0,7.82874813092581,,,0,14,0.0,16431,42928925872828,60,22.875947952270508,67.97015736843531,4.201056312301542,4,9944.808825052163,3.4028234663852886E38,1.56109798E9,,,,0,,5,,1.56109798E9
Raw,1932271486,272825000000,,,-1311853870175290707,0.0,7.82874813092581,,,0,16,0.0,16431,42928878592982,11,32.41913986206055,-74.64340010823202,0.11497195818864048,4,-1865.9859826755048,3.4028234663852886E38,1.56109798E9,,,,0,,5,,1.56109798E9
Raw,1932271486,272825000000,,,-1311853870175290707,0.0,7.82874813092581,,,0,24,0.0,16431,42928924968474,62,22.380680084228516,-116.39136748943008,4.200893621825484,4,-19862.784315603236,3.4028234663852886E38,1.56109798E9,,,,0,,5,,1.56109798E9
Raw,1932271486,272825000000,,,-1311853870175290707,0.0,7.82874813092581,,,0,26,0.0,16431,42928918051360,19,27.604854583740234,358.8728619148451,0.19755276847576608,4,51268.39531502915,3.4028234663852886E38,1.56109798E9,,,,0,,5,,1.56109798E9
Raw,1932271487,272825000000,,,-1311853870175290707,0.0,7.82874813092581,,,0,27,0.0,16431,42928914473178,6,41.688819885253906,13.869079240995028,0.040999501891300666,1,1074.9651469049036,7.957373163662851E-4,1.56109798E9,,,,0,,5,,1.56109798E9
Raw,1932271487,272825000000,,,-1311853870175290707,0.0,7.82874813092581,,,0,33,0.0,16431,42928926331763,12,31.33651351928711,-178.25954669246164,0.12758424777729904,4,-29963.558984805215,3.4028234663852886E38,1.56109798E9,,,,0,,5,,1.56109798E9
Fix,gps,34.486722,109.464174,362.918427,0.255699,3.000000,1627818926000
Raw,1932272485,273825000000,,,-1311853870175291097,0.0,8.764570162971555,,,0,10,0.0,16431,42943930755983,8,41.19706344604492,-448.35127322946187,0.04256739474229679,4,-124212.82434417238,3.4028234663852886E38,1.57542003E9,,,,0,,1,,1.57542003E9
Raw,1932272486,273825000000,,,-1311853870175291097,0.0,8.764570162971555,,,0,12,0.0,16431,42943922250312,20,33.240379333496094,-574.0942362633054,0.10196167104677328,4,-158453.34315227333,3.4028234663852886E38,1.57542003E9,,,,0,,1,,1.57542003E9
Raw,1932272486,273825000000,,,-1311853870175291097,0.0,8.764570162971555,,,0,15,0.0,16431,42943919194453,54,24.798974990844727,416.44143698015455,0.2718508095875719,4,112325.69681150111,3.4028234663852886E38,1.57542003E9,,,,0,,1,,1.57542003E9
Raw,1932272486,273825000000,,,-1311853870175291097,0.0,8.764570162971555,,,0,18,0.0,16431,42943924607118,166,18.46688461303711,528.621695430224,4.200828652142738,4,137904.56262039917,3.4028234663852886E38,1.57542003E9,,,,1,,1,,1.57542003E9
Raw,1932272487,273825000000,,,-1311853870175291097,0.0,8.764570162971555,,,0,23,0.0,16431,42943932553180,17,34.72550964355469,-15.009414331642283,0.08785390550631733,4,-7657.538042527094,3.4028234663852886E38,1.57542003E9,,,,0,,1,,1.57542003E9
Raw,1932272487,273825000000,,,-1311853870175291097,0.0,8.764570162971555,,,0,24,0.0,16431,42943928930416,58,24.08100700378418,373.25354545516666,0.2931328573378693,4,98032.16409563457,3.4028234663852886E38,1.57542003E9,,,,0,,1,,1.57542003E9
Raw,1932272487,273825000000,,,-1311853870175291097,0.0,8.764570162971555,,,0,25,0.0,16431,42943920629122,14,36.44289016723633,-732.1838022267962,0.07395056813770035,1,-199337.0477135029,0.001368425670079887,1.57542003E9,,,,0,,1,,1.57542003E9
Raw,1932272488,273825000000,,,-1311853870175291097,0.0,8.764570162971555,,,0,31,0.0,16,15170140,1000000000,7.0,-853.0717534114219,2.99792458E8,4,-119514.4495543658,3.4028234663852886E38,1.57542003E9,,,,0,,1,,1.57542003E9
Raw,1932272488,273825000000,,,-1311853870175291097,0.0,8.764570162971555,,,0,32,0.0,16431,42943926130543,7,42.562042236328125,-439.1888523599782,0.03582645316039068,1,-120414.08056931668,7.130868034437299E-4,1.57542003E9,,,,0,,1,,1.57542003E9
Raw,1932272488,273825000000,,,-1311853870175291097,0.0,8.764570162971555,,,0,10,0.0,32995,53725927645007,46,32.19935989379883,-885.7265639954048,0.1158632610238205,1,-240252.06905836065,0.002198874019086361,1.59806246E9,,,,0,,3,,1.59806246E9
Raw,1932272488,273825000000,,,-1311853870175291097,0.0,8.764570162971555,,,0,9,0.0,32995,53725933675459,52,31.172849655151367,-325.6344915102786,0.13131031899338508,4,-94260.83969722956,3.4028234663852886E38,1.59862502E9,,,,0,,3,,1.59862502E9
Raw,1932272489,273825000000,,,-1311853870175291097,0.0,8.764570162971555,,,0,16,0.0,32995,53725927971432,78,27.666702270507812,387.2481088455413,0.19436101631806768,4,96747.33579879782,3.4028234663852886E38,1.60143744E9,,,,0,,3,,1.60143744E9
Raw,1932272489,273825000000,,,-1311853870175291097,0.0,8.764570162971555,,,0,23,0.0,32995,53725925013060,33,41.51134490966797,-216.49084360656548,0.04009046303168745,1,-62954.868920848065,7.905944949015975E-4,1.60368755E9,,,,0,,3,,1.60368755E9
Raw,1932272490,273825000000,,,-1311853870175291097,0.0,8.764570162971555,,,0,7,0.0,32995,53725932894371,48,31.8016357421875,-230.8422673579622,0.12217175231540062,4,-64040.87978936275,3.4028234663852886E38,1.60481254E9,,,,0,,3,,1.60481254E9
Raw,1932272490,273825000000,,,-1311853870175291097,0.0,8.764570162971555,,,0,8,0.0,32995,53725925889267,43,32.79743957519531,-563.4626570229495,0.10792948754954557,4,-151496.02742342642,3.4028234663852886E38,1.60537498E9,,,,0,,3,,1.60537498E9
Raw,1932272490,273825000000,,,-1311853870175291097,0.0,8.764570162971555,,,0,193,0.0,35,9195620,51,25.28188133239746,-239.75508535710105,0.25553747808683624,4,-64849.22888943277,3.4028234663852886E38,1.57542003E9,,,,0,,4,,1.57542003E9
Raw,1932272490,273825000000,,,-1311853870175291097,0.0,8.764570162971555,,,0,194,0.0,35,12863341,19,33.885929107666016,-119.94493221571025,0.09659647997094228,1,-33366.65354021564,0.0018368310993537307,1.57542003E9,,,,0,,4,,1.57542003E9
Raw,1932272491,273825000000,,,-1311853870175291097,0.0,8.764570162971555,,,0,6,0.0,16431,42929879233485,9,33.604366302490234,-73.78510160561808,0.10084865750503802,4,-2646.996831332514,3.4028234663852886E38,1.56109798E9,,,,0,,5,,1.56109798E9
Raw,1932272491,273825000000,,,-1311853870175291097,0.0,8.764570162971555,,,0,14,0.0,16431,42929925872622,32,23.198942184448242,67.98062068258781,0.32374319688606734,4,10012.519646473474,3.4028234663852886E38,1.56109798E9,,,,0,,5,,1.56109798E9
Raw,1932272491,273825000000,,,-1311853870175291097,0.0,8.764570162971555,,,0,16,0.0,16431,42929878593229,7,36.31768798828125,-74.97907822252517,0.07460418411483005,4,-1940.67351767745,3.4028234663852886E38,1.56109798E9,,,,0,,5,,1.56109798E9
Raw,1932272492,273825000000,,,-1311853870175291097,0.0,8.764570162971555,,,0,24,0.0,16431,42929924968874,18,28.32215690612793,-114.4301862555804,0.1797979720645635,4,-19977.873805103398,3.4028234663852886E38,1.56109798E9,,,,0,,5,,1.56109798E9
Raw,1932272492,273825000000,,,-1311853870175291097,0.0,8.764570162971555,,,0,26,0.0,16431,42929918050183,14,30.17097282409668,359.1507702653321,0.14785059505447307,4,51627.316543168345,3.4028234663852886E38,1.56109798E9,,,,0,,5,,1.56109798E9
Raw,1932272492,273825000000,,,-1311853870175291097,0.0,8.764570162971555,,,0,27,0.0,16431,42929914473117,6,37.129608154296875,13.085859064717013,0.06750384153112671,4,1088.307053382227,3.4028234663852886E38,1.56109798E9,,,,0,,5,,1.56109798E9
Raw,1932272493,273825000000,,,-1311853870175291097,0.0,8.764570162971555,,,0,33,0.0,16431,42929926332345,12,31.473812103271484,-177.85159672911186,0.12560132446574512,4,-30141.326932696997,3.4028234663852886E38,1.56109798E9,,,,0,,5,,1.56109798E9
Fix,gps,34.486723,109.464169,362.813965,0.440517,3.000000,1627818927000
Raw,1932273558,274825000000,,,-1311853870175291477,0.0,7.784672190593224,,,0,10,0.0,16431,42944930757472,6,43.569984436035156,-448.06150418410493,0.032854258673206196,4,-124660.84084231987,3.4028234663852886E38,1.57542003E9,,,,0,,1,,1.57542003E9
Raw,1932273559,274825000000,,,-1311853870175291477,0.0,7.784672190593224,,,0,12,0.0,16431,42944922252207,24,31.69037437438965,-574.0100525956941,0.12180259504400548,4,-159027.4863415258,3.4028234663852886E38,1.57542003E9,,,,0,,1,,1.57542003E9
Raw,1932273559,274825000000,,,-1311853870175291477,0.0,7.784672190593224,,,0,15,0.0,16431,42944919193034,37,28.087692260742188,416.7355685799464,0.1872516289027627,4,112742.1822042223,3.4028234663852886E38,1.57542003E9,,,,0,,1,,1.57542003E9
Raw,1932273560,274825000000,,,-1311853870175291477,0.0,7.784672190593224,,,0,18,0.0,16431,42944924605336,166,15.878249168395996,528.7528106404673,4.200828385873546,4,138431.95966292638,3.4028234663852886E38,1.57542003E9,,,,1,,1,,1.57542003E9
Raw,1932273560,274825000000,,,-1311853870175291477,0.0,7.784672190593224,,,0,23,0.0,16431,42944932553231,19,33.68275451660156,-14.70167744123723,0.09877207400534427,4,-7672.247917697211,3.4028234663852886E38,1.57542003E9,,,,0,,1,,1.57542003E9
Raw,1932273560,274825000000,,,-1311853870175291477,0.0,7.784672190593224,,,0,24,0.0,16431,42944928929159,65,21.91266632080078,373.2410712760793,4.201606158182164,4,98404.90611162219,3.4028234663852886E38,1.57542003E9,,,,0,,1,,1.57542003E9
Raw,1932273560,274825000000,,,-1311853870175291477,0.0,7.784672190593224,,,0,25,0.0,16431,42944920631555,12,37.46091079711914,-732.0303630075305,0.06618272197434372,1,-200069.25957112515,0.0012170829577371478,1.57542003E9,,,,0,,1,,1.57542003E9
Raw,1932273563,274825000000,,,-1311853870175291477,0.0,7.784672190593224,,,0,31,0.0,16,15173048,1000000000,7.0,-853.0717534114219,2.99792458E8,4,-120367.66744370708,3.4028234663852886E38,1.57542003E9,,,,0,,1,,1.57542003E9
Raw,1932273563,274825000000,,,-1311853870175291477,0.0,7.784672190593224,,,0,32,0.0,16431,42944926132009,10,38.941429138183594,-439.08057239560526,0.053784346397474314,4,-120853.26710289098,3.4028234663852886E38,1.57542003E9,,,,0,,1,,1.57542003E9
Raw,1932273564,274825000000,,,-1311853870175291477,0.0,7.784672190593224,,,0,10,0.0,32995,53726927647841,73,28.167512893676758,-885.0322361911221,0.183493622025511,4,-241137.3960153104,3.4028234663852886E38,1.59806246E9,,,,0,,3,,1.59806246E9
Raw,1932273564,274825000000,,,-1311853870175291477,0.0,7.784672190593224,,,0,9,0.0,32995,53726933676466,64,29.36651039123535,-325.1044411464359,0.16109647218450684,4,-94586.26475941572,3.4028234663852886E38,1.59862502E9,,,,0,,3,,1.59862502E9
Raw,1932273564,274825000000,,,-1311853870175291477,0.0,7.784672190593224,,,0,16,0.0,32995,53726927970084,72,28.285560607910156,387.3495382361532,0.18109318862155266,4,97134.77708747113,3.4028234663852886E38,1.60143744E9,,,,0,,3,,1.60143744E9
Raw,1932273565,274825000000,,,-1311853870175291477,0.0,7.784672190593224,,,0,23,0.0,32995,53726925013808,33,37.63251876831055,-216.07125448431316,0.06215134400691327,1,-63170.8559948769,0.0011722396593540907,1.60368755E9,,,,0,,3,,1.60368755E9
Raw,1932273565,274825000000,,,-1311853870175291477,0.0,7.784672190593224,,,0,7,0.0,32995,53726932895182,33,34.99818420410156,-231.0479379418491,0.08527007087574295,4,-64271.805973541064,3.4028234663852886E38,1.60481254E9,,,,0,,3,,1.60481254E9
Raw,1932273565,274825000000,,,-1311853870175291477,0.0,7.784672190593224,,,0,8,0.0,32995,53726925891056,33,35.3555908203125,-564.5389809999399,0.08066620998594981,4,-152060.26538273762,3.4028234663852886E38,1.60537498E9,,,,0,,3,,1.60537498E9
Raw,1932273566,274825000000,,,-1311853870175291477,0.0,7.784672190593224,,,0,193,0.0,35,9196443,64,22.059947967529297,-239.05745155453565,4.201654352905841,4,-65088.62642840038,3.4028234663852886E38,1.57542003E9,,,,0,,4,,1.57542003E9
Raw,1932273566,274825000000,,,-1311853870175291477,0.0,7.784672190593224,,,0,194,0.0,35,12863738,18,34.018768310546875,-119.77336965018856,0.09516561590266531,1,-33486.63563226749,0.0018089530058205128,1.57542003E9,,,,0,,4,,1.57542003E9
Raw,1932273566,274825000000,,,-1311853870175291477,0.0,7.784672190593224,,,0,6,0.0,16431,42930879233732,10,32.9191780090332,-73.46729973977114,0.10884241643562959,4,-2720.4498879004245,3.4028234663852886E38,1.56109798E9,,,,0,,5,,1.56109798E9
Raw,1932273568,274825000000,,,-1311853870175291477,0.0,7.784672190593224,,,0,14,0.0,16431,42930925872359,28,24.28260040283203,67.4876136886783,0.28589459563383746,4,10080.168281294133,3.4028234663852886E38,1.56109798E9,,,,0,,5,,1.56109798E9
Raw,1932273568,274825000000,,,-1311853870175291477,0.0,7.784672190593224,,,0,16,0.0,16431,42930878593484,6,36.76237869262695,-74.64690208063973,0.07104775133652003,4,-2015.2466334230448,3.4028234663852886E38,1.56109798E9,,,,0,,5,,1.56109798E9
Raw,1932273568,274825000000,,,-1311853870175291477,0.0,7.784672190593224,,,0,24,0.0,16431,42930924969227,19,27.84148597717285,-114.04842013945427,0.18997752646795962,4,-20092.54891349665,3.4028234663852886E38,1.56109798E9,,,,0,,5,,1.56109798E9
Raw,1932273569,274825000000,,,-1311853870175291477,0.0,7.784672190593224,,,0,26,0.0,16431,42930918048951,24,25.539188385009766,359.64871495513034,0.24971931319064666,4,51985.973575926444,3.4028234663852886E38,1.56109798E9,,,,0,,5,,1.56109798E9
Raw,1932273569,274825000000,,,-1311853870175291477,0.0,7.784672190593224,,,0,27,0.0,16431,42930914473085,8,35.0661506652832,13.201431609709097,0.08490733734859479,4,1101.6247451638314,3.4028234663852886E38,1.56109798E9,,,,0,,5,,1.56109798E9
Raw,1932273569,274825000000,,,-1311853870175291477,0.0,7.784672190593224,,,0,33,0.0,16431,42930926332950,11,31.985294342041016,-177.7360742427278,0.11848390737013142,4,-30319.046127582358,3.4028234663852886E38,1.56109798E9,,,,0,,5,,1.56109798E9
Fix,gps,34.486725,109.464163,362.858337,0.708989,3.000000,1627818928000
Raw,1932274510,275825000000,,,-1311853870175291861,0.0,7.574935704791712,,,0,10,0.0,16431,42945930758953,6,43.89223861694336,-447.83471951840215,0.03193527008278557,4,-125108.84810219049,3.4028234663852886E38,1.57542003E9,,,,0,,1,,1.57542003E9
Raw,1932274510,275825000000,,,-1311853870175291861,0.0,7.574935704791712,,,0,12,0.0,16431,42945922254146,26,31.080162048339844,-574.1245014846977,0.1306382305910892,4,-159601.5962803371,3.4028234663852886E38,1.57542003E9,,,,0,,1,,1.57542003E9
Raw,1932274510,275825000000,,,-1311853870175291861,0.0,7.574935704791712,,,0,15,0.0,16431,42945919191638,35,28.433067321777344,416.43533622043697,0.18008640816634736,4,113158.650079757,3.4028234663852886E38,1.57542003E9,,,,0,,1,,1.57542003E9
Raw,1932274511,275825000000,,,-1311853870175291861,0.0,7.574935704791712,,,0,18,0.0,16431,42945924603643,166,16.28459930419922,528.8928554543195,4.200828119604354,4,138961.26915180913,3.4028234663852886E38,1.57542003E9,,,,1,,1,,1.57542003E9
Raw,1932274511,275825000000,,,-1311853870175291861,0.0,7.574935704791712,,,0,23,0.0,16431,42945932553266,21,32.8864860534668,-15.178069237591878,0.10803815866336097,4,-7686.9387610865415,3.4028234663852886E38,1.57542003E9,,,,0,,1,,1.57542003E9
Raw,1932274511,275825000000,,,-1311853870175291861,0.0,7.574935704791712,,,0,24,0.0,16431,42945928928022,61,22.735273361206055,372.2136897066557,4.201605891912973,4,98778.10495340363,3.4028234663852886E38,1.57542003E9,,,,0,,1,,1.57542003E9
Raw,1932274511,275825000000,,,-1311853870175291861,0.0,7.574935704791712,,,0,25,0.0,16431,42945920633996,12,37.565757751464844,-732.2713259751467,0.06543361936883815,1,-200801.49192245092,0.001202479819767177,1.57542003E9,,,,0,,1,,1.57542003E9
Raw,1932274511,275825000000,,,-1311853870175291861,0.0,7.574935704791712,,,0,31,0.0,16,15175833,1000000000,7.0,-853.2573664696451,2.99792458E8,4,-121220.9651332523,3.4028234663852886E38,1.57542003E9,,,,0,,1,,1.57542003E9
Raw,1932274511,275825000000,,,-1311853870175291861,0.0,7.574935704791712,,,0,32,0.0,16431,42945926133474,10,38.766658782958984,-438.813468183836,0.05485536429514937,4,-121292.37101408989,3.4028234663852886E38,1.57542003E9,,,,0,,1,,1.57542003E9
Raw,1932274512,275825000000,,,-1311853870175291861,0.0,7.574935704791712,,,0,10,0.0,32995,53727927650741,102,25.271814346313477,-885.5224100808332,0.25555402006036343,4,-242021.7277005109,3.4028234663852886E38,1.59806246E9,,,,0,,3,,1.59806246E9
Raw,1932274512,275825000000,,,-1311853870175291861,0.0,7.574935704791712,,,0,9,0.0,32995,53727933677560,64,29.318323135375977,-325.22246869337437,0.16197918783825827,4,-94912.64069315695,3.4028234663852886E38,1.59862502E9,,,,0,,3,,1.59862502E9
Raw,1932274512,275825000000,,,-1311853870175291861,0.0,7.574935704791712,,,0,16,0.0,32995,53727927968802,60,29.818262100219727,387.5361737680721,0.1520300228528806,4,97522.34220011083,3.4028234663852886E38,1.60143744E9,,,,0,,3,,1.60143744E9
Raw,1932274512,275825000000,,,-1311853870175291861,0.0,7.574935704791712,,,0,23,0.0,32995,53727925014526,33,36.60224914550781,-215.38965647754173,0.06986497526658964,1,-63386.65357067676,0.0013198660453781486,1.60368755E9,,,,0,,3,,1.60368755E9
Raw,1932274512,275825000000,,,-1311853870175291861,0.0,7.574935704791712,,,0,7,0.0,32995,53727932895884,35,34.621299743652344,-231.0712162596542,0.08894865464569235,4,-64502.72749670573,3.4028234663852886E38,1.60481254E9,,,,0,,3,,1.60481254E9
Raw,1932274512,275825000000,,,-1311853870175291861,0.0,7.574935704791712,,,0,8,0.0,32995,53727925892962,33,34.962589263916016,-564.2368059404087,0.08435116757467276,4,-152624.46284589102,3.4028234663852886E38,1.60537498E9,,,,0,,3,,1.60537498E9
Raw,1932274513,275825000000,,,-1311853870175291861,0.0,7.574935704791712,,,0,193,0.0,35,9197121,64,23.251882553100586,-239.55157900920335,0.32238039787988915,4,-65328.136319450816,3.4028234663852886E38,1.57542003E9,,,,0,,4,,1.57542003E9
Raw,1932274513,275825000000,,,-1311853870175291861,0.0,7.574935704791712,,,0,194,0.0,35,12864124,20,33.33897399902344,-120.05815413627903,0.10272458220613617,1,-33606.66660964773,0.001956217223778367,1.57542003E9,,,,0,,4,,1.57542003E9
Raw,1932274513,275825000000,,,-1311853870175291861,0.0,7.574935704791712,,,0,6,0.0,16431,42931879233971,10,32.76241683959961,-73.25988242998744,0.11076165980583363,4,-2793.9609539009225,3.4028234663852886E38,1.56109798E9,,,,0,,5,,1.56109798E9
Raw,1932274514,275825000000,,,-1311853870175291861,0.0,7.574935704791712,,,0,14,0.0,16431,42931925872129,61,22.560806274414062,67.92802719186605,4.201056312301542,4,10148.269347910134,3.4028234663852886E38,1.56109798E9,,,,0,,5,,1.56109798E9
Raw,1932274514,275825000000,,,-1311853870175291861,0.0,7.574935704791712,,,0,16,0.0,16431,42931878593737,7,36.05088424682617,-74.51961262614117,0.07682709917712394,4,-2089.8619235727792,3.4028234663852886E38,1.56109798E9,,,,0,,5,,1.56109798E9
Raw,1932274514,275825000000,,,-1311853870175291861,0.0,7.574935704791712,,,0,24,0.0,16431,42931924969616,22,26.46466064453125,-114.46688454064133,0.2224559440970163,4,-20207.647181359964,3.4028234663852886E38,1.56109798E9,,,,0,,5,,1.56109798E9
Raw,1932274514,275825000000,,,-1311853870175291861,0.0,7.574935704791712,,,0,26,0.0,16431,42931918047784,29,23.95525550842285,358.50228336507257,0.29902416305262225,4,52344.59900644928,3.4028234663852886E38,1.56109798E9,,,,0,,5,,1.56109798E9
Raw,1932274514,275825000000,,,-1311853870175291861,0.0,7.574935704791712,,,0,27,0.0,16431,42931914473041,8,35.38200759887695,13.620864165676764,0.08196816648185096,4,1115.0596449502307,3.4028234663852886E38,1.56109798E9,,,,0,,5,,1.56109798E9
Raw,1932274514,275825000000,,,-1311853870175291861,0.0,7.574935704791712,,,0,33,0.0,16431,42931926333533,12,31.756528854370117,-177.7269742268362,0.12161564078786424,4,-30496.778839337676,3.4028234663852886E38,1.56109798E9,,,,0,,5,,1.56109798E9
Fix,gps,34.486727,109.464155,363.007843,0.963078,4.000000,1627818929000
Raw,1932275488,276825000000,,,-1311853870175292247,0.0,7.874533125348372,,,0,10,0.0,16431,42946930760438,6,44.50289535522461,-448.08764542825793,0.031935536351977156,4,-125556.82012013136,3.4028234663852886E38,1.57542003E9,,,,0,,1,,1.57542003E9
Raw,1932275488,276825000000,,,-1311853870175292247,0.0,7.874533125348372,,,0,12,0.0,16431,42946922256060,26,30.987327575683594,-573.908214215604,0.13203797444759974,4,-160177.09099495597,3.4028234663852886E38,1.57542003E9,,,,0,,1,,1.57542003E9
