# 
# Header Description:
# 
# Version: v2.0.0.1 Platform: 10 Manufacturer: HUAWEI Model: BLA-AL00
# 
# Raw,ElapsedRealtimeMillis,TimeNanos,LeapSecond,TimeUncertaintyNanos,FullBiasNanos,BiasNanos,BiasUncertaintyNanos,DriftNanosPerSecond,DriftUncertaintyNanosPerSecond,HardwareClockDiscontinuityCount,Svid,TimeOffsetNanos,State,ReceivedSvTimeNanos,ReceivedSvTimeUncertaintyNanos,Cn0DbHz,PseudorangeRateMetersPerSecond,PseudorangeRateUncertaintyMetersPerSecond,AccumulatedDeltaRangeState,AccumulatedDeltaRangeMeters,AccumulatedDeltaRangeUncertaintyMeters,CarrierFrequencyHz,CarrierCycles,CarrierPhase,CarrierPhaseUncertainty,MultipathIndicator,SnrInDb,ConstellationType,AgcDb,CarrierFrequencyHz
# 
# Fix,Provider,Latitude,Longitude,Altitude,Speed,Accuracy,(UTC)TimeInMs
# 
# Nav,Svid,Type,Status,MessageId,Sub-messageId,Data(Bytes)
# 
Fix,gps,34.486389,109.463875,357.344116,0.574759,3.000000,1627952042999
Raw,2065390172,1644291000000,,,-1311985616708750565,0.0,7.282414674785363,,,0,1,0.0,39,2925144628,29,29.957637786865234,501.8927674794056,0.149124809628976,4,524792.3842229248,3.4028234663852886E38,1.57542003E9,,,,0,,1,,1.57542003E9
Raw,2065390172,1644291000000,,,-1311985616708750565,0.0,7.282414674785363,,,0,2,0.0,16,1644014526088,1000000000,10.488258361816406,-692.1113539701018,2.99792458E8,2,-9.675393314163287,3.4028234663852886E38,1.57542003E9,,,,0,,1,,1.57542003E9
Raw,2065390173,1644291000000,,,-1311985616708750565,0.0,7.282414674785363,,,0,3,0.0,16431,176060926010789,6,44.480018615722656,-170.4938589737393,0.031081192928725895,1,-2055.1800660951276,5.717992316931486E-4,1.57542003E9,,,,0,,1,,1.57542003E9
Raw,2065390173,1644291000000,,,-1311985616708750565,0.0,7.282414674785363,,,0,6,0.0,16431,176060924652974,32,29.16570281982422,-638.8233650317748,0.1631835566754437,1,-622197.4783540143,0.0029819775372743607,1.57542003E9,,,,0,,1,,1.57542003E9
Raw,2065390173,1644291000000,,,-1311985616708750565,0.0,7.282414674785363,,,0,14,0.0,16431,176060932466376,10,38.872371673583984,-63.44788402163556,0.05534425533317902,4,-245177.3720275863,3.4028234663852886E38,1.57542003E9,,,,0,,1,,1.57542003E9
Raw,2065390174,1644291000000,,,-1311985616708750565,0.0,7.282414674785363,,,0,17,0.0,16431,176060929516953,9,39.979209899902344,-186.34700688321584,0.04846038960223384,4,-92542.49105907221,3.4028234663852886E38,1.57542003E9,,,,0,,1,,1.57542003E9
Raw,2065390174,1644291000000,,,-1311985616708750565,0.0,7.282414674785363,,,0,19,0.0,16431,176060927712454,166,29.748044967651367,-436.67840677742106,0.15320626700670492,4,-651032.7270480845,3.4028234663852886E38,1.57542003E9,,,,1,,1,,1.57542003E9
Raw,2065390174,1644291000000,,,-1311985616708750565,0.0,7.282414674785363,,,0,21,0.0,17,595841,17,34.49349594116211,473.56857606858057,0.09071841282755844,4,524674.0820881793,3.4028234663852886E38,1.57542003E9,,,,0,,1,,1.57542003E9
Raw,2065390174,1644291000000,,,-1311985616708750565,0.0,7.282414674785363,,,0,22,0.0,16431,176060922666728,6,44.81785583496094,158.6347489380296,0.030479680423796313,4,2525.8354684880837,3.4028234663852886E38,1.57542003E9,,,,0,,1,,1.57542003E9
Raw,2065390175,1644291000000,,,-1311985616708750565,0.0,7.282414674785363,,,0,24,0.0,16,1644016628977,1000000000,27.021072387695312,-383.92871615741524,2.99792458E8,2,-524294.1357521887,3.4028234663852886E38,1.57542003E9,,,,0,,1,,1.57542003E9
Raw,2065390175,1644291000000,,,-1311985616708750565,0.0,7.282414674785363,,,0,30,0.0,16431,176060921111396,12,37.41050720214844,488.60418809344446,0.06303510393515044,1,132539.57389884262,0.0012241662479937077,1.57542003E9,,,,0,,1,,1.57542003E9
Raw,2065390175,1644291000000,,,-1311985616708750565,0.0,7.282414674785363,,,0,10,0.0,99,921890505,34,34.68113708496094,-846.5756371981743,0.08637435578054159,4,-546321.6709533737,3.4028234663852886E38,1.59806246E9,,,,0,,3,,1.59806246E9
Raw,2065390176,1644291000000,,,-1311985616708750565,0.0,7.282414674785363,,,0,2,0.0,17,974,69,21.044403076171875,3.1715379326154807,4.203597585466024,4,0.06428540088026224,3.4028234663852886E38,1.59975002E9,,,,0,,3,,1.59975002E9
Raw,2065390176,1644291000000,,,-1311985616708750565,0.0,7.282414674785363,,,0,18,0.0,16,1644007929146,1000000000,15.374601364135742,379.13934711946035,2.99792458E8,2,2.6463337089262473,3.4028234663852886E38,1.60031245E9,,,,0,,3,,1.60031245E9
Raw,2065390176,1644291000000,,,-1311985616708750565,0.0,7.282414674785363,,,0,9,0.0,32995,14042933154745,33,35.55519104003906,-364.623799298678,0.08016430920163758,4,-603598.7693405685,3.4028234663852886E38,1.59862502E9,,,,0,,3,,1.59862502E9
Raw,2065390177,1644291000000,,,-1311985616708750565,0.0,7.282414674785363,,,0,16,0.0,32995,14042932542919,46,32.08943176269531,397.4396154072747,0.11820244419280218,4,27107.73319044231,3.4028234663852886E38,1.60143744E9,,,,0,,3,,1.60143744E9
Raw,2065390177,1644291000000,,,-1311985616708750565,0.0,7.282414674785363,,,0,3,0.0,32995,14042922477651,33,43.81905746459961,-496.0407074470695,0.030490901173947926,1,-759638.6502581812,6.057085702195764E-4,1.60481254E9,,,,0,,3,,1.60481254E9
Raw,2065390177,1644291000000,,,-1311985616708750565,0.0,7.282414674785363,,,0,193,0.0,1,356463,11,38.34859085083008,-180.46820916373758,0.058445313707950086,1,-24738.27168625559,0.0010988443391397595,1.57542003E9,,,,0,,4,,1.57542003E9
Raw,2065390178,1644291000000,,,-1311985616708750565,0.0,7.282414674785363,,,0,194,0.0,35,15795378,6,42.85209655761719,-146.6029430951188,0.0364245228878822,1,-72805.68874871139,6.896673003211617E-4,1.57542003E9,,,,0,,4,,1.57542003E9
Raw,2065390178,1644291000000,,,-1311985616708750565,0.0,7.282414674785363,,,0,195,0.0,35,7904146,12,37.488258361816406,-122.52708728679141,0.06369699921995597,1,-5001.186554607046,0.0012132570846006274,1.57542003E9,,,,0,,4,,1.57542003E9
Raw,2065390178,1644291000000,,,-1311985616708750565,0.0,7.282414674785363,,,0,7,0.0,16431,176046879743755,10,32.826873779296875,-96.74577943651911,0.11006002384418412,4,-169626.48137243438,3.4028234663852886E38,1.56109798E9,,,,0,,5,,1.56109798E9
Raw,2065390178,1644291000000,,,-1311985616708750565,0.0,7.282414674785363,,,0,8,0.0,16431,176046878080864,7,36.21286392211914,-201.68912243958937,0.07537720518256091,4,-348423.2220861012,3.4028234663852886E38,1.56109798E9,,,,0,,5,,1.56109798E9
Raw,2065390179,1644291000000,,,-1311985616708750565,0.0,7.282414674785363,,,0,10,0.0,16431,176046880344927,7,35.627113342285156,-161.83768187221722,0.08081608625716291,4,-242173.71611308583,3.4028234663852886E38,1.56109798E9,,,,0,,5,,1.56109798E9
Raw,2065390179,1644291000000,,,-1311985616708750565,0.0,7.282414674785363,,,0,30,0.0,16431,176046924491755,12,31.549161911010742,-313.9052867576056,0.12419523175319774,4,-154412.27252940228,3.4028234663852886E38,1.56109798E9,,,,0,,5,,1.56109798E9
Raw,2065390179,1644291000000,,,-1311985616708750565,0.0,7.282414674785363,,,0,32,0.0,16431,176046913314074,12,31.837312698364258,-649.7671054914231,0.12175595633091701,4,-310532.7180106675,3.4028234663852886E38,1.56109798E9,,,,0,,5,,1.56109798E9
Raw,2065390180,1644291000000,,,-1311985616708750565,0.0,7.282414674785363,,,0,33,0.0,16431,176046910807519,18,28.036113739013672,33.02768330911012,0.1868379464299873,4,2998.433378635892,3.4028234663852886E38,1.56109798E9,,,,0,,5,,1.56109798E9
Raw,2065390180,1644291000000,,,-1311985616708750565,0.0,7.282414674785363,,,0,36,0.0,16431,176046920765320,8,34.91887283325195,-316.10340070858774,0.08744660517322772,4,-197934.70186564868,3.4028234663852886E38,1.56109798E9,,,,0,,5,,1.56109798E9
Fix,gps,34.486388,109.463877,357.232086,0.530328,3.000000,1627952043999
Raw,2065391157,1645291000000,,,-1311985616708750951,0.0,7.224147779970902,,,0,1,0.0,39,3925142991,31,29.604772567749023,501.9951170963436,0.15526910435938313,4,525294.3386803817,3.4028234663852886E38,1.57542003E9,,,,0,,1,,1.57542003E9
Raw,2065391157,1645291000000,,,-1311985616708750951,0.0,7.224147779970902,,,0,2,0.0,16,1645014528396,1000000000,17.147640228271484,-691.9256727469656,2.99792458E8,2,-9.667386795536615,3.4028234663852886E38,1.57542003E9,,,,0,,1,,1.57542003E9
Raw,2065391158,1645291000000,,,-1311985616708750951,0.0,7.224147779970902,,,0,3,0.0,16431,176061926011351,6,44.82673645019531,-170.37559284960514,0.0310812948599008,1,-2225.6164566525667,5.49424032215029E-4,1.57542003E9,,,,0,,1,,1.57542003E9
Raw,2065391158,1645291000000,,,-1311985616708750951,0.0,7.224147779970902,,,0,6,0.0,16431,176061924655078,26,30.904165267944336,-638.7135513568583,0.13373583994773802,1,-622836.245637393,0.002441075863316655,1.57542003E9,,,,0,,1,,1.57542003E9
Raw,2065391158,1645291000000,,,-1311985616708750951,0.0,7.224147779970902,,,0,14,0.0,16431,176061932466592,9,39.86445617675781,-63.31658987849556,0.049612661207903336,4,-245240.8072740153,3.4028234663852886E38,1.57542003E9,,,,0,,1,,1.57542003E9
Raw,2065391159,1645291000000,,,-1311985616708750951,0.0,7.224147779970902,,,0,17,0.0,16431,176061929517576,8,40.81247329711914,-186.28519834831172,0.044184181273597606,4,-92728.79585653113,3.4028234663852886E38,1.57542003E9,,,,0,,1,,1.57542003E9
Raw,2065391159,1645291000000,,,-1311985616708750951,0.0,7.224147779970902,,,0,19,0.0,16431,176061927713985,29,29.960338592529297,-436.4562914082619,0.14954092180812462,4,-651469.2797006882,3.4028234663852886E38,1.57542003E9,,,,0,,1,,1.57542003E9
Raw,2065391159,1645291000000,,,-1311985616708750951,0.0,7.224147779970902,,,0,21,0.0,17,594279,15,35.90749740600586,473.7993483816965,0.07751068708013137,4,524295.0934390377,3.4028234663852886E38,1.57542003E9,,,,0,,1,,1.57542003E9
Raw,2065391160,1645291000000,,,-1311985616708750951,0.0,7.224147779970902,,,0,22,0.0,16431,176061922666197,6,43.946510314941406,158.72857794083689,0.030479584733305587,1,2684.5232229885255,6.080216262489557E-4,1.57542003E9,,,,0,,1,,1.57542003E9
Raw,2065391160,1645291000000,,,-1311985616708750951,0.0,7.224147779970902,,,0,24,0.0,16,1645016630257,1000000000,15.177144050598145,-383.7430690167355,2.99792458E8,2,-524294.1297839995,3.4028234663852886E38,1.57542003E9,,,,0,,1,,1.57542003E9
Raw,2065391160,1645291000000,,,-1311985616708750951,0.0,7.224147779970902,,,0,30,0.0,16431,176061921109768,13,37.18239974975586,488.6433829184457,0.06470684593132062,1,133028.19825891056,0.0012567407684400678,1.57542003E9,,,,0,,1,,1.57542003E9
Raw,2065391161,1645291000000,,,-1311985616708750951,0.0,7.224147779970902,,,0,10,0.0,99,1921893341,35,34.52591323852539,-846.6760441150905,0.08792616430818356,4,-547168.2544747591,3.4028234663852886E38,1.59806246E9,,,,0,,3,,1.59806246E9
Raw,2065391161,1645291000000,,,-1311985616708750951,0.0,7.224147779970902,,,0,2,0.0,17,959,85,18.072702407836914,3.108775355197917,4.203597585466024,4,2.8203920802374576,3.4028234663852886E38,1.59975002E9,,,,0,,3,,1.59975002E9
Raw,2065391161,1645291000000,,,-1311985616708750951,0.0,7.224147779970902,,,0,18,0.0,16,1645007928004,1000000000,25.3776798248291,379.13934711946035,2.99792458E8,2,2.664140644825971,3.4028234663852886E38,1.60031245E9,,,,0,,3,,1.60031245E9
Raw,2065391161,1645291000000,,,-1311985616708750951,0.0,7.224147779970902,,,0,9,0.0,32995,14043933155958,33,35.417266845703125,-364.4564203546945,0.08140972509888822,4,-603963.2756577663,3.4028234663852886E38,1.59862502E9,,,,0,,3,,1.59862502E9
Raw,2065391162,1645291000000,,,-1311985616708750951,0.0,7.224147779970902,,,0,16,0.0,32995,14043932541593,56,30.515146255493164,397.5043379922115,0.14124194349576713,4,27505.153045165494,3.4028234663852886E38,1.60143744E9,,,,0,,3,,1.60143744E9
Raw,2065391162,1645291000000,,,-1311985616708750951,0.0,7.224147779970902,,,0,19,0.0,16,502178053,1000000000,27.57025909423828,-13.665111714857503,2.99792458E8,6,-6.860359916752429,3.4028234663852886E38,1.60368755E9,,,,0,,3,,1.60368755E9
Raw,2065391162,1645291000000,,,-1311985616708750951,0.0,7.224147779970902,,,0,3,0.0,32995,14043922479318,33,43.35089111328125,-495.93675595467494,0.032155058658614066,1,-760134.654980893,6.392517243511975E-4,1.60481254E9,,,,0,,3,,1.60481254E9
Raw,2065391163,1645291000000,,,-1311985616708750951,0.0,7.224147779970902,,,0,193,0.0,1,357061,13,36.876953125,-180.53507894343534,0.06885890208892448,1,-24918.77408081587,0.0013017215533182025,1.57542003E9,,,,0,,4,,1.57542003E9
Raw,2065391163,1645291000000,,,-1311985616708750951,0.0,7.224147779970902,,,0,194,0.0,35,15795883,7,41.58784866333008,-146.6292547515544,0.04168636407327336,1,-72952.32011765733,7.977228960953653E-4,1.57542003E9,,,,0,,4,,1.57542003E9
Raw,2065391163,1645291000000,,,-1311985616708750951,0.0,7.224147779970902,,,0,195,0.0,35,7904557,9,39.53789520263672,-122.55331373708572,0.050606956134297,1,-5123.765339860436,9.582326747477055E-4,1.57542003E9,,,,0,,4,,1.57542003E9
Raw,2065391163,1645291000000,,,-1311985616708750951,0.0,7.224147779970902,,,0,7,0.0,16431,176047879744084,14,30.069488525390625,-96.7979767186838,0.14985473669223137,4,-169723.3138873554,3.4028234663852886E38,1.56109798E9,,,,0,,5,,1.56109798E9
Raw,2065391164,1645291000000,,,-1311985616708750951,0.0,7.224147779970902,,,0,8,0.0,16431,176047878081539,8,34.97867965698242,-201.66083400067544,0.0863894415944273,4,-348624.9460831722,3.4028234663852886E38,1.56109798E9,,,,0,,5,,1.56109798E9
Raw,2065391164,1645291000000,,,-1311985616708750951,0.0,7.224147779970902,,,0,10,0.0,16431,176047880345484,7,36.02301025390625,-161.662174262353,0.07737839289647508,4,-242335.5106480514,3.4028234663852886E38,1.56109798E9,,,,0,,5,,1.56109798E9
Raw,2065391164,1645291000000,,,-1311985616708750951,0.0,7.224147779970902,,,0,30,0.0,16431,176047924492794,11,32.02914047241211,-313.7959161546239,0.11756205014521709,4,-154726.11286234314,3.4028234663852886E38,1.56109798E9,,,,0,,5,,1.56109798E9
Raw,2065391165,1645291000000,,,-1311985616708750951,0.0,7.224147779970902,,,0,32,0.0,16431,176047913316217,10,32.96305465698242,-649.819319814816,0.10724698968604118,4,-311182.54883090034,3.4028234663852886E38,1.56109798E9,,,,0,,5,,1.56109798E9
Raw,2065391165,1645291000000,,,-1311985616708750951,0.0,7.224147779970902,,,0,33,0.0,16431,176047910807403,18,28.256072998046875,33.223497672601326,0.18221454803826165,4,3031.5961166797456,3.4028234663852886E38,1.56109798E9,,,,0,,5,,1.56109798E9
Raw,2065391165,1645291000000,,,-1311985616708750951,0.0,7.224147779970902,,,0,36,0.0,16431,176047920766362,9,33.90829086303711,-315.9537446419961,0.0977756198022251,4,-198250.75512404618,3.4028234663852886E38,1.56109798E9,,,,0,,5,,1.56109798E9
Fix,gps,34.486388,109.463879,356.987854,0.365041,2.000000,1627952044999
Raw,2065392148,1646291000000,,,-1311985616708751339,0.0,7.075433034664484,,,0,1,0.0,39,4925141300,34,28.72931671142578,501.9378244869288,0.1716361889531699,4,525796.2940241488,3.4028234663852886E38,1.57542003E9,,,,0,,1,,1.57542003E9
Raw,2065392149,1646291000000,,,-1311985616708751339,0.0,7.075433034664484,,,0,2,0.0,16,1646014530704,1000000000,7.0,-691.9256727469656,2.99792458E8,2,-9.683619655608116,3.4028234663852886E38,1.57542003E9,,,,0,,1,,1.57542003E9
Raw,2065392149,1646291000000,,,-1311985616708751339,0.0,7.075433034664484,,,0,3,0.0,16431,176062926011917,6,44.39788818359375,-170.24780067887286,0.031081396791075702,1,-2395.927327245898,5.772315780632198E-4,1.57542003E9,,,,0,,1,,1.57542003E9
Raw,2065392149,1646291000000,,,-1311985616708751339,0.0,7.075433034664484,,,0,6,0.0,16431,176062924657186,22,32.2899055480957,-638.6359796858123,0.11413854393989337,1,-623474.9377814282,0.002081105951219797,1.57542003E9,,,,0,,1,,1.57542003E9
Raw,2065392149,1646291000000,,,-1311985616708751339,0.0,7.075433034664484,,,0,14,0.0,16431,176062932466786,7,41.70061111450195,-63.26397082593141,0.04058650589378482,1,-245304.14280907987,7.874335278756917E-4,1.57542003E9,,,,0,,1,,1.57542003E9
Raw,2065392150,1646291000000,,,-1311985616708751339,0.0,7.075433034664484,,,0,17,0.0,16431,176062929518183,8,41.287513732910156,-186.32594392508474,0.0419238096248688,1,-92915.09374788863,7.834117277525365E-4,1.57542003E9,,,,0,,1,,1.57542003E9
Raw,2065392150,1646291000000,,,-1311985616708751339,0.0,7.075433034664484,,,0,19,0.0,16431,176062927715446,17,34.87869644165039,-436.6211141680062,0.08548735485698811,1,-651905.8927798173,0.001638441113755107,1.57542003E9,,,,0,,1,,1.57542003E9
Raw,2065392150,1646291000000,,,-1311985616708751339,0.0,7.075433034664484,,,0,21,0.0,51,15592708,15,35.94742202758789,473.6666312959967,0.07716780724958072,4,524768.8168353126,3.4028234663852886E38,1.57542003E9,,,,0,,1,,1.57542003E9
Raw,2065392151,1646291000000,,,-1311985616708751339,0.0,7.075433034664484,,,0,22,0.0,16431,176062922665677,7,42.093711853027344,158.8095919399916,0.037126857806159624,1,2843.3008083443247,7.525908295065165E-4,1.57542003E9,,,,0,,1,,1.57542003E9
Raw,2065392151,1646291000000,,,-1311985616708751339,0.0,7.075433034664484,,,0,24,0.0,16,1646016631537,1000000000,7.0,-383.7430690167355,2.99792458E8,2,-524294.1387867689,3.4028234663852886E38,1.57542003E9,,,,0,,1,,1.57542003E9
Raw,2065392152,1646291000000,,,-1311985616708751339,0.0,7.075433034664484,,,0,30,0.0,16431,176062921108153,17,34.52527618408203,488.6496881729024,0.08779134888811946,1,133516.8576849244,0.0017064829589799047,1.57542003E9,,,,0,,1,,1.57542003E9
Raw,2065392152,1646291000000,,,-1311985616708751339,0.0,7.075433034664484,,,0,10,0.0,99,921896085,35,34.55238723754883,-846.5560738681302,0.08766012810214174,1,-548014.7821501378,0.0016770611982792616,1.59806246E9,,,,0,,3,,1.59806246E9
Raw,2065392152,1646291000000,,,-1311985616708751339,0.0,7.075433034664484,,,0,2,0.0,16,1646010001077,1000000000,16.408767700195312,2.739749154812337,2.99792458E8,2,0.027100999450606622,3.4028234663852886E38,1.59975002E9,,,,0,,3,,1.59975002E9
Raw,2065392153,1646291000000,,,-1311985616708751339,0.0,7.075433034664484,,,0,18,0.0,17,926578,82,27.174123764038086,379.2622484576816,0.20561005757128725,4,306.0162615555966,3.4028234663852886E38,1.60031245E9,,,,0,,3,,1.60031245E9
Raw,2065392153,1646291000000,,,-1311985616708751339,0.0,7.075433034664484,,,0,9,0.0,32995,14044933157141,39,33.6672477722168,-364.3649430413873,0.09905320434618403,4,-604327.6453644378,3.4028234663852886E38,1.59862502E9,,,,0,,3,,1.59862502E9
Raw,2065392153,1646291000000,,,-1311985616708751339,0.0,7.075433034664484,,,0,16,0.0,32995,14044932540203,87,26.715435028076172,397.6106070916496,0.21751234036058587,4,27902.71763665619,3.4028234663852886E38,1.60143744E9,,,,0,,3,,1.60143744E9
Raw,2065392154,1646291000000,,,-1311985616708751339,0.0,7.075433034664484,,,0,3,0.0,32995,14044922480948,33,43.22254943847656,-495.86538729071617,0.03262736611855535,1,-760630.5664822032,6.487672799266875E-4,1.60481254E9,,,,0,,3,,1.60481254E9
Raw,2065392154,1646291000000,,,-1311985616708751339,0.0,7.075433034664484,,,0,193,0.0,1,357657,14,36.45759582519531,-180.45846158117206,0.07216403499676444,1,-25099.254630271786,0.0013661108678206801,1.57542003E9,,,,0,,4,,1.57542003E9
Raw,2065392154,1646291000000,,,-1311985616708751339,0.0,7.075433034664484,,,0,194,0.0,35,15796367,9,39.99390411376953,-146.54931434978016,0.049510883969876296,1,-73098.91225923377,9.584054350852966E-4,1.57542003E9,,,,0,,4,,1.57542003E9
Raw,2065392154,1646291000000,,,-1311985616708751339,0.0,7.075433034664484,,,0,195,0.0,35,7904982,7,41.763641357421875,-122.61332442240825,0.03948870297961882,1,-5246.363406540037,7.817403529770672E-4,1.57542003E9,,,,0,,4,,1.57542003E9
Raw,2065392155,1646291000000,,,-1311985616708751339,0.0,7.075433034664484,,,0,7,0.0,16431,176048879744386,22,26.424728393554688,-96.8818451235723,0.22613450290422898,4,-169820.14319975645,3.4028234663852886E38,1.56109798E9,,,,0,,5,,1.56109798E9
Raw,2065392155,1646291000000,,,-1311985616708751339,0.0,7.075433034664484,,,0,8,0.0,16431,176048878082217,10,32.7901725769043,-201.67911923859992,0.11021213844078898,4,-348826.6320583824,3.4028234663852886E38,1.56109798E9,,,,0,,5,,1.56109798E9
Raw,2065392155,1646291000000,,,-1311985616708751339,0.0,7.075433034664484,,,0,10,0.0,16431,176048880346005,6,36.91563034057617,-161.82818990807561,0.07017893160620442,1,-242497.32956934752,0.001307827071286738,1.56109798E9,,,,0,,5,,1.56109798E9
Raw,2065392156,1646291000000,,,-1311985616708751339,0.0,7.075433034664484,,,0,30,0.0,16431,176048924493843,13,30.838529586791992,-313.8564125149519,0.1347149200861063,4,-155039.9442104455,3.4028234663852886E38,1.56109798E9,,,,0,,5,,1.56109798E9
Raw,2065392156,1646291000000,,,-1311985616708751339,0.0,7.075433034664484,,,0,32,0.0,16431,176048913318371,11,32.200679779052734,-649.7970980531632,0.11686636363581704,1,-311832.36976065516,0.0022505978122353554,1.56109798E9,,,,0,,5,,1.56109798E9
Raw,2065392156,1646291000000,,,-1311985616708751339,0.0,7.075433034664484,,,0,33,0.0,16431,176048910807293,19,27.679141998291016,33.190689047891055,0.19459498372834805,1,3064.823028612072,0.0035710709635168314,1.56109798E9,,,,0,,5,,1.56109798E9
Raw,2065392157,1646291000000,,,-1311985616708751339,0.0,7.075433034664484,,,0,36,0.0,16431,176048920767439,11,31.913022994995117,-315.9982904126714,0.12206074302524661,4,-198566.73058361723,3.4028234663852886E38,1.56109798E9,,,,0,,5,,1.56109798E9
Fix,gps,34.486387,109.463880,357.014038,0.250021,2.000000,1627952045999
Raw,2065393125,1647291000000,,,-1311985616708751727,0.0,6.9698812496556135,,,0,1,0.0,39,5925139612,33,29.004581451416016,502.1775604861102,0.16631070527053393,1,526298.3335282262,0.003037808695808053,1.57542003E9,,,,0,,1,,1.57542003E9
Raw,2065393126,1647291000000,,,-1311985616708751727,0.0,6.9698812496556135,,,0,2,0.0,16,1647014533012,1000000000,13.707544326782227,-691.9256727469656,2.99792458E8,2,-9.678208702371114,3.4028234663852886E38,1.57542003E9,,,,0,,1,,1.57542003E9
Raw,2065393126,1647291000000,,,-1311985616708751727,0.0,6.9698812496556135,,,0,3,0.0,16431,176063926012501,6,43.22876739501953,-170.02191919826794,0.033239577236393675,1,-2566.069871784544,6.603983929380774E-4,1.57542003E9,,,,0,,1,,1.57542003E9
Raw,2065393126,1647291000000,,,-1311985616708751727,0.0,6.9698812496556135,,,0,6,0.0,16431,176063924659350,20,33.254215240478516,-638.6646089492915,0.10223336547313627,1,-624113.6558784823,0.0019753994420170784,1.57542003E9,,,,0,,1,,1.57542003E9
Raw,2065393127,1647291000000,,,-1311985616708751727,0.0,6.9698812496556135,,,0,14,0.0,16431,176063932466992,8,41.35648727416992,-63.13871779821008,0.042136180107438,1,-245367.36491925322,8.192569366656244E-4,1.57542003E9,,,,0,,1,,1.57542003E9
Raw,2065393127,1647291000000,,,-1311985616708751727,0.0,6.9698812496556135,,,0,17,0.0,16431,176063929518826,7,42.26958465576172,-186.22168569058147,0.0376249933776846,1,-93101.36582235583,7.375056156888604E-4,1.57542003E9,,,,0,,1,,1.57542003E9
Raw,2065393127,1647291000000,,,-1311985616708751727,0.0,6.9698812496556135,,,0,19,0.0,16431,176063927716879,19,33.86543655395508,-436.72861023587916,0.09589346273786142,1,-652342.4953057725,0.0018411697819828987,1.57542003E9,,,,0,,1,,1.57542003E9
Raw,2065393127,1647291000000,,,-1311985616708751727,0.0,6.9698812496556135,,,0,21,0.0,51,15591125,13,36.98106002807617,473.84750689276325,0.068824445191351,4,525242.5937535978,3.4028234663852886E38,1.57542003E9,,,,0,,1,,1.57542003E9
Raw,2065393128,1647291000000,,,-1311985616708751727,0.0,6.9698812496556135,,,0,22,0.0,16431,176063922665139,7,42.5608024597168,159.03983597503145,0.03520807624658473,1,3002.249870187947,7.131886086426675E-4,1.57542003E9,,,,0,,1,,1.57542003E9
Raw,2065393128,1647291000000,,,-1311985616708751727,0.0,6.9698812496556135,,,0,24,0.0,16,1647016632817,1000000000,29.440080642700195,-383.5573877935992,2.99792458E8,2,-524294.1328171277,3.4028234663852886E38,1.57542003E9,,,,0,,1,,1.57542003E9
Raw,2065393128,1647291000000,,,-1311985616708751727,0.0,6.9698812496556135,,,0,30,0.0,16431,176063921106557,20,33.09907913208008,488.4626095690487,0.10342154181510849,1,134005.47254243642,0.0020109987817704678,1.57542003E9,,,,0,,1,,1.57542003E9
Raw,2065393129,1647291000000,,,-1311985616708751727,0.0,6.9698812496556135,,,0,10,0.0,99,1921898990,33,36.42089080810547,-846.416812950778,0.07075959814575222,1,-548861.2672864317,0.0013524579117074609,1.59806246E9,,,,0,,3,,1.59806246E9
Raw,2065393129,1647291000000,,,-1311985616708751727,0.0,6.9698812496556135,,,0,2,0.0,16,1647010001189,1000000000,21.749126434326172,2.9223991694716105,2.99792458E8,2,0.02886198242702333,3.4028234663852886E38,1.59975002E9,,,,0,,3,,1.59975002E9
Raw,2065393129,1647291000000,,,-1311985616708751727,0.0,6.9698812496556135,,,0,18,0.0,17,925307,80,27.376527786254883,379.3695400308154,0.2009068117057352,4,2.6545996770003626,3.4028234663852886E38,1.60031245E9,,,,0,,3,,1.60031245E9
Raw,2065393130,1647291000000,,,-1311985616708751727,0.0,6.9698812496556135,,,0,9,0.0,32995,14045933158415,35,34.392452239990234,-364.108983792901,0.0913086484161788,1,-604691.8883042168,0.0017052263719961047,1.59862502E9,,,,0,,3,,1.59862502E9
Raw,2065393130,1647291000000,,,-1311985616708751727,0.0,6.9698812496556135,,,0,16,0.0,32995,14045932538795,120,23.9008846282959,397.7138428524572,0.2998905364347402,4,28300.346322041743,3.4028234663852886E38,1.60143744E9,,,,0,,3,,1.60143744E9
Raw,2065393131,1647291000000,,,-1311985616708751727,0.0,6.9698812496556135,,,0,3,0.0,32995,14045922482630,33,42.507057189941406,-495.6446352198179,0.035390795158397326,1,-761126.3049561275,7.04471836797893E-4,1.60481254E9,,,,0,,3,,1.60481254E9
Raw,2065393131,1647291000000,,,-1311985616708751727,0.0,6.9698812496556135,,,0,193,0.0,1,358251,12,37.35251235961914,-180.41352386224673,0.06529921583392978,1,-25279.687442776623,0.001232367241755128,1.57542003E9,,,,0,,4,,1.57542003E9
Raw,2065393131,1647291000000,,,-1311985616708751727,0.0,6.9698812496556135,,,0,194,0.0,35,15796836,11,38.29400634765625,-146.52855813375777,0.05959958233255647,1,-73245.47583954633,0.0011057716328650713,1.57542003E9,,,,0,,4,,1.57542003E9
Raw,2065393132,1647291000000,,,-1311985616708751727,0.0,6.9698812496556135,,,0,195,0.0,35,7905377,7,42.577667236328125,-122.58087792379854,0.036083307239778956,1,-5368.953492508285,7.118051289580762E-4,1.57542003E9,,,,0,,4,,1.57542003E9
Raw,2065393132,1647291000000,,,-1311985616708751727,0.0,6.9698812496556135,,,0,7,0.0,16431,176049879744716,25,25.20977783203125,-96.17657685074579,0.25955133637355166,4,-169916.836640279,3.4028234663852886E38,1.56109798E9,,,,0,,5,,1.56109798E9
Raw,2065393132,1647291000000,,,-1311985616708751727,0.0,6.9698812496556135,,,0,8,0.0,16431,176049878082890,10,33.344261169433594,-201.66349243228422,0.10360218881977407,1,-349028.31515130564,0.0019729624036699533,1.56109798E9,,,,0,,5,,1.56109798E9
Raw,2065393132,1647291000000,,,-1311985616708751727,0.0,6.9698812496556135,,,0,10,0.0,16431,176049880346566,6,36.6214485168457,-161.7720731434108,0.0724705441199271,1,-242659.11332012084,0.0013528804993256927,1.56109798E9,,,,0,,5,,1.56109798E9
Raw,2065393133,1647291000000,,,-1311985616708751727,0.0,6.9698812496556135,,,0,30,0.0,16431,176049924494878,12,31.65030288696289,-313.8208304303421,0.12276733825058939,1,-155353.81323553226,0.002260687528178096,1.56109798E9,,,,0,,5,,1.56109798E9
Raw,2065393133,1647291000000,,,-1311985616708751727,0.0,6.9698812496556135,,,0,32,0.0,16431,176049913320574,12,31.402587890625,-649.8142074463376,0.12788310998211588,1,-312482.18043691316,0.0023260884918272495,1.56109798E9,,,,0,,5,,1.56109798E9
Raw,2065393133,1647291000000,,,-1311985616708751727,0.0,6.9698812496556135,,,0,33,0.0,16431,176049910807185,17,28.571969985961914,33.521112073419104,0.1757760258511537,1,3098.2277457368705,0.003222234547138214,1.56109798E9,,,,0,,5,,1.56109798E9
Raw,2065393134,1647291000000,,,-1311985616708751727,0.0,6.9698812496556135,,,0,36,0.0,16431,176049920768495,11,31.945335388183594,-315.7730053750556,0.12162157359828923,1,-198882.67050481975,0.0023177419789135456,1.56109798E9,,,,0,,5,,1.56109798E9
Fix,gps,34.486387,109.463880,357.052521,0.000000,2.000000,1627952046999
Raw,2065394199,1648291000000,,,-1311985616708752112,0.0,6.867074766982063,,,0,1,0.0,16431,176064925137924,29,30.16118049621582,502.05254603558456,0.14569111862707418,1,526800.3588577702,0.0026590742636471987,1.57542003E9,,,,0,,1,,1.57542003E9
Raw,2065394200,1648291000000,,,-1311985616708752112,0.0,6.867074766982063,,,0,2,0.0,16,1648014535320,1000000000,7.0,-691.9256727469656,2.99792458E8,2,-9.67279774897047,3.4028234663852886E38,1.57542003E9,,,,0,,1,,1.57542003E9
Raw,2065394201,1648291000000,,,-1311985616708752112,0.0,6.867074766982063,,,0,3,0.0,16431,176064926013058,6,45.18216323852539,-170.0039236612239,0.03108160273365357,1,-2736.1158312985913,5.273954593576491E-4,1.57542003E9,,,,0,,1,,1.57542003E9
Raw,2065394201,1648291000000,,,-1311985616708752112,0.0,6.867074766982063,,,0,6,0.0,16431,176064924661434,25,31.2396183013916,-638.5960350467676,0.12870222058272757,1,-624752.2466788751,0.0023485971614718437,1.57542003E9,,,,0,,1,,1.57542003E9
Raw,2065394202,1648291000000,,,-1311985616708752112,0.0,6.867074766982063,,,0,14,0.0,16431,176064932467189,8,40.63799285888672,-63.05435945800906,0.045576540320497794,1,-245430.4828013354,8.899073582142591E-4,1.57542003E9,,,,0,,1,,1.57542003E9
Raw,2065394202,1648291000000,,,-1311985616708752112,0.0,6.867074766982063,,,0,17,0.0,16431,176064929519424,6,43.369163513183594,-186.26042040241964,0.03335476778494678,1,-93287.64222635426,6.498097791336477E-4,1.57542003E9,,,,0,,1,,1.57542003E9
Raw,2065394203,1648291000000,,,-1311985616708752112,0.0,6.867074766982063,,,0,19,0.0,16431,176064927718162,166,28.707626342773438,-436.9914882230396,0.1725265432043549,4,-652779.2654245866,3.4028234663852886E38,1.57542003E9,,,,1,,1,,1.57542003E9
Raw,2065394204,1648291000000,,,-1311985616708752112,0.0,6.867074766982063,,,0,21,0.0,16431,176064915589557,12,37.311546325683594,473.6475451203439,0.06635938326204777,4,525716.2977603982,3.4028234663852886E38,1.57542003E9,,,,0,,1,,1.57542003E9
Raw,2065394204,1648291000000,,,-1311985616708752112,0.0,6.867074766982063,,,0,22,0.0,16431,176064922664602,6,43.86390686035156,159.04014271714016,0.03047929766183341,1,3161.2419579575812,6.138313910923898E-4,1.57542003E9,,,,0,,1,,1.57542003E9
Raw,2065394205,1648291000000,,,-1311985616708752112,0.0,6.867074766982063,,,0,24,0.0,16,1648016634108,1000000000,24.544063568115234,-383.5573877935992,2.99792458E8,2,-524294.1298176566,3.4028234663852886E38,1.57542003E9,,,,0,,1,,1.57542003E9
Raw,2065394205,1648291000000,,,-1311985616708752112,0.0,6.867074766982063,,,0,30,0.0,16431,176064921104900,24,31.670991897583008,488.7873131323415,0.12186742327124406,1,134494.18885680192,0.0022348060738295317,1.57542003E9,,,,0,,1,,1.57542003E9
Raw,2065394206,1648291000000,,,-1311985616708752112,0.0,6.867074766982063,,,0,10,0.0,99,921901829,33,37.83797836303711,-846.4654826986925,0.060159779428001214,1,-549707.7259273435,0.0011488661402836442,1.59806246E9,,,,0,,3,,1.59806246E9
Raw,2065394207,1648291000000,,,-1311985616708752112,0.0,6.867074766982063,,,0,2,0.0,16,1648010001179,1000000000,17.68030548095703,3.0137241768012473,2.99792458E8,2,0.030094191253355274,3.4028234663852886E38,1.59975002E9,,,,0,,3,,1.59975002E9
Raw,2065394207,1648291000000,,,-1311985616708752112,0.0,6.867074766982063,,,0,18,0.0,51,7924037,68,28.78738021850586,379.29564926507396,0.17099942282332015,4,381.9665617811082,3.4028234663852886E38,1.60031245E9,,,,0,,3,,1.60031245E9
Raw,2065394208,1648291000000,,,-1311985616708752112,0.0,6.867074766982063,,,0,9,0.0,32995,14046933159602,33,37.95447540283203,-364.0482488553773,0.061387817100044845,1,-605055.9843763632,0.001131568569689989,1.59862502E9,,,,0,,3,,1.59862502E9
Raw,2065394208,1648291000000,,,-1311985616708752112,0.0,6.867074766982063,,,0,16,0.0,16,12537645,1000000000,14.362436294555664,398.10698398844784,2.99792458E8,6,322.1218526603916,3.4028234663852886E38,1.60143744E9,,,,0,,3,,1.60143744E9
Raw,2065394209,1648291000000,,,-1311985616708752112,0.0,6.867074766982063,,,0,3,0.0,32995,14046922484254,33,43.16701889038086,-495.6847843536018,0.03283435713136332,1,-761622.0098550922,6.529284291900694E-4,1.60481254E9,,,,0,,3,,1.60481254E9
Raw,2065394209,1648291000000,,,-1311985616708752112,0.0,6.867074766982063,,,0,193,0.0,1,358838,10,38.783111572265625,-180.44032971430192,0.05569353810569605,1,-25460.135149820122,0.0010452258866280317,1.57542003E9,,,,0,,4,,1.57542003E9
Raw,2065394209,1648291000000,,,-1311985616708752112,0.0,6.867074766982063,,,0,194,0.0,35,15797360,10,38.72734451293945,-146.51899800470312,0.05683750544095301,1,-73392.01174335962,0.0010519581846892834,1.57542003E9,,,,0,,4,,1.57542003E9
Raw,2065394210,1648291000000,,,-1311985616708752112,0.0,6.867074766982063,,,0,195,0.0,35,7905807,7,42.03065490722656,-122.64920472851264,0.038336443855317676,1,-5491.582412050746,7.580743404105306E-4,1.57542003E9,,,,0,,4,,1.57542003E9
Raw,2065394210,1648291000000,,,-1311985616708752112,0.0,6.867074766982063,,,0,7,0.0,16431,176050879745024,24,25.660165786743164,-96.52521481913175,0.2466153133733998,4,-170013.6329184671,3.4028234663852886E38,1.56109798E9,,,,0,,5,,1.56109798E9
Raw,2065394210,1648291000000,,,-1311985616708752112,0.0,6.867074766982063,,,0,8,0.0,16431,176050878083540,9,33.940528869628906,-201.61817980633714,0.09694465190167567,1,-349229.942679656,0.001842066994868219,1.56109798E9,,,,0,,5,,1.56109798E9
Raw,2065394211,1648291000000,,,-1311985616708752112,0.0,6.867074766982063,,,0,10,0.0,16431,176050880347119,7,36.204647064208984,-161.80525241483576,0.0758531114370447,1,-242820.9088039321,0.0014193827519193292,1.56109798E9,,,,0,,5,,1.56109798E9
Raw,2065394211,1648291000000,,,-1311985616708752112,0.0,6.867074766982063,,,0,30,0.0,16431,176050924495906,8,34.408538818359375,-313.75266551729646,0.08958591170936409,1,-155667.5991395731,0.0017454401822760701,1.56109798E9,,,,0,,5,,1.56109798E9
Raw,2065394212,1648291000000,,,-1311985616708752112,0.0,6.867074766982063,,,0,32,0.0,16431,176050913322773,17,28.668415069580078,-649.8086179234679,0.1743089824564702,1,-313131.97808706126,0.0031866536010056734,1.56109798E9,,,,0,,5,,1.56109798E9
Raw,2065394212,1648291000000,,,-1311985616708752112,0.0,6.867074766982063,,,0,33,0.0,16431,176050910807069,16,28.971590042114258,33.474945255905425,0.16795952731394725,1,3131.651537150165,0.0030773442704230547,1.56109798E9,,,,0,,5,,1.56109798E9
Raw,2065394212,1648291000000,,,-1311985616708752112,0.0,6.867074766982063,,,0,36,0.0,16431,176050920769509,10,32.66649627685547,-315.7577705169899,0.11222937719440834,1,-199198.49079263452,0.0021330793388187885,1.56109798E9,,,,0,,5,,1.56109798E9
Fix,gps,34.486387,109.463880,357.113983,0.000000,2.000000,1627952047999
Raw,2065395147,1649291000000,,,-1311985616708752498,0.0,6.721453656114925,,,0,1,0.0,16431,176065925136299,27,30.832061767578125,502.1203360416084,0.1349302153693268,1,527302.4386773299,0.0024614238645881414,1.57542003E9,,,,0,,1,,1.57542003E9
Raw,2065395147,1649291000000,,,-1311985616708752498,0.0,6.721453656114925,,,0,2,0.0,16,1649014537628,1000000000,7.0,-691.9256727469656,2.99792458E8,2,-9.66738679555802,3.4028234663852886E38,1.57542003E9,,,,0,,1,,1.57542003E9
Raw,2065395147,1649291000000,,,-1311985616708752498,0.0,6.721453656114925,,,0,3,0.0,16431,176065926013629,6,44.615562438964844,-169.84423031118627,0.03108170466482847,1,-2906.056586793066,5.629453808069229E-4,1.57542003E9,,,,0,,1,,1.57542003E9
Raw,2065395148,1649291000000,,,-1311985616708752498,0.0,6.721453656114925,,,0,6,0.0,16431,176065924663558,25,31.52915382385254,-638.453161389024,0.12451066921519072,1,-625390.7504388728,0.002271599369123578,1.57542003E9,,,,0,,1,,1.57542003E9
Raw,2065395148,1649291000000,,,-1311985616708752498,0.0,6.721453656114925,,,0,14,0.0,16431,176065932467415,8,41.21247482299805,-62.91080415113498,0.042803201074181535,1,-245493.49612645592,8.329536649398506E-4,1.57542003E9,,,,0,,1,,1.57542003E9
Raw,2065395148,1649291000000,,,-1311985616708752498,0.0,6.721453656114925,,,0,17,0.0,16431,176065929520061,6,43.65203857421875,-186.18102531994975,0.03234098320186597,1,-93473.86027932382,6.289882585406303E-4,1.57542003E9,,,,0,,1,,1.57542003E9
Raw,2065395148,1649291000000,,,-1311985616708752498,0.0,6.721453656114925,,,0,19,0.0,16431,176065927719833,166,25.59122657775879,-436.7062862268567,0.24638916762062224,4,-653215.7059615422,3.4028234663852886E38,1.57542003E9,,,,1,,1,,1.57542003E9
Raw,2065395149,1649291000000,,,-1311985616708752498,0.0,6.721453656114925,,,0,21,0.0,16431,176065915587962,11,38.443756103515625,473.72453738962895,0.05859186993518062,1,526190.0007125401,0.0010868707904592156,1.57542003E9,,,,0,,1,,1.57542003E9
Raw,2065395149,1649291000000,,,-1311985616708752498,0.0,6.721453656114925,,,0,22,0.0,16431,176065922664080,6,43.76408767700195,159.18381731261206,0.03071517888192829,1,3320.3456288910374,6.209264975041151E-4,1.57542003E9,,,,0,,1,,1.57542003E9
Raw,2065395149,1649291000000,,,-1311985616708752498,0.0,6.721453656114925,,,0,24,0.0,16,1649016635387,1000000000,24.233943939208984,-383.37174065291947,2.99792458E8,2,-524294.1238528588,3.4028234663852886E38,1.57542003E9,,,,0,,1,,1.57542003E9
Raw,2065395150,1649291000000,,,-1311985616708752498,0.0,6.721453656114925,,,0,30,0.0,16431,176065921103270,25,31.294387817382812,488.7490385336664,0.1272585007050444,1,134982.85084754502,0.0023338343016803265,1.57542003E9,,,,0,,1,,1.57542003E9
Raw,2065395150,1649291000000,,,-1311985616708752498,0.0,6.721453656114925,,,0,10,0.0,99,1921904647,33,36.288856506347656,-846.3008644336874,0.07183924482941706,1,-550554.053155331,0.0013731736689805984,1.59806246E9,,,,0,,3,,1.59806246E9
Raw,2065395150,1649291000000,,,-1311985616708752498,0.0,6.721453656114925,,,0,2,0.0,16,1649010001169,1000000000,21.341096878051758,3.196374191460521,2.99792458E8,2,0.03166787768830649,3.4028234663852886E38,1.59975002E9,,,,0,,3,,1.59975002E9
Raw,2065395151,1649291000000,,,-1311985616708752498,0.0,6.721453656114925,,,0,18,0.0,99,1927922824,71,28.41490364074707,379.36228046757606,0.17842919864339912,4,761.2634608194828,3.4028234663852886E38,1.60031245E9,,,,0,,3,,1.60031245E9
Raw,2065395151,1649291000000,,,-1311985616708752498,0.0,6.721453656114925,,,0,9,0.0,32995,14047933160836,33,37.82319259643555,-363.8130117404569,0.062286887506798116,1,-605419.8722553711,0.0011488015297800303,1.59862502E9,,,,0,,3,,1.59862502E9
Raw,2065395151,1649291000000,,,-1311985616708752498,0.0,6.721453656114925,,,0,16,0.0,16,12536307,1000000000,19.398765563964844,397.64411014641155,2.99792458E8,4,4.7610740782817516,3.4028234663852886E38,1.60143744E9,,,,0,,3,,1.60143744E9
Raw,2065395151,1649291000000,,,-1311985616708752498,0.0,6.721453656114925,,,0,3,0.0,32995,14047922485944,33,43.06660842895508,-495.5443305502713,0.03321124453022664,1,-762117.6288172046,6.605203379876912E-4,1.60481254E9,,,,0,,3,,1.60481254E9
Raw,2065395152,1649291000000,,,-1311985616708752498,0.0,6.721453656114925,,,0,193,0.0,1,359442,10,39.479393005371094,-180.44327784679115,0.05156079062493818,1,-25640.642132135625,9.647083352319896E-4,1.57542003E9,,,,0,,4,,1.57542003E9
Raw,2065395152,1649291000000,,,-1311985616708752498,0.0,6.721453656114925,,,0,194,0.0,35,15797822,11,38.24406433105469,-146.47271402874514,0.05992703935227581,1,-73538.56254142587,0.0011121478164568543,1.57542003E9,,,,0,,4,,1.57542003E9
Raw,2065395152,1649291000000,,,-1311985616708752498,0.0,6.721453656114925,,,0,195,0.0,35,7906219,7,41.74737548828125,-122.62766461599023,0.039560275306225495,1,-5614.232327424883,7.83205556217581E-4,1.57542003E9,,,,0,,4,,1.57542003E9
Raw,2065395153,1649291000000,,,-1311985616708752498,0.0,6.721453656114925,,,0,7,0.0,16431,176051879745357,25,25.269956588745117,-96.65919295572292,0.25778390804711193,4,-170110.38940965603,3.4028234663852886E38,1.56109798E9,,,,0,,5,,1.56109798E9
Raw,2065395153,1649291000000,,,-1311985616708752498,0.0,6.721453656114925,,,0,8,0.0,16431,176051878084221,9,34.00411605834961,-201.5862786270318,0.0962614134769822,1,-349431.55006641324,0.0018286311533302069,1.56109798E9,,,,0,,5,,1.56109798E9
Raw,2065395153,1649291000000,,,-1311985616708752498,0.0,6.721453656114925,,,0,10,0.0,16431,176051880347648,6,36.686038970947266,-161.71585413137643,0.07196095481270787,1,-242982.66363575956,0.0013428576057776809,1.56109798E9,,,,0,,5,,1.56109798E9
Raw,2065395154,1649291000000,,,-1311985616708752498,0.0,6.721453656114925,,,0,30,0.0,16431,176051924496963,7,35.49753189086914,-313.6912830130989,0.07912511879326911,1,-155981.31319956842,0.001539768185466528,1.56109798E9,,,,0,,5,,1.56109798E9
Raw,2065395154,1649291000000,,,-1311985616708752498,0.0,6.721453656114925,,,0,32,0.0,16431,176051913324917,20,27.22407341003418,-649.7791025161191,0.20541022254300312,1,-313781.8262918242,0.0037631536833941936,1.56109798E9,,,,0,,5,,1.56109798E9
Raw,2065395154,1649291000000,,,-1311985616708752498,0.0,6.721453656114925,,,0,33,0.0,16431,176051910806973,17,28.806861877441406,33.58853143272829,0.17113806586301328,1,3165.1679675873243,0.003136262996122241,1.56109798E9,,,,0,,5,,1.56109798E9
Raw,2065395154,1649291000000,,,-1311985616708752498,0.0,6.721453656114925,,,0,36,0.0,16431,176051920770583,11,31.895124435424805,-315.5948563748109,0.12230540280775154,1,-199514.15150942656,0.0023311793338507414,1.56109798E9,,,,0,,5,,1.56109798E9
Raw,2065396053,1650291000000,,,-1311985616708752884,0.0,6.660260135404179,,,0,1,0.0,16431,176066925134639,26,31.1473331451416,502.13021995400004,0.13015311308675903,1,527804.5382377909,0.0023736837320029736,1.57542003E9,,,,0,,1,,1.57542003E9
Raw,2065396054,1650291000000,,,-1311985616708752884,0.0,6.660260135404179,,,0,2,0.0,16,1650014539936,1000000000,7.0,-691.9256727469656,2.99792458E8,2,-9.68361965561854,3.4028234663852886E38,1.57542003E9,,,,0,,1,,1.57542003E9
Raw,2065396055,1650291000000,,,-1311985616708752884,0.0,6.660260135404179,,,0,3,0.0,16431,176066926014196,6,44.66428756713867,-169.78395548682568,0.031081806596003375,1,-3075.8877066439486,5.597964045591652E-4,1.57542003E9,,,,0,,1,,1.57542003E9
Raw,2065396055,1650291000000,,,-1311985616708752884,0.0,6.660260135404179,,,0,6,0.0,16431,176066924665729,26,31.077646255493164,-638.4886071438077,0.13110974340391185,1,-626029.2034227414,0.002392804017290473,1.57542003E9,,,,0,,1,,1.57542003E9
Raw,2065396056,1650291000000,,,-1311985616708752884,0.0,6.660260135404179,,,0,14,0.0,16431,176066932467616,8,41.35979080200195,-62.8584961009866,0.042121115095832884,1,-245556.40930346985,8.189452928490937E-4,1.57542003E9,,,,0,,1,,1.57542003E9
Raw,2065396057,1650291000000,,,-1311985616708752884,0.0,6.660260135404179,,,0,17,0.0,16431,176066929520687,6,43.208065032958984,-186.2043206789831,0.03394735403127411,1,-93660.06431619285,6.619744235649705E-4,1.57542003E9,,,,0,,1,,1.57542003E9
Raw,2065396057,1650291000000,,,-1311985616708752884,0.0,6.660260135404179,,,0,19,0.0,16431,176066927721221,166,24.260189056396484,-436.34024064380174,0.28696303404871903,4,-653652.1517322491,3.4028234663852886E38,1.57542003E9,,,,1,,1,,1.57542003E9
Raw,2065396058,1650291000000,,,-1311985616708752884,0.0,6.660260135404179,,,0,21,0.0,16431,176066915586381,10,38.85811233520508,473.63340090088695,0.05599272898654625,1,526663.6616805902,0.0010362393222749233,1.57542003E9,,,,0,,1,,1.57542003E9
Raw,2065396058,1650291000000,,,-1311985616708752884,0.0,6.660260135404179,,,0,22,0.0,16431,176066922663561,6,44.57227325439453,159.24387060100526,0.030479110441308077,1,3479.53885853432,5.657582078129053E-4,1.57542003E9,,,,0,,1,,1.57542003E9
Raw,2065396059,1650291000000,,,-1311985616708752884,0.0,6.660260135404179,,,0,24,0.0,16,1650016636604,1000000000,23.27096939086914,-383.37174065291947,2.99792458E8,2,-524294.1328469171,3.4028234663852886E38,1.57542003E9,,,,0,,1,,1.57542003E9
Raw,2065396059,1650291000000,,,-1311985616708752884,0.0,6.660260135404179,,,0,30,0.0,16431,176066921101628,23,32.052833557128906,488.75285576879696,0.11663400216159842,1,135471.57002980114,0.002138689626008272,1.57542003E9,,,,0,,1,,1.57542003E9
Raw,2065396060,1650291000000,,,-1311985616708752884,0.0,6.660260135404179,,,0,10,0.0,99,921907504,33,35.95683670043945,-846.3072037706006,0.07462564374748931,1,-551400.3436096063,0.001426679897122085,1.59806246E9,,,,0,,3,,1.59806246E9
Raw,2065396061,1650291000000,,,-1311985616708752884,0.0,6.660260135404179,,,0,2,0.0,16,1650010001158,1000000000,12.343782424926758,3.2876991987901576,2.99792458E8,2,0.03252120165864571,3.4028234663852886E38,1.59975002E9,,,,0,,3,,1.59975002E9
Raw,2065396061,1650291000000,,,-1311985616708752884,0.0,6.660260135404179,,,0,18,0.0,99,927921487,68,28.7885684967041,379.3117021020962,0.1709757415070936,4,1140.5578279944725,3.4028234663852886E38,1.60031245E9,,,,0,,3,,1.60031245E9
Raw,2065396061,1650291000000,,,-1311985616708752884,0.0,6.660260135404179,,,0,9,0.0,32995,14048933162006,33,38.493534088134766,-363.67262610203943,0.05783669722419815,1,-605783.6059019209,0.0010634767822921276,1.59862502E9,,,,0,,3,,1.59862502E9
Raw,2065396062,1650291000000,,,-1311985616708752884,0.0,6.660260135404179,,,0,16,0.0,17,534907,118,24.01666259765625,397.73810956150146,0.2959488537407686,4,403.13633964905534,3.4028234663852886E38,1.60143744E9,,,,0,,3,,1.60143744E9
Raw,2065396062,1650291000000,,,-1311985616708752884,0.0,6.660260135404179,,,0,3,0.0,32995,14048922487573,33,43.27436828613281,-495.4895259601826,0.03243714382413303,1,-762613.159693233,6.449084612540901E-4,1.60481254E9,,,,0,,3,,1.60481254E9
Raw,2065396062,1650291000000,,,-1311985616708752884,0.0,6.660260135404179,,,0,193,0.0,1,360043,9,40.00307846069336,-180.51040324491282,0.04866362372316679,1,-25821.14710108573,9.082631440833211E-4,1.57542003E9,,,,0,,4,,1.57542003E9
Raw,2065396062,1650291000000,,,-1311985616708752884,0.0,6.660260135404179,,,0,194,0.0,35,15798311,10,39.3720817565918,-146.56540126925893,0.05297480068547908,1,-73685.10212136812,9.76701034232974E-4,1.57542003E9,,,,0,,4,,1.57542003E9
Raw,2065396063,1650291000000,,,-1311985616708752884,0.0,6.660260135404179,,,0,195,0.0,35,7906630,8,40.76724624633789,-122.67789363629072,0.0441161328533233,1,-5736.9102519227845,8.767629624344409E-4,1.57542003E9,,,,0,,4,,1.57542003E9
Raw,2065396063,1650291000000,,,-1311985616708752884,0.0,6.660260135404179,,,0,7,0.0,16431,176052879745633,21,26.9534912109375,-96.80147869109152,0.21298895933394912,4,-170207.15645237037,3.4028234663852886E38,1.56109798E9,,,,0,,5,,1.56109798E9
Raw,2065396063,1650291000000,,,-1311985616708752884,0.0,6.660260135404179,,,0,8,0.0,16431,176052878084891,8,34.8086051940918,-201.57864415677068,0.08803396172621408,1,-349633.1285362737,0.0016668696189299226,1.56109798E9,,,,0,,5,,1.56109798E9
Raw,2065396064,1650291000000,,,-1311985616708752884,0.0,6.660260135404179,,,0,10,0.0,16431,176052880348191,6,36.6721305847168,-161.75492966777983,0.0720705079432204,1,-243144.41547299578,0.0013450096594169736,1.56109798E9,,,,0,,5,,1.56109798E9
Raw,2065396064,1650291000000,,,-1311985616708752884,0.0,6.660260135404179,,,0,30,0.0,16431,176052924498026,7,35.408287048339844,-313.666777726859,0.07993416109007401,1,-156295.00984263487,0.0015556702855974436,1.56109798E9,,,,0,,5,,1.56109798E9
Raw,2065396064,1650291000000,,,-1311985616708752884,0.0,6.660260135404179,,,0,32,0.0,16431,176052913327120,17,28.593130111694336,-649.855106394165,0.17580631397169644,1,-314431.6905023565,0.00321439397521317,1.56109798E9,,,,0,,5,,1.56109798E9
Raw,2065396064,1650291000000,,,-1311985616708752884,0.0,6.660260135404179,,,0,33,0.0,16431,176052910806852,15,29.49694061279297,33.649270630559,0.1582159720699462,1,3198.7667155380223,0.002896733582019806,1.56109798E9,,,,0,,5,,1.56109798E9
Raw,2065396065,1650291000000,,,-1311985616708752884,0.0,6.660260135404179,,,0,36,0.0,16431,176052920771638,12,31.205177307128906,-315.51145660369957,0.13210807813319658,1,-199829.72658215152,0.0025239051319658756,1.56109798E9,,,,0,,5,,1.56109798E9
Fix,gps,34.486387,109.463880,357.170227,0.000000,2.000000,1627952048999
Raw,2065397134,1651291000000,,,-1311985616708753272,0.0,6.583184897533428,,,0,1,0.0,16431,176067925132958,25,31.236595153808594,502.1565656928922,0.12883156916345195,1,528306.6649603783,0.0023494146298617125,1.57542003E9,,,,0,,1,,1.57542003E9
Raw,2065397134,1651291000000,,,-1311985616708753272,0.0,6.583184897533428,,,0,2,0.0,16,1651014542243,1000000000,7.0,-691.7399915238293,2.99792458E8,2,-9.67561168522973,3.4028234663852886E38,1.57542003E9,,,,0,,1,,1.57542003E9
Raw,2065397135,1651291000000,,,-1311985616708753272,0.0,6.583184897533428,,,0,3,0.0,16431,176067926014748,6,44.47807693481445,-169.62894847455993,0.03108190644695022,1,-3245.588591221244,5.719269393011928E-4,1.57542003E9,,,,0,,1,,1.57542003E9
Raw,2065397135,1651291000000,,,-1311985616708753272,0.0,6.583184897533428,,,0,6,0.0,16431,176067924667858,27,30.60948371887207,-638.3284877630635,0.13832427386624374,1,-626667.5825248068,0.0025253132916986942,1.57542003E9,,,,0,,1,,1.57542003E9
Raw,2065397135,1651291000000,,,-1311985616708753272,0.0,6.583184897533428,,,0,14,0.0,16431,176067932467834,7,41.468833923339844,-62.712180115134174,0.04162363687637463,1,-245619.21228578212,8.087285095825791E-4,1.57542003E9,,,,0,,1,,1.57542003E9
Raw,2065397136,1651291000000,,,-1311985616708753272,0.0,6.583184897533428,,,0,17,0.0,16431,176067929521307,6,43.298763275146484,-186.1418816186333,0.03361261621334738,1,-93846.23828434691,6.550979451276362E-4,1.57542003E9,,,,0,,1,,1.57542003E9
Raw,2065397136,1651291000000,,,-1311985616708753272,0.0,6.583184897533428,,,0,19,0.0,16431,176067927722634,64,22.138595581054688,-436.4350580378482,4.201389148791023,4,-654088.5786723914,3.4028234663852886E38,1.57542003E9,,,,0,,1,,1.57542003E9
Raw,2065397136,1651291000000,,,-1311985616708753272,0.0,6.583184897533428,,,0,21,0.0,16431,176067915584815,10,39.066551208496094,473.66537024510535,0.05473122876594147,1,527137.3139065938,0.0010116684716194868,1.57542003E9,,,,0,,1,,1.57542003E9
Raw,2065397144,1651291000000,,,-1311985616708753272,0.0,6.583184897533428,,,0,22,0.0,16431,176067922663037,6,44.169246673583984,159.36574946553083,0.03047901683104541,1,3638.835880225051,5.92628086451441E-4,1.57542003E9,,,,0,,1,,1.57542003E9
Raw,2065397145,1651291000000,,,-1311985616708753272,0.0,6.583184897533428,,,0,24,0.0,16,1651016638005,1000000000,25.759662628173828,-383.1860935122397,2.99792458E8,2,-524294.1268801796,3.4028234663852886E38,1.57542003E9,,,,0,,1,,1.57542003E9
Raw,2065397145,1651291000000,,,-1311985616708753272,0.0,6.583184897533428,,,0,30,0.0,16431,176067921099996,23,32.093894958496094,488.7714307076019,0.1160845806475006,1,135960.28893566545,0.0021286034025251865,1.57542003E9,,,,0,,1,,1.57542003E9
Raw,2065397146,1651291000000,,,-1311985616708753272,0.0,6.583184897533428,,,0,10,0.0,99,1921910242,33,36.54536437988281,-846.1930275412492,0.06975971988724752,1,-552246.5733981788,0.0013332146918401122,1.59806246E9,,,,0,,3,,1.59806246E9
Raw,2065397146,1651291000000,,,-1311985616708753272,0.0,6.583184897533428,,,0,2,0.0,16,1651010001146,1000000000,15.495813369750977,3.470349213449431,2.99792458E8,2,0.03427360619103959,3.4028234663852886E38,1.59975002E9,,,,0,,3,,1.59975002E9
Raw,2065397146,1651291000000,,,-1311985616708753272,0.0,6.583184897533428,,,0,18,0.0,99,1927920239,69,28.710874557495117,379.3288455777272,0.17249895105937696,1,1519.8586893224256,0.003093408653512597,1.60031245E9,,,,0,,3,,1.60031245E9
Raw,2065397147,1651291000000,,,-1311985616708753272,0.0,6.583184897533428,,,0,9,0.0,32995,14049933163232,33,38.674644470214844,-363.479957975316,0.05669229720150487,1,-606147.1843569046,0.001041531446389854,1.59862502E9,,,,0,,3,,1.59862502E9
Raw,2065397147,1651291000000,,,-1311985616708753272,0.0,6.583184897533428,,,0,16,0.0,17,533547,97,25.73177146911621,398.01663139620587,0.24332262855026643,4,800.9894473772184,3.4028234663852886E38,1.60143744E9,,,,0,,3,,1.60143744E9
Raw,2065397147,1651291000000,,,-1311985616708753272,0.0,6.583184897533428,,,0,3,0.0,32995,14049922489223,33,43.13279342651367,-495.35237815513483,0.03296312948891529,1,-763108.58286673,6.555064464919269E-4,1.60481254E9,,,,0,,3,,1.60481254E9
Raw,2065397148,1651291000000,,,-1311985616708753272,0.0,6.583184897533428,,,0,193,0.0,1,360663,9,39.938392639160156,-180.4709868839442,0.04901223666224874,1,-26001.65420125074,9.150526602752507E-4,1.57542003E9,,,,0,,4,,1.57542003E9
Raw,2065397148,1651291000000,,,-1311985616708753272,0.0,6.583184897533428,,,0,194,0.0,35,15798794,10,39.38209915161133,-146.4800247156693,0.05291710348002762,1,-73831.6142958068,9.755750652402639E-4,1.57542003E9,,,,0,,4,,1.57542003E9
Raw,2065397148,1651291000000,,,-1311985616708753272,0.0,6.583184897533428,,,0,195,0.0,35,7907032,8,40.95006561279297,-122.6658454879099,0.043226972653044315,1,-5859.602598842471,8.585018804296851E-4,1.57542003E9,,,,0,,4,,1.57542003E9
Raw,2065397148,1651291000000,,,-1311985616708753272,0.0,6.583184897533428,,,0,7,0.0,16431,176053879745980,21,26.68689727783203,-96.87262581908288,0.2195169146857805,4,-170303.88657689706,3.4028234663852886E38,1.56109798E9,,,,0,,5,,1.56109798E9
Raw,2065397149,1651291000000,,,-1311985616708753272,0.0,6.583184897533428,,,0,8,0.0,16431,176053878085559,8,34.4976692199707,-201.50376499979006,0.09112403233637617,1,-349834.6793456491,0.0017276209546253085,1.56109798E9,,,,0,,5,,1.56109798E9
Raw,2065397149,1651291000000,,,-1311985616708753272,0.0,6.583184897533428,,,0,10,0.0,16431,176053880348716,6,37.03010559082031,-161.7582527072908,0.06930849761891483,1,-243306.16498549213,0.0012907038908451796,1.56109798E9,,,,0,,5,,1.56109798E9
Raw,2065397149,1651291000000,,,-1311985616708753272,0.0,6.583184897533428,,,0,30,0.0,16431,176053924499060,7,35.671234130859375,-313.6201870087923,0.07757488291803993,1,-156608.66423960798,0.001509281457401812,1.56109798E9,,,,0,,5,,1.56109798E9
Raw,2065397150,1651291000000,,,-1311985616708753272,0.0,6.583184897533428,,,0,32,0.0,16431,176053913329268,17,28.555479049682617,-649.8615820609043,0.1765600222021252,1,-315081.55336959846,0.003228357993066311,1.56109798E9,,,,0,,5,,1.56109798E9
Raw,2065397150,1651291000000,,,-1311985616708753272,0.0,6.583184897533428,,,0,33,0.0,16431,176053910806746,16,29.37518310546875,33.735335223739696,0.16042194575492552,1,3232.4538331956273,0.002937625627964735,1.56109798E9,,,,0,,5,,1.56109798E9
Raw,2065397150,1651291000000,,,-1311985616708753272,0.0,6.583184897533428,,,0,36,0.0,16431,176053920772718,13,30.569313049316406,-315.49574459124256,0.14185847316705646,1,-200145.21869207843,0.00256029493175447,1.56109798E9,,,,0,,5,,1.56109798E9
Fix,gps,34.486387,109.463880,357.205688,0.000000,2.000000,1627952049999
Fix,gps,34.486387,109.463880,357.199890,0.000000,2.000000,1627952050999
Raw,2065398165,1652291000000,,,-1311985616708753659,0.0,6.516824848253329,,,0,1,0.0,16431,176068925131298,26,31.043848037719727,502.1377862593481,0.1317013685848758,1,528808.8052580095,0.0024021328426897526,1.57542003E9,,,,0,,1,,1.57542003E9
Raw,2065398165,1652291000000,,,-1311985616708753659,0.0,6.516824848253329,,,0,2,0.0,16,1652014544551,1000000000,14.7860107421875,-691.7399915238293,2.99792458E8,2,-9.670202183769405,3.4028234663852886E38,1.57542003E9,,,,0,,1,,1.57542003E9
Raw,2065398165,1652291000000,,,-1311985616708753659,0.0,6.516824848253329,,,0,3,0.0,16431,176068926015337,6,43.33168411254883,-169.5161014610129,0.03286129816495871,1,-3415.178555273215,6.526197539642453E-4,1.57542003E9,,,,0,,1,,1.57542003E9
Raw,2065398166,1652291000000,,,-1311985616708753659,0.0,6.516824848253329,,,0,6,0.0,16431,176068924669994,30,29.74862289428711,-638.242531807713,0.1526489323050697,1,-627305.899120182,0.0027884207665920258,1.57542003E9,,,,0,,1,,1.57542003E9
Raw,2065398166,1652291000000,,,-1311985616708753659,0.0,6.516824848253329,,,0,14,0.0,16431,176068932468046,7,41.802093505859375,-62.643729761515175,0.04014133292864844,1,-245681.9169938892,7.782871834933758E-4,1.57542003E9,,,,0,,1,,1.57542003E9
Raw,2065398166,1652291000000,,,-1311985616708753659,0.0,6.516824848253329,,,0,17,0.0,16431,176068929521937,6,43.24803161621094,-186.13745089928534,0.03379959335199727,1,-94032.40798673722,6.589353433810174E-4,1.57542003E9,,,,0,,1,,1.57542003E9
Raw,2065398167,1652291000000,,,-1311985616708753659,0.0,6.516824848253329,,,0,19,0.0,16431,176068927724209,58,24.181011199951172,-436.3828096319987,0.2895786961686,4,-654524.9720942758,3.4028234663852886E38,1.57542003E9,,,,0,,1,,1.57542003E9
Raw,2065398167,1652291000000,,,-1311985616708753659,0.0,6.516824848253329,,,0,21,0.0,16431,176068915583224,10,39.13153839111328,473.56721277031966,0.054343894461764575,1,527610.9176962784,0.0010041273199021816,1.57542003E9,,,,0,,1,,1.57542003E9
Raw,2065398167,1652291000000,,,-1311985616708753659,0.0,6.516824848253329,,,0,22,0.0,16431,176068922662495,6,42.991966247558594,159.43140931802202,0.033525760451189365,1,3798.2181813129155,6.786503945477307E-4,1.57542003E9,,,,0,,1,,1.57542003E9
Raw,2065398168,1652291000000,,,-1311985616708753659,0.0,6.516824848253329,,,0,24,0.0,16,1652016639283,1000000000,22.79635238647461,-383.1860935122397,2.99792458E8,2,-524294.1238836122,3.4028234663852886E38,1.57542003E9,,,,0,,1,,1.57542003E9
Raw,2065398168,1652291000000,,,-1311985616708753659,0.0,6.516824848253329,,,0,30,0.0,16431,176068921098348,24,31.541418075561523,488.8594656928003,0.12369486201673713,1,136449.0624452661,0.0022683939896523952,1.57542003E9,,,,0,,1,,1.57542003E9
Raw,2065398169,1652291000000,,,-1311985616708753659,0.0,6.516824848253329,,,0,10,0.0,99,921913113,33,36.106353759765625,-846.1708057795963,0.07335888471035074,1,-553092.7649721842,0.001402331399731338,1.59806246E9,,,,0,,3,,1.59806246E9
Raw,2065398169,1652291000000,,,-1311985616708753659,0.0,6.516824848253329,,,0,2,0.0,16,1652010001134,1000000000,14.219793319702148,3.5616739545098763,2.99792458E8,2,0.0355658619739116,3.4028234663852886E38,1.59975002E9,,,,0,,3,,1.59975002E9
Raw,2065398169,1652291000000,,,-1311985616708753659,0.0,6.516824848253329,,,0,18,0.0,99,927918997,70,28.520946502685547,379.2962627492914,0.1762806392528552,1,1899.153402631279,0.0031617949716746807,1.60031245E9,,,,0,,3,,1.60031245E9
Raw,2065398170,1652291000000,,,-1311985616708753659,0.0,6.516824848253329,,,0,9,0.0,32995,14050933164433,33,37.28782653808594,-363.2867786117447,0.06609694169009234,1,-606510.6069437187,0.0012218371266499162,1.59862502E9,,,,0,,3,,1.59862502E9
Raw,2065398170,1652291000000,,,-1311985616708753659,0.0,6.516824848253329,,,0,16,0.0,17,532196,106,24.987152099609375,398.7179120216192,0.26490026838687153,4,1199.2609210444634,3.4028234663852886E38,1.60143744E9,,,,0,,3,,1.60143744E9
Raw,2065398171,1652291000000,,,-1311985616708753659,0.0,6.516824848253329,,,0,3,0.0,32995,14050922490877,33,42.41594696044922,-495.33445078300383,0.035760751237367217,1,-763603.9143823952,7.119001820683479E-4,1.60481254E9,,,,0,,3,,1.60481254E9
Raw,2065398171,1652291000000,,,-1311985616708753659,0.0,6.516824848253329,,,0,193,0.0,1,361245,10,39.08990478515625,-180.49799723073852,0.05383207098960971,1,-26182.16286246618,0.0010089520364999771,1.57542003E9,,,,0,,4,,1.57542003E9
Raw,2065398171,1652291000000,,,-1311985616708753659,0.0,6.516824848253329,,,0,194,0.0,35,15799279,10,38.93324279785156,-146.48755693856083,0.05557292648282053,1,-73978.11582666221,0.0010273146908730268,1.57542003E9,,,,0,,4,,1.57542003E9
Raw,2065398172,1652291000000,,,-1311985616708753659,0.0,6.516824848253329,,,0,195,0.0,35,7907445,7,42.079490661621094,-122.73352472595008,0.03812978151854307,1,-5982.326940509615,7.538239005953074E-4,1.57542003E9,,,,0,,4,,1.57542003E9
Raw,2065398172,1652291000000,,,-1311985616708753659,0.0,6.516824848253329,,,0,7,0.0,16431,176054879746354,26,25.07940101623535,-96.67079803216893,0.2634231899720302,4,-170400.51667334256,3.4028234663852886E38,1.56109798E9,,,,0,,5,,1.56109798E9
Raw,2065398173,1652291000000,,,-1311985616708753659,0.0,6.516824848253329,,,0,8,0.0,16431,176054878086247,10,33.2666015625,-201.46845557483243,0.10450402592984614,1,-350036.2005661702,0.0019906817469745874,1.56109798E9,,,,0,,5,,1.56109798E9
Raw,2065398173,1652291000000,,,-1311985616708753659,0.0,6.516824848253329,,,0,10,0.0,16431,176054880349256,6,36.849578857421875,-161.7145930804851,0.0706872977393248,1,-243467.9011189575,0.0013178102672100067,1.56109798E9,,,,0,,5,,1.56109798E9
Raw,2065398173,1652291000000,,,-1311985616708753659,0.0,6.516824848253329,,,0,30,0.0,16431,176054924500118,7,35.644283294677734,-313.5981015769655,0.07781364317376882,1,-156922.30161275106,0.0015139715978875756,1.56109798E9,,,,0,,5,,1.56109798E9
Raw,2065398174,1652291000000,,,-1311985616708753659,0.0,6.516824848253329,,,0,32,0.0,16431,176054913331453,21,26.865398406982422,-649.8459722958169,0.21397014466311337,1,-315731.4178519448,0.003921802155673504,1.56109798E9,,,,0,,5,,1.56109798E9
