# 
# Header Description:
# 
# Version: v2.0.0.1 Platform: 10 Manufacturer: HUAWEI Model: BLA-AL00
# 
# Raw,ElapsedRealtimeMillis,TimeNanos,LeapSecond,TimeUncertaintyNanos,FullBiasNanos,BiasNanos,BiasUncertaintyNanos,DriftNanosPerSecond,DriftUncertaintyNanosPerSecond,HardwareClockDiscontinuityCount,Svid,TimeOffsetNanos,State,ReceivedSvTimeNanos,ReceivedSvTimeUncertaintyNanos,Cn0DbHz,PseudorangeRateMetersPerSecond,PseudorangeRateUncertaintyMetersPerSecond,AccumulatedDeltaRangeState,AccumulatedDeltaRangeMeters,AccumulatedDeltaRangeUncertaintyMeters,CarrierFrequencyHz,CarrierCycles,CarrierPhase,CarrierPhaseUncertainty,MultipathIndicator,SnrInDb,ConstellationType,AgcDb,CarrierFrequencyHz
# 
# Fix,Provider,Latitude,Longitude,Altitude,Speed,Accuracy,(UTC)TimeInMs
# 
# Nav,Svid,Type,Status,MessageId,Sub-messageId,Data(Bytes)
# 
Fix,gps,34.486728,109.464196,358.055450,0.685386,4.000000,1627950554000
Fix,gps,34.486730,109.464195,358.085663,0.596801,4.000000,1627950555000
Raw,2063902209,156292000000,,,-1311985616708177170,0.0,9.383136404514687,,,0,1,0.0,16431,174572928468590,51,25.30669403076172,427.5123390850895,0.2546824710708341,4,64720.04573082211,3.4028234663852886E38,1.57542003E9,,,,0,,1,,1.57542003E9
Raw,2063902209,156292000000,,,-1311985616708177170,0.0,9.383136404514687,,,0,3,0.0,16431,174572925717992,39,27.46783447265625,-347.54047920346716,0.19842373500143884,4,-55112.15877975685,3.4028234663852886E38,1.57542003E9,,,,0,,1,,1.57542003E9
Raw,2063902209,156292000000,,,-1311985616708177170,0.0,9.383136404514687,,,0,6,0.0,16396,174572922254854,1000000000,12.570716857910156,-727.8793924627043,2.99792458E8,4,-110811.40520888535,3.4028234663852886E38,1.57542003E9,,,,0,,1,,1.57542003E9
Raw,2063902210,156292000000,,,-1311985616708177170,0.0,9.383136404514687,,,0,7,0.0,16431,174572918612483,36,28.26712417602539,561.8837190596173,0.1833892445024099,1,85995.18558158349,0.0033069930505007505,1.57542003E9,,,,0,,1,,1.57542003E9
Raw,2063902210,156292000000,,,-1311985616708177170,0.0,9.383136404514687,,,0,14,0.0,16431,174572932764756,8,41.14307403564453,-217.5033822661734,0.043182077171069505,4,-34868.926941999205,3.4028234663852886E38,1.57542003E9,,,,0,,1,,1.57542003E9
Raw,2063902210,156292000000,,,-1311985616708177170,0.0,9.383136404514687,,,0,17,0.0,16431,174572929500191,12,37.37765884399414,-224.9275126468524,0.06478214186615336,1,-35208.06207905923,0.0012288045836612582,1.57542003E9,,,,0,,1,,1.57542003E9
Raw,2063902211,156292000000,,,-1311985616708177170,0.0,9.383136404514687,,,0,19,0.0,16431,174572926429433,9,39.947872161865234,-484.23461267248103,0.048073974758859134,1,-75252.06175063168,9.140545153059065E-4,1.57542003E9,,,,0,,1,,1.57542003E9
Raw,2063902211,156292000000,,,-1311985616708177170,0.0,9.383136404514687,,,0,21,0.0,16431,174572918986384,14,36.17365646362305,484.41780587629114,0.07586639993388722,1,73990.26692964214,0.0014115066733211279,1.57542003E9,,,,0,,1,,1.57542003E9
Raw,2063902211,156292000000,,,-1311985616708177170,0.0,9.383136404514687,,,0,22,0.0,16431,174572924047629,32,29.18918800354004,-8.217996531774947,0.16263630691943975,4,-2805.3505511499525,3.4028234663852886E38,1.57542003E9,,,,0,,1,,1.57542003E9
Raw,2063902212,156292000000,,,-1311985616708177170,0.0,9.383136404514687,,,0,24,0.0,16431,174572915369456,20,33.39424133300781,-523.9841296536217,0.10253832690662285,1,-81440.89093600254,0.0019438093295320868,1.57542003E9,,,,0,,1,,1.57542003E9
Raw,2063902212,156292000000,,,-1311985616708177170,0.0,9.383136404514687,,,0,30,0.0,16431,174572924432816,101,14.81712532043457,438.28416763403675,4.200797498647322,4,61474.516801915524,3.4028234663852886E38,1.57542003E9,,,,0,,1,,1.57542003E9
Raw,2063902213,156292000000,,,-1311985616708177170,0.0,9.383136404514687,,,0,2,0.0,32995,12554920498235,33,36.04121017456055,-204.9291030040173,0.07725156555215851,4,-32247.210909413956,3.4028234663852886E38,1.59975002E9,,,,0,,3,,1.59975002E9
Raw,2063902213,156292000000,,,-1311985616708177170,0.0,9.383136404514687,,,0,18,0.0,32995,12554930755920,97,25.782751083374023,350.6330190609774,0.24159214507415905,4,50661.24396986106,3.4028234663852886E38,1.60031245E9,,,,0,,3,,1.60031245E9
Raw,2063902213,156292000000,,,-1311985616708177170,0.0,9.383136404514687,,,0,9,0.0,32995,12554931796713,33,39.426673889160156,-579.0498936066351,0.05194089821683723,1,-89161.8862551854,9.551484836265445E-4,1.59862502E9,,,,0,,3,,1.59862502E9
Raw,2063902214,156292000000,,,-1311985616708177170,0.0,9.383136404514687,,,0,19,0.0,32995,12554933854822,78,27.627779006958008,-125.09193699057312,0.19628574316943592,1,-19647.246874775632,0.0034968508407473564,1.60368755E9,,,,0,,3,,1.60368755E9
Raw,2063902214,156292000000,,,-1311985616708177170,0.0,9.383136404514687,,,0,3,0.0,32995,12554920691351,76,27.807544708251953,-616.983531386697,0.19354584982985634,4,-89673.01901695871,3.4028234663852886E38,1.60481254E9,,,,0,,3,,1.60481254E9
Raw,2063902216,156292000000,,,-1311985616708177170,0.0,9.383136404514687,,,0,193,0.0,35,11465267,48,25.745525360107422,-178.78652963521733,0.24274905142794456,4,-27168.284315549536,3.4028234663852886E38,1.57542003E9,,,,0,,4,,1.57542003E9
Raw,2063902217,156292000000,,,-1311985616708177170,0.0,9.383136404514687,,,0,194,0.0,35,15994453,7,41.43891906738281,-176.89786734823406,0.04239387043850609,4,-27334.252575828814,3.4028234663852886E38,1.57542003E9,,,,0,,4,,1.57542003E9
Raw,2063902217,156292000000,,,-1311985616708177170,0.0,9.383136404514687,,,0,195,0.0,35,8355496,28,30.270706176757812,-99.81483648148514,0.1444558792054894,4,-15211.430175908894,3.4028234663852886E38,1.57542003E9,,,,0,,4,,1.57542003E9
Raw,2063902217,156292000000,,,-1311985616708177170,0.0,9.383136404514687,,,0,3,0.0,16905,174558876228366,31,30.368913650512695,-126.21346282552685,0.31645946971757244,4,-7475.010375455492,3.4028234663852886E38,1.56109798E9,,,,0,,5,,1.56109798E9
Raw,2063902217,156292000000,,,-1311985616708177170,0.0,9.383136404514687,,,0,4,0.0,16905,174558869622479,62,22.347087860107422,-119.03311573574138,4.200291853452503,4,-6259.105046207842,3.4028234663852886E38,1.56109798E9,,,,0,,5,,1.56109798E9
Raw,2063902218,156292000000,,,-1311985616708177170,0.0,9.383136404514687,,,0,7,0.0,16431,174558880201667,14,30.244678497314453,-121.68104142729743,0.14701574128790895,4,-7117.023876810957,3.4028234663852886E38,1.56109798E9,,,,0,,5,,1.56109798E9
Raw,2063902218,156292000000,,,-1311985616708177170,0.0,9.383136404514687,,,0,8,0.0,16431,174558877965431,66,21.715961456298828,-248.9562238971946,4.203231465327596,4,-14026.223383770173,3.4028234663852886E38,1.56109798E9,,,,0,,5,,1.56109798E9
Raw,2063902221,156292000000,,,-1311985616708177170,0.0,9.383136404514687,,,0,28,0.0,51,15556284,31,23.583660125732422,346.42898213134526,0.3115043997640794,4,5192.328917142161,3.4028234663852886E38,1.56109798E9,,,,0,,5,,1.56109798E9
Raw,2063902221,156292000000,,,-1311985616708177170,0.0,9.383136404514687,,,0,33,0.0,16,156003622665,1000000000,19.238330841064453,-124.40399964688845,2.99792458E8,2,-0.37072165979465116,3.4028234663852886E38,1.56109798E9,,,,0,,5,,1.56109798E9
Raw,2063902221,156292000000,,,-1311985616708177170,0.0,9.383136404514687,,,0,37,0.0,16,156003661461,1000000000,23.34960174560547,542.206553610738,2.99792458E8,2,1.6157657548883435,3.4028234663852886E38,1.56109798E9,,,,0,,5,,1.56109798E9
Fix,gps,34.486730,109.464194,358.059326,0.418885,3.000000,1627950556000
Raw,2063903162,157292000000,,,-1311985616708177558,0.0,9.238246154842845,,,0,1,0.0,16431,174573928467036,67,21.454822540283203,427.3705901484111,4.20152308219439,4,65148.676502775634,3.4028234663852886E38,1.57542003E9,,,,0,,1,,1.57542003E9
Raw,2063903163,157292000000,,,-1311985616708177558,0.0,9.238246154842845,,,0,3,0.0,16431,174573925719190,43,26.753013610839844,-347.2750450320675,0.21535619229808178,4,-55459.7333550781,3.4028234663852886E38,1.57542003E9,,,,0,,1,,1.57542003E9
Raw,2063903163,157292000000,,,-1311985616708177558,0.0,9.238246154842845,,,0,6,0.0,16431,174573922257272,110,13.224872589111328,-727.551587395868,4.200406082935693,4,-111539.2734738572,3.4028234663852886E38,1.57542003E9,,,,0,,1,,1.57542003E9
Raw,2063903163,157292000000,,,-1311985616708177558,0.0,9.238246154842845,,,0,7,0.0,16431,174573918610580,38,27.7667293548584,561.9358993005537,0.19406569050095157,1,86557.04772896651,0.003503104206174612,1.57542003E9,,,,0,,1,,1.57542003E9
Raw,2063903164,157292000000,,,-1311985616708177558,0.0,9.238246154842845,,,0,14,0.0,16431,174573932765484,7,42.46112823486328,-217.25688089937216,0.037425695048239754,4,-35086.28852223165,3.4028234663852886E38,1.57542003E9,,,,0,,1,,1.57542003E9
Raw,2063903164,157292000000,,,-1311985616708177558,0.0,9.238246154842845,,,0,17,0.0,16431,174573929500944,11,37.9947509765625,-224.7359181175094,0.06045666957661788,1,-35432.92552475951,0.0011445324635133147,1.57542003E9,,,,0,,1,,1.57542003E9
Raw,2063903164,157292000000,,,-1311985616708177558,0.0,9.238246154842845,,,0,19,0.0,16431,174573926431029,8,41.38707733154297,-484.08972814980257,0.04091019770071691,1,-75736.24270469448,8.16376821603626E-4,1.57542003E9,,,,0,,1,,1.57542003E9
Raw,2063903165,157292000000,,,-1311985616708177558,0.0,9.238246154842845,,,0,21,0.0,16431,174573918984806,23,32.221466064453125,484.5187240300552,0.11761198393955141,1,74474.76124604719,0.0022248076274991035,1.57542003E9,,,,0,,1,,1.57542003E9
Raw,2063903165,157292000000,,,-1311985616708177558,0.0,9.238246154842845,,,0,22,0.0,16431,174573924047652,35,28.545812606811523,-7.9719952185155165,0.17508440826783755,4,-2813.407361108374,3.4028234663852886E38,1.57542003E9,,,,0,,1,,1.57542003E9
Raw,2063903165,157292000000,,,-1311985616708177558,0.0,9.238246154842845,,,0,24,0.0,16431,174573915371228,21,32.81668472290039,-523.6749676905033,0.10939852796316596,1,-81964.65896612397,0.0020774544682353735,1.57542003E9,,,,0,,1,,1.57542003E9
Raw,2063903166,157292000000,,,-1311985616708177558,0.0,9.238246154842845,,,0,30,0.0,16431,174573924431357,96,15.940342903137207,438.52410812795733,4.200797232378131,4,61912.300290633255,3.4028234663852886E38,1.57542003E9,,,,0,,1,,1.57542003E9
Raw,2063903166,157292000000,,,-1311985616708177558,0.0,9.238246154842845,,,0,2,0.0,32995,12555920498924,33,36.586997985839844,-204.6923492197816,0.07277141998550529,4,-32452.031340097827,3.4028234663852886E38,1.59975002E9,,,,0,,3,,1.59975002E9
Raw,2063903166,157292000000,,,-1311985616708177558,0.0,9.238246154842845,,,0,18,0.0,32995,12555930754615,101,25.40005874633789,350.483771983864,0.25238704757930686,4,51011.78662615578,3.4028234663852886E38,1.60031245E9,,,,0,,3,,1.60031245E9
Raw,2063903166,157292000000,,,-1311985616708177558,0.0,9.238246154842845,,,0,9,0.0,32995,12555931798652,33,37.975990295410156,-578.777779273757,0.060997008815008996,1,-89740.77621877822,0.0011287691304460168,1.59862502E9,,,,0,,3,,1.59862502E9
Raw,2063903167,157292000000,,,-1311985616708177558,0.0,9.238246154842845,,,0,19,0.0,32995,12555933855321,69,28.70930290222168,-124.86182928535936,0.17359742796743416,1,-19772.2144092613,0.003087457036599517,1.60368755E9,,,,0,,3,,1.60368755E9
Raw,2063903167,157292000000,,,-1311985616708177558,0.0,9.238246154842845,,,0,3,0.0,32995,12555920693420,64,29.3480167388916,-617.6705655452838,0.1626967666677539,4,-90290.34822747999,3.4028234663852886E38,1.60481254E9,,,,0,,3,,1.60481254E9
Raw,2063903167,157292000000,,,-1311985616708177558,0.0,9.238246154842845,,,0,193,0.0,35,11465880,41,27.05288314819336,-178.69155887011652,0.20911670633168322,4,-27347.07856685725,3.4028234663852886E38,1.57542003E9,,,,0,,4,,1.57542003E9
Raw,2063903168,157292000000,,,-1311985616708177558,0.0,9.238246154842845,,,0,194,0.0,35,15995049,8,41.0941047668457,-176.73343653673976,0.043994281414524467,1,-27511.099883346644,8.44382680952549E-4,1.57542003E9,,,,0,,4,,1.57542003E9
Raw,2063903168,157292000000,,,-1311985616708177558,0.0,9.238246154842845,,,0,195,0.0,35,8355807,28,30.320436477661133,-99.68390872475277,0.14363983070058095,4,-15311.198052142856,3.4028234663852886E38,1.57542003E9,,,,0,,4,,1.57542003E9
Raw,2063903168,157292000000,,,-1311985616708177558,0.0,9.238246154842845,,,0,3,0.0,16905,174559876228795,32,30.329639434814453,-126.3566517459933,0.31789189811734997,4,-7601.641796789612,3.4028234663852886E38,1.56109798E9,,,,0,,5,,1.56109798E9
Raw,2063903168,157292000000,,,-1311985616708177558,0.0,9.238246154842845,,,0,4,0.0,512,69622837,1000000000,19.482318878173828,-118.99686052261524,2.99792458E8,4,-6378.786141468814,3.4028234663852886E38,1.56109798E9,,,,0,,5,,1.56109798E9
Raw,2063903169,157292000000,,,-1311985616708177558,0.0,9.238246154842845,,,0,7,0.0,16431,174559880202072,16,29.0083065032959,-121.54170382441805,0.16894918333176878,4,-7238.706632916256,3.4028234663852886E38,1.56109798E9,,,,0,,5,,1.56109798E9
Raw,2063903169,157292000000,,,-1311985616708177558,0.0,9.238246154842845,,,0,8,0.0,16431,174559877966179,81,18.813684463500977,-249.10315336726444,4.203231731596787,4,-14275.34977211332,3.4028234663852886E38,1.56109798E9,,,,0,,5,,1.56109798E9
Raw,2063903169,157292000000,,,-1311985616708177558,0.0,9.238246154842845,,,0,28,0.0,51,15555148,25,25.333925247192383,345.39154623724744,0.25516473450226695,4,5538.384653852439,3.4028234663852886E38,1.56109798E9,,,,0,,5,,1.56109798E9
Raw,2063903170,157292000000,,,-1311985616708177558,0.0,9.238246154842845,,,0,33,0.0,16,157003623080,1000000000,17.872976303100586,-124.40399964688845,2.99792458E8,2,-0.3697488035499767,3.4028234663852886E38,1.56109798E9,,,,0,,5,,1.56109798E9
Fix,gps,34.486731,109.464194,358.083740,0.294242,3.000000,1627950557000
Raw,2063904182,158292000000,,,-1311985616708177947,0.0,9.12516705621758,,,0,1,0.0,16431,174574928465665,85,17.92642593383789,427.33834814454053,4.201522815925198,4,65575.66032099153,3.4028234663852886E38,1.57542003E9,,,,0,,1,,1.57542003E9
Raw,2063904182,158292000000,,,-1311985616708177947,0.0,9.12516705621758,,,0,3,0.0,16431,174574925720412,34,28.855867385864258,-347.2500966738928,0.16927118599351676,4,-55807.13102364441,3.4028234663852886E38,1.57542003E9,,,,0,,1,,1.57542003E9
Raw,2063904183,158292000000,,,-1311985616708177947,0.0,9.12516705621758,,,0,6,0.0,16431,174574922259718,111,12.943624496459961,-727.7805533387882,4.200406615474076,4,-112266.74178228414,3.4028234663852886E38,1.57542003E9,,,,0,,1,,1.57542003E9
Raw,2063904183,158292000000,,,-1311985616708177947,0.0,9.12516705621758,,,0,7,0.0,16431,174574918608717,38,27.886489868164062,561.9358652180972,0.19145380607522622,1,87118.97478390146,0.0034551341086626053,1.57542003E9,,,,0,,1,,1.57542003E9
Raw,2063904184,158292000000,,,-1311985616708177947,0.0,9.12516705621758,,,0,14,0.0,16431,174574932766208,7,42.1795539855957,-217.14348856652077,0.03858329619819706,1,-35303.51158412666,7.451894343830645E-4,1.57542003E9,,,,0,,1,,1.57542003E9
Raw,2063904185,158292000000,,,-1311985616708177947,0.0,9.12516705621758,,,0,17,0.0,16431,174574929501717,13,36.8263053894043,-224.74045108422695,0.0689159169795725,1,-35657.726628789766,0.0013093340676277876,1.57542003E9,,,,0,,1,,1.57542003E9
Raw,2063904185,158292000000,,,-1311985616708177947,0.0,9.12516705621758,,,0,19,0.0,16431,174574926432648,6,43.44672393798828,-484.03683217727917,0.032518245675479146,1,-76220.33065941499,6.44033367279917E-4,1.57542003E9,,,,0,,1,,1.57542003E9
Raw,2063904186,158292000000,,,-1311985616708177947,0.0,9.12516705621758,,,0,21,0.0,16431,174574918983165,27,30.665870666503906,484.51480454755506,0.1400096330352898,1,74959.24109161948,0.002508973004296422,1.57542003E9,,,,0,,1,,1.57542003E9
Raw,2063904186,158292000000,,,-1311985616708177947,0.0,9.12516705621758,,,0,22,0.0,16431,174574924047692,42,26.93310546875,-7.60441645745539,0.2106573897996643,4,-2821.290659578608,3.4028234663852886E38,1.57542003E9,,,,0,,1,,1.57542003E9
Raw,2063904187,158292000000,,,-1311985616708177947,0.0,9.12516705621758,,,0,24,0.0,16431,174574915372937,22,32.61651611328125,-523.5252775414551,0.11188478325593687,1,-82488.34315227078,0.0021258860360831022,1.57542003E9,,,,0,,1,,1.57542003E9
Raw,2063904188,158292000000,,,-1311985616708177947,0.0,9.12516705621758,,,0,30,0.0,16431,174574924429989,92,16.662506103515625,438.3111609396028,4.200796966108939,4,62350.316646869265,3.4028234663852886E38,1.57542003E9,,,,0,,1,,1.57542003E9
Raw,2063904188,158292000000,,,-1311985616708177947,0.0,9.12516705621758,,,0,2,0.0,32995,12556920499659,33,36.67759704589844,-204.4911775201557,0.0720547065308823,4,-32656.667546765544,3.4028234663852886E38,1.59975002E9,,,,0,,3,,1.59975002E9
Raw,2063904189,158292000000,,,-1311985616708177947,0.0,9.12516705621758,,,0,18,0.0,32995,12556930753584,86,26.79942512512207,350.5847242200846,0.21511952891223662,4,51362.376993157195,3.4028234663852886E38,1.60031245E9,,,,0,,3,,1.60031245E9
Raw,2063904191,158292000000,,,-1311985616708177947,0.0,9.12516705621758,,,0,9,0.0,32995,12556931800619,33,35.37429428100586,-578.6445168687528,0.08155796215039063,1,-90319.51801199817,0.001435865298844874,1.59862502E9,,,,0,,3,,1.59862502E9
Raw,2063904191,158292000000,,,-1311985616708177947,0.0,9.12516705621758,,,0,19,0.0,32995,12556933855709,69,28.653532028198242,-124.77325750147071,0.17469968256964696,1,-19897.06225940576,0.003107344964519143,1.60368755E9,,,,0,,3,,1.60368755E9
Raw,2063904192,158292000000,,,-1311985616708177947,0.0,9.12516705621758,,,0,3,0.0,32995,12556920695492,50,31.411806106567383,-617.1714620519638,0.12907655346153413,4,-90907.55640594155,3.4028234663852886E38,1.60481254E9,,,,0,,3,,1.60481254E9
Raw,2063904192,158292000000,,,-1311985616708177947,0.0,9.12516705621758,,,0,193,0.0,35,11466445,38,27.685916900634766,-178.6906386437904,0.19456334762002292,4,-27525.80393914076,3.4028234663852886E38,1.57542003E9,,,,0,,4,,1.57542003E9
Raw,2063904193,158292000000,,,-1311985616708177947,0.0,9.12516705621758,,,0,194,0.0,35,15995634,8,40.834014892578125,-176.73376032007673,0.04524422388803204,1,-27687.86076089636,8.700488833710551E-4,1.57542003E9,,,,0,,4,,1.57542003E9
Raw,2063904193,158292000000,,,-1311985616708177947,0.0,9.12516705621758,,,0,195,0.0,35,8356110,26,30.870832443237305,-99.68210235455706,0.1349125667144721,4,-15410.926214648813,3.4028234663852886E38,1.57542003E9,,,,0,,4,,1.57542003E9
Raw,2063904193,158292000000,,,-1311985616708177947,0.0,9.12516705621758,,,0,3,0.0,16905,174560876229183,39,28.488868713378906,-126.33434477819912,0.39283795523235,4,-7728.192679350006,3.4028234663852886E38,1.56109798E9,,,,0,,5,,1.56109798E9
Raw,2063904194,158292000000,,,-1311985616708177947,0.0,9.12516705621758,,,0,4,0.0,512,469623268,1000000000,19.8476619720459,-119.0018195200393,2.99792458E8,4,-6498.510310404547,3.4028234663852886E38,1.56109798E9,,,,0,,5,,1.56109798E9
Raw,2063904194,158292000000,,,-1311985616708177947,0.0,9.12516705621758,,,0,7,0.0,16431,174560880202472,18,28.140522003173828,-121.54545289463556,0.1863186715809242,4,-7360.320087747531,3.4028234663852886E38,1.56109798E9,,,,0,,5,,1.56109798E9
Raw,2063904194,158292000000,,,-1311985616708177947,0.0,9.12516705621758,,,0,8,0.0,16431,174560877967025,86,17.886816024780273,-248.9788376070975,4.203231731596787,4,-14525.625564014656,3.4028234663852886E38,1.56109798E9,,,,0,,5,,1.56109798E9
Raw,2063904195,158292000000,,,-1311985616708177947,0.0,9.12516705621758,,,0,28,0.0,51,15553976,25,25.419336318969727,346.0394878182026,0.25269507110849665,4,5884.402098918626,3.4028234663852886E38,1.56109798E9,,,,0,,5,,1.56109798E9
Raw,2063904195,158292000000,,,-1311985616708177947,0.0,9.12516705621758,,,0,33,0.0,16,158003623495,1000000000,10.425054550170898,-124.40399964688845,2.99792458E8,2,-0.3707216597838087,3.4028234663852886E38,1.56109798E9,,,,0,,5,,1.56109798E9
Fix,gps,34.486731,109.464193,358.049988,0.302404,3.000000,1627950558000
Raw,2063905165,159292000000,,,-1311985616708178336,0.0,9.01151615215225,,,0,1,0.0,16431,174575928464435,83,18.332630157470703,427.22737566610226,4.201522549656007,4,66001.57360137893,3.4028234663852886E38,1.57542003E9,,,,0,,1,,1.57542003E9
Raw,2063905166,159292000000,,,-1311985616708178336,0.0,9.01151615215225,,,0,3,0.0,16431,174575925721535,27,30.799942016601562,-347.22773858241385,0.13553195877957097,4,-56154.39729346557,3.4028234663852886E38,1.57542003E9,,,,0,,1,,1.57542003E9
Raw,2063905166,159292000000,,,-1311985616708178336,0.0,9.01151615215225,,,0,6,0.0,16431,174575922262104,111,12.93170166015625,-727.8270418094853,4.200406881743268,4,-112994.26878111518,3.4028234663852886E38,1.57542003E9,,,,0,,1,,1.57542003E9
Raw,2063905166,159292000000,,,-1311985616708178336,0.0,9.01151615215225,,,0,7,0.0,16431,174575918606873,41,27.165456771850586,561.9257427285099,0.20773500221290253,1,87680.90310961098,0.003754193661734462,1.57542003E9,,,,0,,1,,1.57542003E9
Raw,2063905166,159292000000,,,-1311985616708178336,0.0,9.01151615215225,,,0,14,0.0,16431,174575932766931,7,41.540008544921875,-216.99453119028783,0.04135607794339344,1,-35520.56307189168,8.021288085728884E-4,1.57542003E9,,,,0,,1,,1.57542003E9
Raw,2063905167,159292000000,,,-1311985616708178336,0.0,9.01151615215225,,,0,17,0.0,16431,174575929502473,21,32.99451446533203,-224.98606630715858,0.10618189627787888,1,-35882.461442742926,0.0019189505837857723,1.57542003E9,,,,0,,1,,1.57542003E9
Raw,2063905167,159292000000,,,-1311985616708178336,0.0,9.01151615215225,,,0,19,0.0,16431,174575926434279,6,42.82112121582031,-483.9853335854732,0.03486065527818073,1,-76704.3041135237,6.921311723999679E-4,1.57542003E9,,,,0,,1,,1.57542003E9
Raw,2063905167,159292000000,,,-1311985616708178336,0.0,9.01151615215225,,,0,21,0.0,16431,174575918981507,25,31.46754264831543,484.6303440751674,0.12796646055999406,1,75443.83648609766,0.0022877699229866266,1.57542003E9,,,,0,,1,,1.57542003E9
Raw,2063905168,159292000000,,,-1311985616708178336,0.0,9.01151615215225,,,0,22,0.0,16431,174575924047719,44,26.519412994384766,-7.459990982863214,0.2208978366388109,4,-2828.982227787759,3.4028234663852886E38,1.57542003E9,,,,0,,1,,1.57542003E9
Raw,2063905168,159292000000,,,-1311985616708178336,0.0,9.01151615215225,,,0,24,0.0,16431,174575915374701,14,36.07623291015625,-523.4604867916053,0.07603393318086726,1,-83011.81300621743,0.0014274275163188577,1.57542003E9,,,,0,,1,,1.57542003E9
Raw,2063905168,159292000000,,,-1311985616708178336,0.0,9.01151615215225,,,0,30,0.0,16431,174575924428475,94,16.3022518157959,438.11188081631394,4.2007966998397475,4,62788.293389458966,3.4028234663852886E38,1.57542003E9,,,,0,,1,,1.57542003E9
Raw,2063905169,159292000000,,,-1311985616708178336,0.0,9.01151615215225,,,0,2,0.0,32995,12557920500344,35,34.59392166137695,-204.45535685835023,0.09059000450991683,1,-32861.14396697763,0.0016673007048666477,1.59975002E9,,,,0,,3,,1.59975002E9
Raw,2063905169,159292000000,,,-1311985616708178336,0.0,9.01151615215225,,,0,18,0.0,32995,12557930752391,65,29.149494171142578,350.69852554241425,0.16458394956310873,4,51713.09352922055,3.4028234663852886E38,1.60031245E9,,,,0,,3,,1.60031245E9
Raw,2063905169,159292000000,,,-1311985616708178336,0.0,9.01151615215225,,,0,9,0.0,32995,12557931802442,33,37.93927764892578,-578.4513375051815,0.06124705638818739,1,-90897.99103046999,0.001133550307713449,1.59862502E9,,,,0,,3,,1.59862502E9
Raw,2063905170,159292000000,,,-1311985616708178336,0.0,9.01151615215225,,,0,19,0.0,32995,12557933856181,58,30.155929565429688,-124.61681902603101,0.1473468636694687,1,-20021.71699370837,0.0026137828826904297,1.60368755E9,,,,0,,3,,1.60368755E9
Raw,2063905170,159292000000,,,-1311985616708178336,0.0,9.01151615215225,,,0,3,0.0,32995,12557920697489,53,30.985797882080078,-617.0914364440482,0.1353783131351145,4,-91524.66787316711,3.4028234663852886E38,1.60481254E9,,,,0,,3,,1.60481254E9
Raw,2063905170,159292000000,,,-1311985616708178336,0.0,9.01151615215225,,,0,193,0.0,35,11467107,41,27.124980926513672,-178.6823395656271,0.20740539423736992,4,-27704.520091067905,3.4028234663852886E38,1.57542003E9,,,,0,,4,,1.57542003E9
Raw,2063905170,159292000000,,,-1311985616708178336,0.0,9.01151615215225,,,0,194,0.0,35,15996215,8,40.786964416503906,-176.6901518169558,0.04547444688780575,1,-27864.587066139335,8.747749961912632E-4,1.57542003E9,,,,0,,4,,1.57542003E9
Raw,2063905171,159292000000,,,-1311985616708178336,0.0,9.01151615215225,,,0,195,0.0,35,8356482,24,31.600971221923828,-99.7889593763702,0.12415657279494458,4,-15510.63902123707,3.4028234663852886E38,1.57542003E9,,,,0,,4,,1.57542003E9
Raw,2063905171,159292000000,,,-1311985616708178336,0.0,9.01151615215225,,,0,3,0.0,16905,174561876229645,46,27.034915924072266,-126.25252132070199,0.4643472426079205,4,-7854.676845170817,3.4028234663852886E38,1.56109798E9,,,,0,,5,,1.56109798E9
Raw,2063905171,159292000000,,,-1311985616708178336,0.0,9.01151615215225,,,0,4,0.0,512,269623650,1000000000,21.609119415283203,-119.17933799483836,2.99792458E8,4,-6618.004552118555,3.4028234663852886E38,1.56109798E9,,,,0,,5,,1.56109798E9
Raw,2063905172,159292000000,,,-1311985616708178336,0.0,9.01151615215225,,,0,7,0.0,16431,174561880202886,15,29.61026954650879,-121.57808684675615,0.15788037303760294,1,-7481.867886775015,0.002859184518456459,1.56109798E9,,,,0,,5,,1.56109798E9
Raw,2063905172,159292000000,,,-1311985616708178336,0.0,9.01151615215225,,,0,8,0.0,16431,174561877967928,77,19.589859008789062,-248.83320327037552,4.203231997865979,4,-14774.682102951925,3.4028234663852886E38,1.56109798E9,,,,0,,5,,1.56109798E9
Raw,2063905173,159292000000,,,-1311985616708178336,0.0,9.01151615215225,,,0,28,0.0,51,15552827,23,26.018590927124023,346.0257185057674,0.23603530674768514,4,6230.4299753356545,3.4028234663852886E38,1.56109798E9,,,,0,,5,,1.56109798E9
Fix,gps,34.486732,109.464193,358.057343,0.307990,3.000000,1627950559000
Raw,2063906167,160292000000,,,-1311985616708178724,0.0,8.914351377116807,,,0,1,0.0,16431,174576928463059,166,16.75040054321289,427.10740541914197,4.201522283386815,4,66427.6674953746,3.4028234663852886E38,1.57542003E9,,,,1,,1,,1.57542003E9
Raw,2063906168,160292000000,,,-1311985616708178724,0.0,8.914351377116807,,,0,3,0.0,16431,174576925722661,24,31.585155487060547,-347.02034683447255,0.12390636296397756,4,-56501.46596783122,3.4028234663852886E38,1.57542003E9,,,,0,,1,,1.57542003E9
Raw,2063906168,160292000000,,,-1311985616708178724,0.0,8.914351377116807,,,0,6,0.0,16431,174576922264552,166,12.071500778198242,-727.3806979588626,4.200407414281651,4,-113721.62900281885,3.4028234663852886E38,1.57542003E9,,,,1,,1,,1.57542003E9
Raw,2063906169,160292000000,,,-1311985616708178724,0.0,8.914351377116807,,,0,7,0.0,16431,174576918604973,47,25.99627685546875,561.9461240375106,0.237184291593021,1,88242.85663825358,0.0042951228097081184,1.57542003E9,,,,0,,1,,1.57542003E9
Raw,2063906169,160292000000,,,-1311985616708178724,0.0,8.914351377116807,,,0,14,0.0,16431,174576932767638,8,41.38512420654297,-216.86999389415348,0.04205894956051015,1,-35737.48402448946,8.165601175278425E-4,1.57542003E9,,,,0,,1,,1.57542003E9
Raw,2063906169,160292000000,,,-1311985616708178724,0.0,8.914351377116807,,,0,17,0.0,16431,174576929503127,26,30.984159469604492,-224.6695595746595,0.13338954022225796,1,-36107.044711547984,0.002418697578832507,1.57542003E9,,,,0,,1,,1.57542003E9
Raw,2063906170,160292000000,,,-1311985616708178724,0.0,8.914351377116807,,,0,19,0.0,16431,174576926435901,7,41.80018615722656,-483.9040810091228,0.03906462352700327,1,-77188.21553094494,7.784581393934786E-4,1.57542003E9,,,,0,,1,,1.57542003E9
Raw,2063906170,160292000000,,,-1311985616708178724,0.0,8.914351377116807,,,0,21,0.0,16431,174576918979941,25,31.304105758666992,484.6666418913642,0.1303319794162059,1,75928.52146547228,0.0023312245029956102,1.57542003E9,,,,0,,1,,1.57542003E9
Raw,2063906170,160292000000,,,-1311985616708178724,0.0,8.914351377116807,,,0,22,0.0,16431,174576924047725,40,27.257965087890625,-7.492708543509963,0.20295086043858224,4,-2836.523802719548,3.4028234663852886E38,1.57542003E9,,,,0,,1,,1.57542003E9
Raw,2063906171,160292000000,,,-1311985616708178724,0.0,8.914351377116807,,,0,24,0.0,16431,174576915376450,16,35.15117645263672,-523.2990722775132,0.0842680666241617,1,-83535.14478766544,0.0015878406120464206,1.57542003E9,,,,0,,1,,1.57542003E9
Raw,2063906171,160292000000,,,-1311985616708178724,0.0,8.914351377116807,,,0,30,0.0,16431,174576924427023,92,16.61917495727539,438.2152529069476,4.200796433570556,4,63226.432764222045,3.4028234663852886E38,1.57542003E9,,,,0,,1,,1.57542003E9
Raw,2063906171,160292000000,,,-1311985616708178724,0.0,8.914351377116807,,,0,2,0.0,32995,12558920501007,41,33.138938903808594,-204.22277817503857,0.10643753966453667,1,-33065.37142498245,0.001971347024664283,1.59975002E9,,,,0,,3,,1.59975002E9
Raw,2063906172,160292000000,,,-1311985616708178724,0.0,8.914351377116807,,,0,18,0.0,32995,12558930751243,78,27.641582489013672,350.7827432924821,0.1954197525492809,4,52063.88692817193,3.4028234663852886E38,1.60031245E9,,,,0,,3,,1.60031245E9
Raw,2063906172,160292000000,,,-1311985616708178724,0.0,8.914351377116807,,,0,9,0.0,32995,12558931804435,33,40.47587585449219,-578.3040331280899,0.04627373707546886,1,-91476.34142116415,8.464688435196877E-4,1.59862502E9,,,,0,,3,,1.59862502E9
Raw,2063906173,160292000000,,,-1311985616708178724,0.0,8.914351377116807,,,0,19,0.0,32995,12558933856565,55,30.58371925354004,-124.54389961030046,0.14038552192468468,1,-20146.259614234776,0.002488170051947236,1.60368755E9,,,,0,,3,,1.60368755E9
Raw,2063906173,160292000000,,,-1311985616708178724,0.0,8.914351377116807,,,0,3,0.0,32995,12558920699625,75,27.998210906982422,-616.8986660699552,0.18942586662847005,4,-92141.64307691368,3.4028234663852886E38,1.60481254E9,,,,0,,3,,1.60481254E9
Raw,2063906174,160292000000,,,-1311985616708178724,0.0,8.914351377116807,,,0,193,0.0,35,11467654,44,26.486480712890625,-178.5907600049503,0.22306887913421924,1,-27883.166138024564,0.004059433471411467,1.57542003E9,,,,0,,4,,1.57542003E9
Raw,2063906174,160292000000,,,-1311985616708178724,0.0,8.914351377116807,,,0,194,0.0,35,15996828,8,41.12577438354492,-176.60385503704003,0.04384494600260677,1,-28041.22842616565,8.413093746639788E-4,1.57542003E9,,,,0,,4,,1.57542003E9
Raw,2063906174,160292000000,,,-1311985616708178724,0.0,8.914351377116807,,,0,195,0.0,35,8356832,28,30.3759708404541,-99.6563871411106,0.14273411604540642,1,-15610.280116057676,0.0025941249914467335,1.57542003E9,,,,0,,4,,1.57542003E9
Raw,2063906175,160292000000,,,-1311985616708178724,0.0,8.914351377116807,,,0,3,0.0,16905,174562876230073,45,27.363502502441406,-126.27912267801804,0.4471240193540673,4,-7981.153466963953,3.4028234663852886E38,1.56109798E9,,,,0,,5,,1.56109798E9
Raw,2063906175,160292000000,,,-1311985616708178724,0.0,8.914351377116807,,,0,4,0.0,512,69624014,1000000000,21.118209838867188,-118.91409979756372,2.99792458E8,4,-6737.3563818026205,3.4028234663852886E38,1.56109798E9,,,,0,,5,,1.56109798E9
Raw,2063906175,160292000000,,,-1311985616708178724,0.0,8.914351377116807,,,0,7,0.0,16431,174562880203291,13,30.589553833007812,-121.48666917774784,0.14143455597222954,1,-7603.343680049706,0.0025543353985995054,1.56109798E9,,,,0,,5,,1.56109798E9
Raw,2063906175,160292000000,,,-1311985616708178724,0.0,8.914351377116807,,,0,8,0.0,16431,174562877968745,167,19.419456481933594,-248.85448776447402,4.2032322641351705,4,-15023.596493570125,3.4028234663852886E38,1.56109798E9,,,,1,,5,,1.56109798E9
Raw,2063906176,160292000000,,,-1311985616708178724,0.0,8.914351377116807,,,0,28,0.0,51,15551702,21,26.659379959106445,346.0178454583106,0.21944773462144196,4,6576.497312949878,3.4028234663852886E38,1.56109798E9,,,,0,,5,,1.56109798E9
Fix,gps,34.486732,109.464193,357.969177,0.291419,3.000000,1627950560000
Raw,2063907169,161292000000,,,-1311985616708179111,0.0,8.82018877946139,,,0,1,0.0,16431,174577928461631,166,17.83066177368164,427.328600561975,4.2015220171176235,4,66853.50819144066,3.4028234663852886E38,1.57542003E9,,,,1,,1,,1.57542003E9
Raw,2063907170,161292000000,,,-1311985616708179111,0.0,8.82018877946139,,,0,3,0.0,16431,174577925723812,20,33.074378967285156,-346.8777458363811,0.1045460548575553,4,-56848.3826700657,3.4028234663852886E38,1.57542003E9,,,,0,,1,,1.57542003E9
Raw,2063907170,161292000000,,,-1311985616708179111,0.0,8.82018877946139,,,0,6,0.0,16430,174577922267128,1000000000,11.272809982299805,-727.6186616703048,2.99792458E8,4,-114449.64309551803,3.4028234663852886E38,1.57542003E9,,,,1,,1,,1.57542003E9
Raw,2063907170,161292000000,,,-1311985616708179111,0.0,8.82018877946139,,,0,7,0.0,16431,174577918603147,50,25.419998168945312,562.0849078004715,0.25322454739596234,1,88804.91353398204,0.004589755553752184,1.57542003E9,,,,0,,1,,1.57542003E9
Raw,2063907170,161292000000,,,-1311985616708179111,0.0,8.82018877946139,,,0,14,0.0,16431,174577932768354,8,41.10835266113281,-216.65979034354905,0.043346473434136196,1,-35954.22961473864,8.429986773990095E-4,1.57542003E9,,,,0,,1,,1.57542003E9
Raw,2063907171,161292000000,,,-1311985616708179111,0.0,8.82018877946139,,,0,17,0.0,16431,174577929503929,30,29.804874420166016,-224.46025920915292,0.1525384638742111,1,-36331.55496555526,0.0027704210951924324,1.57542003E9,,,,0,,1,,1.57542003E9
Raw,2063907171,161292000000,,,-1311985616708179111,0.0,8.82018877946139,,,0,19,0.0,16431,174577926437497,6,43.34400939941406,-483.74587024594393,0.03289217082958609,1,-77672.01451194522,6.516943103633821E-4,1.57542003E9,,,,0,,1,,1.57542003E9
Raw,2063907172,161292000000,,,-1311985616708179111,0.0,8.82018877946139,,,0,21,0.0,16431,174577918978336,28,30.269113540649414,484.61459798025385,0.146392871081495,1,76413.19765099096,0.002626236528158188,1.57542003E9,,,,0,,1,,1.57542003E9
Raw,2063907172,161292000000,,,-1311985616708179111,0.0,8.82018877946139,,,0,22,0.0,16431,174577924047769,40,27.3768253326416,-7.2447661278438815,0.2002024797685209,4,-2843.862649675802,3.4028234663852886E38,1.57542003E9,,,,0,,1,,1.57542003E9
Raw,2063907172,161292000000,,,-1311985616708179111,0.0,8.82018877946139,,,0,24,0.0,16431,174577915378177,19,33.80238342285156,-523.0665617591146,0.09796006114287076,1,-84058.33604814291,0.0018545843195170164,1.57542003E9,,,,0,,1,,1.57542003E9
Raw,2063907173,161292000000,,,-1311985616708179111,0.0,8.82018877946139,,,0,30,0.0,16431,174577924425571,94,16.19744110107422,438.3234987888641,4.200796167301364,4,63664.19012711486,3.4028234663852886E38,1.57542003E9,,,,0,,1,,1.57542003E9
Raw,2063907173,161292000000,,,-1311985616708179111,0.0,8.82018877946139,,,0,2,0.0,32995,12559920501706,37,34.027183532714844,-204.02922390444553,0.09644954930266109,1,-33269.43438656964,0.0017797163454815745,1.59975002E9,,,,0,,3,,1.59975002E9
Raw,2063907173,161292000000,,,-1311985616708179111,0.0,8.82018877946139,,,0,18,0.0,32995,12559930750138,80,27.415895462036133,351.01051634942405,0.20051283315313706,4,52414.813673317265,3.4028234663852886E38,1.60031245E9,,,,0,,3,,1.60031245E9
Raw,2063907174,161292000000,,,-1311985616708179111,0.0,8.82018877946139,,,0,9,0.0,32995,12559931806368,33,38.17967224121094,-577.9343066397305,0.05963387697234132,1,-92054.46360266612,0.0011026078136637807,1.59862502E9,,,,0,,3,,1.59862502E9
Raw,2063907174,161292000000,,,-1311985616708179111,0.0,8.82018877946139,,,0,19,0.0,32995,12559933856949,64,29.345041275024414,-124.26308573039489,0.161521521023398,1,-20270.62208147607,0.0028695515356957912,1.60368755E9,,,,0,,3,,1.60368755E9
Raw,2063907174,161292000000,,,-1311985616708179111,0.0,8.82018877946139,,,0,3,0.0,32995,12559920701614,93,26.058378219604492,-617.0092295589152,0.2358955154221033,4,-92758.54884648697,3.4028234663852886E38,1.60481254E9,,,,0,,3,,1.60481254E9
Raw,2063907174,161292000000,,,-1311985616708179111,0.0,8.82018877946139,,,0,193,0.0,35,11468204,45,26.305566787719727,-178.63365277648427,0.2277204687766039,1,-28061.760730811995,0.004144872538745403,1.57542003E9,,,,0,,4,,1.57542003E9
Raw,2063907175,161292000000,,,-1311985616708179111,0.0,8.82018877946139,,,0,194,0.0,35,15997423,9,40.162471771240234,-176.532469331853,0.04865005647576434,1,-28217.76936923631,9.399848058819771E-4,1.57542003E9,,,,0,,4,,1.57542003E9
Raw,2063907175,161292000000,,,-1311985616708179111,0.0,8.82018877946139,,,0,195,0.0,35,8357191,27,30.560211181640625,-99.65458929152902,0.13977002404651273,1,-15709.882841338922,0.0025396791752427816,1.57542003E9,,,,0,,4,,1.57542003E9
Raw,2063907175,161292000000,,,-1311985616708179111,0.0,8.82018877946139,,,0,3,0.0,16905,174563876230487,44,27.428680419921875,-126.24113778022337,0.44378447115321507,4,-8107.5010077739,3.4028234663852886E38,1.56109798E9,,,,0,,5,,1.56109798E9
Raw,2063907176,161292000000,,,-1311985616708179111,0.0,8.82018877946139,,,0,4,0.0,16905,174563869624449,166,22.332080841064453,-118.88155105158444,4.200292119721695,4,-6856.640814184793,3.4028234663852886E38,1.56109798E9,,,,1,,5,,1.56109798E9
Raw,2063907176,161292000000,,,-1311985616708179111,0.0,8.82018877946139,,,0,7,0.0,16431,174563880203701,13,30.892658233642578,-121.34835404856415,0.13670884364363756,1,-7724.720322437061,0.002466736128553748,1.56109798E9,,,,0,,5,,1.56109798E9
Raw,2063907176,161292000000,,,-1311985616708179111,0.0,8.82018877946139,,,0,8,0.0,16431,174563877969606,167,22.87736701965332,-248.84378587312585,4.2032322641351705,4,-15272.383420329163,3.4028234663852886E38,1.56109798E9,,,,1,,5,,1.56109798E9
Raw,2063907177,161292000000,,,-1311985616708179111,0.0,8.82018877946139,,,0,28,0.0,51,15550568,22,26.47136116027832,346.2132401815559,0.22418837466658714,4,6922.67601590591,3.4028234663852886E38,1.56109798E9,,,,0,,5,,1.56109798E9
Fix,gps,34.486732,109.464193,357.949005,0.279673,3.000000,1627950561000
Raw,2063908149,162292000000,,,-1311985616708179497,0.0,8.784110162501916,,,0,1,0.0,16431,174578928460156,50,25.4381160736084,426.9812321650945,0.2508793315656088,4,67280.41953091892,3.4028234663852886E38,1.57542003E9,,,,0,,1,,1.57542003E9
Raw,2063908149,162292000000,,,-1311985616708179497,0.0,8.784110162501916,,,0,3,0.0,16431,174578925724957,19,33.640403747558594,-346.67713649728785,0.09801558659022835,1,-57195.13736081861,0.0018894941313192248,1.57542003E9,,,,0,,1,,1.57542003E9
Raw,2063908149,162292000000,,,-1311985616708179497,0.0,8.784110162501916,,,0,6,0.0,16396,174578922269526,1000000000,10.412614822387695,-727.8411519464858,2.99792458E8,4,-115176.2670277308,3.4028234663852886E38,1.57542003E9,,,,1,,1,,1.57542003E9
Raw,2063908149,162292000000,,,-1311985616708179497,0.0,8.784110162501916,,,0,7,0.0,16431,174578918601223,51,25.280467987060547,562.0803066688409,0.25727064089668394,1,89366.97830567777,0.004664080683141947,1.57542003E9,,,,0,,1,,1.57542003E9
Raw,2063908150,162292000000,,,-1311985616708179497,0.0,8.784110162501916,,,0,14,0.0,16431,174578932769096,9,40.38282012939453,-216.5542880993827,0.04692278071132433,1,-36170.854623540145,9.164389921352267E-4,1.57542003E9,,,,0,,1,,1.57542003E9
Raw,2063908150,162292000000,,,-1311985616708179497,0.0,8.784110162501916,,,0,17,0.0,16431,174578929504707,10,38.988258361816406,-224.45138072922873,0.05410775529339035,1,-36556.02003676981,0.0010208284948021173,1.57542003E9,,,,0,,1,,1.57542003E9
Raw,2063908150,162292000000,,,-1311985616708179497,0.0,8.784110162501916,,,0,19,0.0,16431,174578926439112,6,45.07977294921875,-483.8075254097937,0.03115823625512841,1,-78155.77913394255,5.336489994078875E-4,1.57542003E9,,,,0,,1,,1.57542003E9
Raw,2063908151,162292000000,,,-1311985616708179497,0.0,8.784110162501916,,,0,21,0.0,16431,174578918976700,25,31.37406349182129,484.8136736088036,0.12931330005650166,1,76897.94228362048,0.0023125242441892624,1.57542003E9,,,,0,,1,,1.57542003E9
Raw,2063908151,162292000000,,,-1311985616708179497,0.0,8.784110162501916,,,0,22,0.0,16431,174578924047761,36,28.31273651123047,-7.039736187631934,0.17982642958441408,4,-2851.0643204535254,3.4028234663852886E38,1.57542003E9,,,,0,,1,,1.57542003E9
Raw,2063908151,162292000000,,,-1311985616708179497,0.0,8.784110162501916,,,0,24,0.0,16431,174578915379919,24,31.58576202392578,-523.0719467872452,0.125634882704797,1,-84581.42252137733,0.0023937434889376163,1.57542003E9,,,,0,,1,,1.57542003E9
Raw,2063908152,162292000000,,,-1311985616708179497,0.0,8.784110162501916,,,0,30,0.0,16431,174578924424083,166,14.750526428222656,438.3432666136473,4.200795901032173,4,64101.64892810931,3.4028234663852886E38,1.57542003E9,,,,1,,1,,1.57542003E9
Raw,2063908152,162292000000,,,-1311985616708179497,0.0,8.784110162501916,,,0,2,0.0,32995,12560920502446,56,30.53297996520996,-203.70564506221797,0.1423888148293948,1,-33473.3494631678,0.002508907811716199,1.59975002E9,,,,0,,3,,1.59975002E9
Raw,2063908152,162292000000,,,-1311985616708179497,0.0,8.784110162501916,,,0,18,0.0,32995,12560930748798,80,27.36785125732422,351.0191392109243,0.20161402267858353,1,52765.7441468938,0.003610675223171711,1.60031245E9,,,,0,,3,,1.60031245E9
Raw,2063908152,162292000000,,,-1311985616708179497,0.0,8.784110162501916,,,0,9,0.0,32995,12560931808242,166,32.896583557128906,-577.052048170181,0.10778123385621868,4,-92632.56177033385,3.4028234663852886E38,1.59862502E9,,,,1,,3,,1.59862502E9
Raw,2063908153,162292000000,,,-1311985616708179497,0.0,8.784110162501916,,,0,19,0.0,32995,12560933857402,105,25.084259033203125,-124.4788873244832,0.2622185881493021,4,-20394.913736188344,3.4028234663852886E38,1.60368755E9,,,,0,,3,,1.60368755E9
Raw,2063908153,162292000000,,,-1311985616708179497,0.0,8.784110162501916,,,0,3,0.0,32995,12560920703602,85,26.83831214904785,-616.6489779934691,0.21595699544524316,1,-93375.3083887576,0.0038268896751105785,1.60481254E9,,,,0,,3,,1.60481254E9
Raw,2063908154,162292000000,,,-1311985616708179497,0.0,8.784110162501916,,,0,193,0.0,35,11468824,47,25.918428421020508,-178.38921339830267,0.23800586518365485,1,-28240.281671266257,0.00433379178866744,1.57542003E9,,,,0,,4,,1.57542003E9
Raw,2063908155,162292000000,,,-1311985616708179497,0.0,8.784110162501916,,,0,194,0.0,35,15998022,12,37.8093147277832,-176.39189623992468,0.06289304932144013,1,-28394.248934570216,0.0011692300904542208,1.57542003E9,,,,0,,4,,1.57542003E9
Raw,2063908155,162292000000,,,-1311985616708179497,0.0,8.784110162501916,,,0,195,0.0,35,8357462,31,29.645856857299805,-99.53269338577519,0.15511897846080291,1,-15809.45990941948,0.00282160728238523,1.57542003E9,,,,0,,4,,1.57542003E9
Raw,2063908155,162292000000,,,-1311985616708179497,0.0,8.784110162501916,,,0,3,0.0,16905,174564876230919,41,28.12620735168457,-126.07031650813104,0.4095705775007088,4,-8233.853703513429,3.4028234663852886E38,1.56109798E9,,,,0,,5,,1.56109798E9
Raw,2063908155,162292000000,,,-1311985616708179497,0.0,8.784110162501916,,,0,4,0.0,16905,174564869624880,62,24.583438873291016,-118.98728335233233,0.6155277668886998,4,-6975.879128078452,3.4028234663852886E38,1.56109798E9,,,,0,,5,,1.56109798E9
Raw,2063908156,162292000000,,,-1311985616708179497,0.0,8.784110162501916,,,0,7,0.0,16431,174564880204107,13,30.84417724609375,-121.30214675813335,0.13745375666983178,1,-7846.069969333532,0.002480542752891779,1.56109798E9,,,,0,,5,,1.56109798E9
Raw,2063908156,162292000000,,,-1311985616708179497,0.0,8.784110162501916,,,0,8,0.0,16431,174564877970427,19,27.84268569946289,-248.7037921829584,0.1922900244713972,4,-15521.12587045392,3.4028234663852886E38,1.56109798E9,,,,0,,5,,1.56109798E9
Raw,2063908156,162292000000,,,-1311985616708179497,0.0,8.784110162501916,,,0,28,0.0,51,15549386,23,26.01346206665039,346.1832135373593,0.23617248530682455,1,7268.853828251207,0.004325960297137499,1.56109798E9,,,,0,,5,,1.56109798E9
Fix,gps,34.486733,109.464192,358.023438,0.270939,3.000000,1627950562000
Raw,2063909205,163292000000,,,-1311985616708179885,0.0,8.738352207557742,,,0,1,0.0,16431,174579928458700,48,25.739784240722656,427.49901284458906,0.24236735454180824,4,67707.48905500429,3.4028234663852886E38,1.57542003E9,,,,0,,1,,1.57542003E9
Raw,2063909206,163292000000,,,-1311985616708179885,0.0,8.738352207557742,,,0,3,0.0,16431,174579925726154,20,33.21800231933594,-346.1599693020107,0.10284887167222045,1,-57541.4847906932,0.001983652589842677,1.57542003E9,,,,0,,1,,1.57542003E9
Raw,2063909206,163292000000,,,-1311985616708179885,0.0,8.738352207557742,,,0,6,0.0,16396,174579922271932,1000000000,10.733968734741211,-727.2168295079009,2.99792458E8,4,-115903.65839345244,3.4028234663852886E38,1.57542003E9,,,,1,,1,,1.57542003E9
Raw,2063909206,163292000000,,,-1311985616708179885,0.0,8.738352207557742,,,0,7,0.0,16431,174579918599328,41,27.11786460876465,562.0746148986016,0.20885661125697863,1,89929.11136218823,0.003774819662794471,1.57542003E9,,,,0,,1,,1.57542003E9
Raw,2063909206,163292000000,,,-1311985616708179885,0.0,8.738352207557742,,,0,14,0.0,16431,174579932769811,7,41.75697326660156,-216.43839070597687,0.04039300724016917,1,-36387.39335420841,7.82340532168746E-4,1.57542003E9,,,,0,,1,,1.57542003E9
Raw,2063909207,163292000000,,,-1311985616708179885,0.0,8.738352207557742,,,0,17,0.0,16431,174579929505442,16,35.207923889160156,-224.443183898435,0.08268129362329979,1,-36780.63276639626,0.0015775003703311086,1.57542003E9,,,,0,,1,,1.57542003E9
Raw,2063909207,163292000000,,,-1311985616708179885,0.0,8.738352207557742,,,0,19,0.0,16431,174579926440720,6,42.83322525024414,-484.06338241091044,0.03481488402019298,1,-78639.74071744841,6.911674863658845E-4,1.57542003E9,,,,0,,1,,1.57542003E9
Raw,2063909207,163292000000,,,-1311985616708179885,0.0,8.738352207557742,,,0,21,0.0,16431,174579918975041,19,33.52256774902344,485.1914435569024,0.10172366799405796,1,77382.91684370059,0.0019153023604303598,1.57542003E9,,,,0,,1,,1.57542003E9
Raw,2063909207,163292000000,,,-1311985616708179885,0.0,8.738352207557742,,,0,22,0.0,16431,174579924047844,53,24.90474510192871,-6.888645462636017,0.26587780915647596,4,-2858.1829524569744,3.4028234663852886E38,1.57542003E9,,,,0,,1,,1.57542003E9
Raw,2063909208,163292000000,,,-1311985616708179885,0.0,8.738352207557742,,,0,24,0.0,16431,174579915381663,17,34.39023208618164,-523.1255244088991,0.09173129251143347,1,-85104.63815791257,0.0017332215793430805,1.57542003E9,,,,0,,1,,1.57542003E9
Raw,2063909208,163292000000,,,-1311985616708179885,0.0,8.738352207557742,,,0,30,0.0,16431,174579924422601,166,14.073930740356445,438.58198013913307,4.200795634762981,4,64539.810598867196,3.4028234663852886E38,1.57542003E9,,,,1,,1,,1.57542003E9
Raw,2063909208,163292000000,,,-1311985616708179885,0.0,8.738352207557742,,,0,2,0.0,32995,12561920503010,33,35.350006103515625,-203.33453823436935,0.08334575174907433,1,-33676.90024112613,0.0015283037209883332,1.59975002E9,,,,0,,3,,1.59975002E9
Raw,2063909209,163292000000,,,-1311985616708179885,0.0,8.738352207557742,,,0,18,0.0,32995,12561930747675,80,27.42875099182129,350.8245624666356,0.20021870554738308,4,53116.76423771554,3.4028234663852886E38,1.60031245E9,,,,0,,3,,1.60031245E9
Raw,2063909209,163292000000,,,-1311985616708179885,0.0,8.738352207557742,,,0,9,0.0,32995,12561931810169,33,38.013916015625,-577.8526450739018,0.06074259276290617,4,-93210.59504069539,3.4028234663852886E38,1.59862502E9,,,,0,,3,,1.59862502E9
Raw,2063909209,163292000000,,,-1311985616708179885,0.0,8.738352207557742,,,0,19,0.0,32995,12561933857830,64,29.388113021850586,-124.24233803498663,0.16073502839875542,4,-20519.224485297953,3.4028234663852886E38,1.60368755E9,,,,0,,3,,1.60368755E9
Raw,2063909209,163292000000,,,-1311985616708179885,0.0,8.738352207557742,,,0,3,0.0,32995,12561920705650,67,28.960819244384766,-616.4507544263324,0.1699460286177631,1,-93991.79960109819,0.0029972330667078495,1.60481254E9,,,,0,,3,,1.60481254E9
Raw,2063909210,163292000000,,,-1311985616708179885,0.0,8.738352207557742,,,0,193,0.0,35,11469382,56,24.441043853759766,-177.84118453864414,0.28175257865684755,4,-28418.65162826082,3.4028234663852886E38,1.57542003E9,,,,0,,4,,1.57542003E9
Raw,2063909210,163292000000,,,-1311985616708179885,0.0,8.738352207557742,,,0,194,0.0,35,15998592,8,40.977149963378906,-176.15154675652582,0.04455231091233147,1,-28570.52812931168,8.558290428481996E-4,1.57542003E9,,,,0,,4,,1.57542003E9
Raw,2063909210,163292000000,,,-1311985616708179885,0.0,8.738352207557742,,,0,195,0.0,35,8357782,23,32.04851150512695,-99.30651368367569,0.11799715064609057,1,-15908.92778797497,0.0022695520892739296,1.57542003E9,,,,0,,4,,1.57542003E9
Raw,2063909210,163292000000,,,-1311985616708179885,0.0,8.738352207557742,,,0,3,0.0,16905,174565876231286,50,26.451215744018555,-126.17371416060712,0.49659653559761874,4,-8360.209574073155,3.4028234663852886E38,1.56109798E9,,,,0,,5,,1.56109798E9
Raw,2063909211,163292000000,,,-1311985616708179885,0.0,8.738352207557742,,,0,4,0.0,16904,174565869625267,1000000000,24.05072593688965,-119.41178886893806,2.99792458E8,4,-7094.945031627691,3.4028234663852886E38,1.56109798E9,,,,0,,5,,1.56109798E9
Raw,2063909211,163292000000,,,-1311985616708179885,0.0,8.738352207557742,,,0,7,0.0,16431,174565880204499,13,30.790557861328125,-121.00248527977067,0.13828248624498946,1,-7967.2763034621985,0.0024959032889455557,1.56109798E9,,,,0,,5,,1.56109798E9
Raw,2063909211,163292000000,,,-1311985616708179885,0.0,8.738352207557742,,,0,8,0.0,16431,174565877971290,24,25.52680206298828,-248.72766694375264,0.25005707566017155,4,-15769.737387806472,3.4028234663852886E38,1.56109798E9,,,,0,,5,,1.56109798E9
Raw,2063909211,163292000000,,,-1311985616708179885,0.0,8.738352207557742,,,0,28,0.0,16431,174565915548275,29,24.049968719482422,346.53293362373984,0.29536682257161395,4,7614.941819059241,3.4028234663852886E38,1.56109798E9,,,,0,,5,,1.56109798E9
Fix,gps,34.486733,109.464191,358.071838,0.266257,3.000000,1627950563000
Raw,2063910153,164292000000,,,-1311985616708180273,0.0,9.167813085310618,,,0,1,0.0,16431,174580928457163,64,23.353334426879883,427.7687414055106,0.31852295610140513,4,68134.72397323567,3.4028234663852886E38,1.57542003E9,,,,0,,1,,1.57542003E9
Raw,2063910154,164292000000,,,-1311985616708180273,0.0,9.167813085310618,,,0,3,0.0,16431,174580925727312,19,33.79970169067383,-345.7371082639322,0.0962535002894448,1,-57887.38451810261,0.001855157082900405,1.57542003E9,,,,0,,1,,1.57542003E9
Raw,2063910155,164292000000,,,-1311985616708180273,0.0,9.167813085310618,,,0,6,0.0,16396,174580922274288,1000000000,11.639907836914062,-727.1575260335512,2.99792458E8,4,-116629.60180633962,3.4028234663852886E38,1.57542003E9,,,,1,,1,,1.57542003E9
Raw,2063910155,164292000000,,,-1311985616708180273,0.0,9.167813085310618,,,0,7,0.0,16431,174580918597487,47,25.97978973388672,562.5921229184439,0.23762724703504623,4,90491.27239467202,3.4028234663852886E38,1.57542003E9,,,,0,,1,,1.57542003E9
Raw,2063910155,164292000000,,,-1311985616708180273,0.0,9.167813085310618,,,0,14,0.0,16431,174580932770546,7,41.75581741333008,-216.40822773195418,0.040398203649861186,1,-36603.768347417164,7.824443746358156E-4,1.57542003E9,,,,0,,1,,1.57542003E9
Raw,2063910155,164292000000,,,-1311985616708180273,0.0,9.167813085310618,,,0,17,0.0,16431,174580929506146,15,35.611572265625,-224.26958490613606,0.07900462366316491,4,-37005.16190976527,3.4028234663852886E38,1.57542003E9,,,,0,,1,,1.57542003E9
Raw,2063910155,164292000000,,,-1311985616708180273,0.0,9.167813085310618,,,0,19,0.0,16431,174580926442347,9,40.00066375732422,-484.3270783770274,0.047792024808164024,1,-79123.88785831664,9.085159399546683E-4,1.57542003E9,,,,0,,1,,1.57542003E9
Raw,2063910156,164292000000,,,-1311985616708180273,0.0,9.167813085310618,,,0,21,0.0,16431,174580918973437,16,34.94346618652344,485.6193487985463,0.08688761461005734,4,77868.2189778789,3.4028234663852886E38,1.57542003E9,,,,0,,1,,1.57542003E9
Raw,2063910156,164292000000,,,-1311985616708180273,0.0,9.167813085310618,,,0,22,0.0,16431,174580924047860,41,27.232181549072266,-6.558454091304647,0.20355207963135546,4,-2864.5772624974625,3.4028234663852886E38,1.57542003E9,,,,0,,1,,1.57542003E9
Raw,2063910156,164292000000,,,-1311985616708180273,0.0,9.167813085310618,,,0,24,0.0,16431,174580915383395,14,36.426177978515625,-523.3946394856032,0.07314226640208454,1,-85627.88008399251,0.0013710613129660487,1.57542003E9,,,,0,,1,,1.57542003E9
Raw,2063910157,164292000000,,,-1311985616708180273,0.0,9.167813085310618,,,0,30,0.0,16431,174580924421134,166,13.991392135620117,438.4992960996087,4.2007953684937895,4,64977.01429688806,3.4028234663852886E38,1.57542003E9,,,,1,,1,,1.57542003E9
Raw,2063910157,164292000000,,,-1311985616708180273,0.0,9.167813085310618,,,0,2,0.0,32995,12562920503717,33,36.749839782714844,-202.99552003933695,0.07148918405160587,4,-33879.922475746454,3.4028234663852886E38,1.59975002E9,,,,0,,3,,1.59975002E9
Raw,2063910157,164292000000,,,-1311985616708180273,0.0,9.167813085310618,,,0,18,0.0,32995,12562930746599,63,29.49816131591797,351.5187198586357,0.15818318767573236,4,53468.108259778084,3.4028234663852886E38,1.60031245E9,,,,0,,3,,1.60031245E9
Raw,2063910158,164292000000,,,-1311985616708180273,0.0,9.167813085310618,,,0,9,0.0,32995,12562931812134,33,39.894142150878906,-578.3193702335252,0.04933331986319453,4,-93788.57551773066,3.4028234663852886E38,1.59862502E9,,,,0,,3,,1.59862502E9
Raw,2063910158,164292000000,,,-1311985616708180273,0.0,9.167813085310618,,,0,19,0.0,32995,12562933858260,44,32.623836517333984,-124.50752510857649,0.11152041050907802,4,-20643.572691226702,3.4028234663852886E38,1.60368755E9,,,,0,,3,,1.60368755E9
Raw,2063910158,164292000000,,,-1311985616708180273,0.0,9.167813085310618,,,0,3,0.0,32995,12562920707804,54,30.82078742980957,-615.9332464064901,0.137905207763251,4,-94607.76849414289,3.4028234663852886E38,1.60481254E9,,,,0,,3,,1.60481254E9
Raw,2063910158,164292000000,,,-1311985616708180273,0.0,9.167813085310618,,,0,193,0.0,35,11470031,65,21.87959861755371,-177.60536802196282,4.202063076114923,4,-28596.92319537005,3.4028234663852886E38,1.57542003E9,,,,0,,4,,1.57542003E9
Raw,2063910158,164292000000,,,-1311985616708180273,0.0,9.167813085310618,,,0,194,0.0,35,15999185,8,41.00191879272461,-176.00840043913,0.04443373791295402,1,-28746.622357057597,8.533917716704309E-4,1.57542003E9,,,,0,,4,,1.57542003E9
Raw,2063910159,164292000000,,,-1311985616708180273,0.0,9.167813085310618,,,0,195,0.0,35,8358132,25,31.362394332885742,-99.63548607464799,0.12757251529104485,4,-16008.481025148742,3.4028234663852886E38,1.57542003E9,,,,0,,4,,1.57542003E9
Raw,2063910159,164292000000,,,-1311985616708180273,0.0,9.167813085310618,,,0,3,0.0,16905,174566876231752,61,24.74026107788086,-126.22113989885861,0.6046287032041691,4,-8486.423939418693,3.4028234663852886E38,1.56109798E9,,,,0,,5,,1.56109798E9
Raw,2063910159,164292000000,,,-1311985616708180273,0.0,9.167813085310618,,,0,4,0.0,16905,174566869625707,60,24.827022552490234,-119.05928254173676,0.5985142306232194,4,-7214.011351608755,3.4028234663852886E38,1.56109798E9,,,,0,,5,,1.56109798E9
Raw,2063910159,164292000000,,,-1311985616708180273,0.0,9.167813085310618,,,0,7,0.0,16431,174566880204899,13,30.95575714111328,-121.03171950685311,0.13574583118679895,4,-8088.293291954128,3.4028234663852886E38,1.56109798E9,,,,0,,5,,1.56109798E9
Raw,2063910160,164292000000,,,-1311985616708180273,0.0,9.167813085310618,,,0,8,0.0,16431,174566877972102,24,25.748523712158203,-248.54844434612744,0.2438364115972531,4,-16018.30169988909,3.4028234663852886E38,1.56109798E9,,,,0,,5,,1.56109798E9
Raw,2063910160,164292000000,,,-1311985616708180273,0.0,9.167813085310618,,,0,28,0.0,16431,174566915547087,25,25.219715118408203,346.38593598875696,0.2585035671046668,4,7961.323713815864,3.4028234663852886E38,1.56109798E9,,,,0,,5,,1.56109798E9
Fix,gps,34.486734,109.464187,358.079071,0.333422,4.000000,1627950564000
Raw,2063911138,165292000000,,,-1311985616708180660,0.0,8.746972234212588,,,0,1,0.0,16431,174581928455860,62,23.505035400390625,427.0460229149444,0.3130343159716258,4,68562.25745069851,3.4028234663852886E38,1.57542003E9,,,,0,,1,,1.57542003E9
Raw,2063911139,165292000000,,,-1311985616708180660,0.0,8.746972234212588,,,0,3,0.0,16431,174581925728459,17,34.637088775634766,-345.52869404229523,0.08750209733693637,1,-58233.008433958224,0.0016846561338752508,1.57542003E9,,,,0,,1,,1.57542003E9
Raw,2063911139,165292000000,,,-1311985616708180660,0.0,8.746972234212588,,,0,6,0.0,16396,174581922276722,1000000000,13.404041290283203,-727.3297106039045,2.99792458E8,4,-117358.0162156998,3.4028234663852886E38,1.57542003E9,,,,0,,1,,1.57542003E9
Raw,2063911139,165292000000,,,-1311985616708180660,0.0,8.746972234212588,,,0,7,0.0,16431,174581918595615,53,24.950828552246094,562.1580828346259,0.2670915306990158,4,91053.40311541354,3.4028234663852886E38,1.57542003E9,,,,0,,1,,1.57542003E9
Raw,2063911139,165292000000,,,-1311985616708180660,0.0,8.746972234212588,,,0,14,0.0,16431,174581932771245,7,42.09757995605469,-216.2198539947526,0.03892828537999979,1,-36820.047748686586,7.522557862102985E-4,1.57542003E9,,,,0,,1,,1.57542003E9
Raw,2063911140,165292000000,,,-1311985616708180660,0.0,8.746972234212588,,,0,17,0.0,16431,174581929506934,18,34.37065887451172,-224.78707588475015,0.09087525370231392,4,-37229.810392780826,3.4028234663852886E38,1.57542003E9,,,,0,,1,,1.57542003E9
Raw,2063911140,165292000000,,,-1311985616708180660,0.0,8.746972234212588,,,0,19,0.0,16431,174581926443975,8,41.11695098876953,-484.3354285788755,0.04216826138456781,1,-79608.13268364154,8.421642705798149E-4,1.57542003E9,,,,0,,1,,1.57542003E9
Raw,2063911140,165292000000,,,-1311985616708180660,0.0,8.746972234212588,,,0,21,0.0,16431,174581918971829,18,34.29796600341797,485.45237884404105,0.09332714362754596,4,78353.680281304,3.4028234663852886E38,1.57542003E9,,,,0,,1,,1.57542003E9
Raw,2063911141,165292000000,,,-1311985616708180660,0.0,8.746972234212588,,,0,22,0.0,16431,174581924047917,48,25.765647888183594,-5.88061314282648,0.24085789113654044,4,-2870.636594876331,3.4028234663852886E38,1.57542003E9,,,,0,,1,,1.57542003E9
Raw,2063911141,165292000000,,,-1311985616708180660,0.0,8.746972234212588,,,0,24,0.0,16431,174581915385151,14,35.984561920166016,-523.1710585708136,0.07681317829095141,1,-86151.09831931097,0.0014425725676119328,1.57542003E9,,,,0,,1,,1.57542003E9
Raw,2063911141,165292000000,,,-1311985616708180660,0.0,8.746972234212588,,,0,30,0.0,16431,174581924419711,166,13.852935791015625,438.4135105565408,4.200795102224598,4,65415.52559400762,3.4028234663852886E38,1.57542003E9,,,,1,,1,,1.57542003E9
Raw,2063911142,165292000000,,,-1311985616708180660,0.0,8.746972234212588,,,0,2,0.0,32995,12563920504421,33,35.21968460083008,-202.70742103434964,0.08455017051173319,4,-34082.68420177443,3.4028234663852886E38,1.59975002E9,,,,0,,3,,1.59975002E9
Raw,2063911142,165292000000,,,-1311985616708180660,0.0,8.746972234212588,,,0,18,0.0,32995,12563930745387,66,29.037702560424805,351.6784984148146,0.1666896229719831,4,53818.5621747585,3.4028234663852886E38,1.60031245E9,,,,0,,3,,1.60031245E9
Raw,2063911143,165292000000,,,-1311985616708180660,0.0,8.746972234212588,,,0,9,0.0,32995,12563931814045,33,40.1019401550293,-577.7533969605074,0.04821768107364849,4,-94366.50023290221,3.4028234663852886E38,1.59862502E9,,,,0,,3,,1.59862502E9
Raw,2063911143,165292000000,,,-1311985616708180660,0.0,8.746972234212588,,,0,19,0.0,32995,12563933858676,41,33.216087341308594,-124.2518470403565,0.10433414618561526,4,-20767.874940262685,3.4028234663852886E38,1.60368755E9,,,,0,,3,,1.60368755E9
Raw,2063911143,165292000000,,,-1311985616708180660,0.0,8.746972234212588,,,0,3,0.0,32995,12563920709858,56,30.41522979736328,-615.5648832163915,0.14431923318473316,4,-95223.39977436367,3.4028234663852886E38,1.60481254E9,,,,0,,3,,1.60481254E9
Raw,2063911144,165292000000,,,-1311985616708180660,0.0,8.746972234212588,,,0,193,0.0,35,11470561,61,23.722900390625,-178.34611613202958,0.30586019185911684,4,-28774.97632534544,3.4028234663852886E38,1.57542003E9,,,,0,,4,,1.57542003E9
Raw,2063911144,165292000000,,,-1311985616708180660,0.0,8.746972234212588,,,0,194,0.0,35,15999778,9,40.38603973388672,-175.93512315760597,0.047487358767061866,1,-28922.612329105184,9.160993504337966E-4,1.57542003E9,,,,0,,4,,1.57542003E9
Raw,2063911144,165292000000,,,-1311985616708180660,0.0,8.746972234212588,,,0,195,0.0,35,8358478,22,32.432899475097656,-99.24327368559761,0.11295433667305821,4,-16107.632793155539,3.4028234663852886E38,1.57542003E9,,,,0,,4,,1.57542003E9
Raw,2063911144,165292000000,,,-1311985616708180660,0.0,8.746972234212588,,,0,3,0.0,16904,174567876232156,1000000000,22.345849990844727,-126.2898501312086,2.99792458E8,4,-8612.630735535951,3.4028234663852886E38,1.56109798E9,,,,0,,5,,1.56109798E9
Raw,2063911145,165292000000,,,-1311985616708180660,0.0,8.746972234212588,,,0,4,0.0,16905,174567869626071,49,26.522598266601562,-118.718415373438,0.4924265936391614,4,-7332.788159224077,3.4028234663852886E38,1.56109798E9,,,,0,,5,,1.56109798E9
