# 
# Header Description:
# 
# Version: v2.0.0.1 Platform: 10 Manufacturer: HUAWEI Model: BLA-AL00
# 
# Raw,ElapsedRealtimeMillis,TimeNanos,LeapSecond,TimeUncertaintyNanos,FullBiasNanos,BiasNanos,BiasUncertaintyNanos,DriftNanosPerSecond,DriftUncertaintyNanosPerSecond,HardwareClockDiscontinuityCount,Svid,TimeOffsetNanos,State,ReceivedSvTimeNanos,ReceivedSvTimeUncertaintyNanos,Cn0DbHz,PseudorangeRateMetersPerSecond,PseudorangeRateUncertaintyMetersPerSecond,AccumulatedDeltaRangeState,AccumulatedDeltaRangeMeters,AccumulatedDeltaRangeUncertaintyMeters,CarrierFrequencyHz,CarrierCycles,CarrierPhase,CarrierPhaseUncertainty,MultipathIndicator,SnrInDb,ConstellationType,AgcDb,CarrierFrequencyHz
# 
# Fix,Provider,Latitude,Longitude,Altitude,Speed,Accuracy,(UTC)TimeInMs
# 
# Nav,Svid,Type,Status,MessageId,Sub-messageId,Data(Bytes)
# 
Fix,gps,34.486327,109.464231,358.829346,0.469882,3.000000,1627820518999
Raw,1933865531,1866824000000,,,-1311853870175907768,0.0,9.819226726145668,,,0,10,0.0,16431,44536931824804,11,38.05475997924805,-323.96284926520434,0.06047020354037139,4,-744507.2200033559,3.4028234663852886E38,1.57542003E9,,,,0,,1,,1.57542003E9
Raw,1933865531,1866824000000,,,-1311853870175907768,0.0,9.819226726145668,,,0,12,0.0,16431,44536924006815,21,32.67814636230469,-452.4163559838505,0.10906876189030085,4,-935031.8743480531,3.4028234663852886E38,1.57542003E9,,,,0,,1,,1.57542003E9
Raw,1933865532,1866824000000,,,-1311853870175907768,0.0,9.819226726145668,,,0,15,0.0,16431,44536915986360,41,27.222248077392578,416.64613621403055,0.2059316275455989,4,540480.1422599423,3.4028234663852886E38,1.57542003E9,,,,0,,1,,1.57542003E9
Raw,1933865532,1866824000000,,,-1311853870175907768,0.0,9.819226726145668,,,0,18,0.0,16431,44536920674869,32,29.301496505737305,566.2161105205143,0.16354716389837676,4,1140196.5611462248,3.4028234663852886E38,1.57542003E9,,,,0,,1,,1.57542003E9
Raw,1933865532,1866824000000,,,-1311853870175907768,0.0,9.819226726145668,,,0,23,0.0,16431,44536931230714,15,35.861698150634766,137.93407027854198,0.0771207524908804,1,88999.35929150826,0.001463123131543398,1.57542003E9,,,,0,,1,,1.57542003E9
Raw,1933865533,1866824000000,,,-1311853870175907768,0.0,9.819226726145668,,,0,24,0.0,16431,44536925663365,166,30.267866134643555,474.2907151573859,0.14401838228189168,4,577923.1800133821,3.4028234663852886E38,1.57542003E9,,,,1,,1,,1.57542003E9
Raw,1933865533,1866824000000,,,-1311853870175907768,0.0,9.819226726145668,,,0,25,0.0,16431,44536923450667,12,37.66607666015625,-695.3310554728987,0.06163399128857691,1,-1097426.7256280605,0.0011886714491993189,1.57542003E9,,,,0,,1,,1.57542003E9
Raw,1933865533,1866824000000,,,-1311853870175907768,0.0,9.819226726145668,,,0,31,0.0,16,1866018641047,1000000000,28.867883682250977,-822.810485584123,2.99792458E8,2,-14.792944165344402,3.4028234663852886E38,1.57542003E9,,,,0,,1,,1.57542003E9
Raw,1933865534,1866824000000,,,-1311853870175907768,0.0,9.819226726145668,,,0,32,0.0,17,337752,6,43.681358337402344,-392.2862798161127,0.031845212849644366,4,-524290.7462562821,3.4028234663852886E38,1.57542003E9,,,,0,,1,,1.57542003E9
Raw,1933865534,1866824000000,,,-1311853870175907768,0.0,9.819226726145668,,,0,10,0.0,32995,55318931034635,33,43.774566650390625,-753.2798885056332,0.0321843919544776,1,-1556272.6109814863,6.113905692473054E-4,1.59806246E9,,,,0,,3,,1.59806246E9
Raw,1933865534,1866824000000,,,-1311853870175907768,0.0,9.819226726145668,,,0,9,0.0,32995,55318933715526,41,33.19282150268555,-63.10489522041826,0.10458157683189512,1,-406203.31493930257,0.0019577788189053535,1.59862502E9,,,,0,,3,,1.59862502E9
Raw,1933865535,1866824000000,,,-1311853870175907768,0.0,9.819226726145668,,,0,16,0.0,32995,55318924433275,166,28.810523986816406,557.8500262476862,0.16992025043165282,4,546516.1998533445,3.4028234663852886E38,1.60143744E9,,,,1,,3,,1.60143744E9
Raw,1933865535,1866824000000,,,-1311853870175907768,0.0,9.819226726145668,,,0,23,0.0,32961,55318924497123,33,38.93962478637695,30.88785035878199,0.053501223198153786,4,-5135.481769499437,3.4028234663852886E38,1.60368755E9,,,,0,,3,,1.60368755E9
Raw,1933865535,1866824000000,,,-1311853870175907768,0.0,9.819226726145668,,,0,7,0.0,32961,55318932945049,48,31.889741897583008,-160.1989462389157,0.12097126102331762,4,-537083.7727883438,3.4028234663852886E38,1.60481254E9,,,,0,,3,,1.60481254E9
Raw,1933865536,1866824000000,,,-1311853870175907768,0.0,9.819226726145668,,,0,8,0.0,32961,55318927880839,52,31.04932975769043,-560.0336210721896,0.1321134534425017,4,-570210.2976348317,3.4028234663852886E38,1.60537498E9,,,,0,,3,,1.60537498E9
Raw,1933865536,1866824000000,,,-1311853870175907768,0.0,9.819226726145668,,,0,193,0.0,35,9518461,23,32.16110610961914,-256.4030191114613,0.11670558696957345,4,-461447.8091355808,3.4028234663852886E38,1.57542003E9,,,,0,,4,,1.57542003E9
Raw,1933865536,1866824000000,,,-1311853870175907768,0.0,9.819226726145668,,,0,194,0.0,35,12452026,17,34.85668182373047,-100.2218917803512,0.08655276445981541,1,-86935.27632940377,0.0016425993526354432,1.57542003E9,,,,0,,4,,1.57542003E9
Raw,1933865537,1866824000000,,,-1311853870175907768,0.0,9.819226726145668,,,0,6,0.0,16431,44522878639668,166,27.57893943786621,-80.01027081012353,0.19823917716802186,4,-124380.07569449642,3.4028234663852886E38,1.56109798E9,,,,1,,5,,1.56109798E9
Raw,1933865537,1866824000000,,,-1311853870175907768,0.0,9.819226726145668,,,0,14,0.0,16431,44522924321934,9,33.95003890991211,141.9734207782559,0.094366775044263,4,175056.62186462234,3.4028234663852886E38,1.56109798E9,,,,0,,5,,1.56109798E9
Raw,1933865538,1866824000000,,,-1311853870175907768,0.0,9.819226726145668,,,0,16,0.0,16431,44522877996675,11,32.160465240478516,-77.8521781837133,0.11823907284846952,4,-122881.80494310573,3.4028234663852886E38,1.56109798E9,,,,0,,5,,1.56109798E9
Raw,1933865539,1866824000000,,,-1311853870175907768,0.0,9.819226726145668,,,0,24,0.0,16431,44522924140880,9,33.563987731933594,48.86612250844354,0.09858769091108427,4,-71661.39528684707,3.4028234663852886E38,1.56109798E9,,,,0,,5,,1.56109798E9
Raw,1933865539,1866824000000,,,-1311853870175907768,0.0,9.819226726145668,,,0,25,0.0,16431,44522923324505,7,36.15501022338867,-565.1808899860905,0.07320490622940479,1,-822134.4073200751,0.0014275175053626299,1.56109798E9,,,,0,,5,,1.56109798E9
Raw,1933865539,1866824000000,,,-1311853870175907768,0.0,9.819226726145668,,,0,26,0.0,16431,44522914913137,9,34.05913162231445,440.13692405307324,0.09510374992018311,4,692176.1859195255,3.4028234663852886E38,1.56109798E9,,,,0,,5,,1.56109798E9
Raw,1933865540,1866824000000,,,-1311853870175907768,0.0,9.819226726145668,,,0,27,0.0,16431,44522913060192,6,39.42298126220703,136.6909723211714,0.052189360656234474,1,115912.04151036989,9.79902339167893E-4,1.56109798E9,,,,0,,5,,1.56109798E9
Raw,1933865540,1866824000000,,,-1311853870175907768,0.0,9.819226726145668,,,0,33,0.0,16431,44522926085643,12,31.88263511657715,-102.12447675082404,0.1198345412026191,1,-255987.42051236323,0.0023345337249338627,1.56109798E9,,,,0,,5,,1.56109798E9
Fix,gps,34.486324,109.464226,358.785278,0.509617,3.000000,1627820519999
Raw,1933866497,1867824000000,,,-1311853870175908154,0.0,10.219365675421363,,,0,10,0.0,16431,44537931825888,7,41.595619201660156,-323.90818100494175,0.040937527736959384,4,-744831.1713489303,3.4028234663852886E38,1.57542003E9,,,,0,,1,,1.57542003E9
Raw,1933866497,1867824000000,,,-1311853870175908154,0.0,10.219365675421363,,,0,12,0.0,16431,44537924008260,22,32.270259857177734,-452.78171991777504,0.11427836854912415,4,-935484.6821183352,3.4028234663852886E38,1.57542003E9,,,,0,,1,,1.57542003E9
Raw,1933866498,1867824000000,,,-1311853870175908154,0.0,10.219365675421363,,,0,15,0.0,16,1867015985124,1000000000,23.80268096923828,415.30393499370575,2.99792458E8,2,524294.6318972316,3.4028234663852886E38,1.57542003E9,,,,0,,1,,1.57542003E9
Raw,1933866498,1867824000000,,,-1311853870175908154,0.0,10.219365675421363,,,0,18,0.0,16431,44537920672959,29,30.167041778564453,566.1929344500788,0.14838784307396813,4,1140762.744793565,3.4028234663852886E38,1.57542003E9,,,,0,,1,,1.57542003E9
Raw,1933866498,1867824000000,,,-1311853870175908154,0.0,10.219365675421363,,,0,23,0.0,16431,44537931230279,19,33.53144073486328,138.0349287880071,0.10023018906119746,1,89137.27672051762,0.0019133464666083455,1.57542003E9,,,,0,,1,,1.57542003E9
Raw,1933866499,1867824000000,,,-1311853870175908154,0.0,10.219365675421363,,,0,24,0.0,16431,44537925661734,37,28.024580001831055,473.5033422467959,0.18615804469110087,4,578396.7434724187,3.4028234663852886E38,1.57542003E9,,,,0,,1,,1.57542003E9
Raw,1933866499,1867824000000,,,-1311853870175908154,0.0,10.219365675421363,,,0,25,0.0,16431,44537923453025,19,33.77731704711914,-695.4283268038148,0.09609014414040773,1,-1098122.0248817971,0.0018599438481032848,1.57542003E9,,,,0,,1,,1.57542003E9
Raw,1933866500,1867824000000,,,-1311853870175908154,0.0,10.219365675421363,,,0,31,0.0,17,643706,40,27.258913040161133,-822.7011490635978,0.2055542741756503,4,-673.0841461330141,3.4028234663852886E38,1.57542003E9,,,,0,,1,,1.57542003E9
Raw,1933866500,1867824000000,,,-1311853870175908154,0.0,10.219365675421363,,,0,32,0.0,51,7339052,7,42.49068832397461,-392.2587752736988,0.03633025943360518,4,-524683.04459945,3.4028234663852886E38,1.57542003E9,,,,0,,1,,1.57542003E9
Raw,1933866500,1867824000000,,,-1311853870175908154,0.0,10.219365675421363,,,0,10,0.0,32995,55319931037158,33,43.75210189819336,-753.1927737467608,0.03226304537739798,1,-1557025.8224331315,6.129738176241517E-4,1.59806246E9,,,,0,,3,,1.59806246E9
Raw,1933866501,1867824000000,,,-1311853870175908154,0.0,10.219365675421363,,,0,9,0.0,32995,55319933715724,50,31.413658142089844,-62.92269040784731,0.12779436745310813,1,-406266.347388749,0.0022654032800346613,1.59862502E9,,,,0,,3,,1.59862502E9
Raw,1933866501,1867824000000,,,-1311853870175908154,0.0,10.219365675421363,,,0,16,0.0,32995,55319924431615,111,24.60433578491211,558.1102458032378,0.2752777273669128,4,547073.9029513047,3.4028234663852886E38,1.60143744E9,,,,0,,3,,1.60143744E9
Raw,1933866502,1867824000000,,,-1311853870175908154,0.0,10.219365675421363,,,0,23,0.0,32961,55319924496997,33,38.643131256103516,31.08125338847421,0.05533091275040697,4,-5104.5468702485805,3.4028234663852886E38,1.60368755E9,,,,0,,3,,1.60368755E9
Raw,1933866502,1867824000000,,,-1311853870175908154,0.0,10.219365675421363,,,0,7,0.0,32961,55319932945540,59,30.03561782836914,-159.95718233357115,0.14920345889144027,4,-537243.8190049701,3.4028234663852886E38,1.60481254E9,,,,0,,3,,1.60481254E9
Raw,1933866502,1867824000000,,,-1311853870175908154,0.0,10.219365675421363,,,0,8,0.0,32961,55319927882678,51,31.2409725189209,-559.6792998541785,0.12926174368428112,4,-570770.0407643303,3.4028234663852886E38,1.60537498E9,,,,0,,3,,1.60537498E9
Raw,1933866503,1867824000000,,,-1311853870175908154,0.0,10.219365675421363,,,0,193,0.0,35,9519338,25,31.496313095092773,-256.7547500627767,0.12585257441074177,4,-461704.60644880653,3.4028234663852886E38,1.57542003E9,,,,0,,4,,1.57542003E9
Raw,1933866503,1867824000000,,,-1311853870175908154,0.0,10.219365675421363,,,0,194,0.0,35,12452359,23,32.15333938598633,-100.31492836604434,0.11733616234071886,1,-87035.50008042066,0.0022423260379582644,1.57542003E9,,,,0,,4,,1.57542003E9
Raw,1933866503,1867824000000,,,-1311853870175908154,0.0,10.219365675421363,,,0,6,0.0,16431,44523878639936,18,27.92414093017578,-79.96670491007325,0.19064577892971424,4,-124460.0940747292,3.4028234663852886E38,1.56109798E9,,,,0,,5,,1.56109798E9
Raw,1933866507,1867824000000,,,-1311853870175908154,0.0,10.219365675421363,,,0,14,0.0,16431,44523924321442,15,29.873727798461914,141.87677145217134,0.15041534983328797,4,175198.4776821877,3.4028234663852886E38,1.56109798E9,,,,0,,5,,1.56109798E9
Raw,1933866508,1867824000000,,,-1311853870175908154,0.0,10.219365675421363,,,0,16,0.0,16431,44523877996923,166,28.778661727905273,-77.98065200357604,0.17298153068547484,4,-122959.84146663689,3.4028234663852886E38,1.56109798E9,,,,1,,5,,1.56109798E9
Raw,1933866508,1867824000000,,,-1311853870175908154,0.0,10.219365675421363,,,0,24,0.0,16431,44523924140684,14,30.155162811279297,49.37389998694863,0.14561205331899807,4,-71612.00718085213,3.4028234663852886E38,1.56109798E9,,,,0,,5,,1.56109798E9
Raw,1933866509,1867824000000,,,-1311853870175908154,0.0,10.219365675421363,,,0,25,0.0,16431,44523923326406,6,38.417076110839844,-565.2403979551793,0.05655794775252604,1,-822699.6602086977,0.00110021629370749,1.56109798E9,,,,0,,5,,1.56109798E9
Raw,1933866509,1867824000000,,,-1311853870175908154,0.0,10.219365675421363,,,0,26,0.0,16431,44523914911682,6,36.82354736328125,440.194080332662,0.06991037416375478,4,692616.3390884125,3.4028234663852886E38,1.56109798E9,,,,0,,5,,1.56109798E9
Raw,1933866510,1867824000000,,,-1311853870175908154,0.0,10.219365675421363,,,0,27,0.0,16431,44523913059741,6,40.026344299316406,136.7786750024187,0.048844653489795276,1,116048.7767299641,9.141440968960524E-4,1.56109798E9,,,,0,,5,,1.56109798E9
Raw,1933866510,1867824000000,,,-1311853870175908154,0.0,10.219365675421363,,,0,33,0.0,16431,44523926085954,13,30.756731033325195,-102.29240101411193,0.13626830126616107,1,-256089.62121052598,0.0025056423619389534,1.56109798E9,,,,0,,5,,1.56109798E9
Fix,gps,34.486324,109.464220,358.768127,0.459612,3.000000,1627820520999
Raw,1933867485,1868824000000,,,-1311853870175908541,0.0,10.303506169939558,,,0,10,0.0,16431,44538931826963,6,43.464874267578125,-323.8589318552663,0.03342308455464073,4,-745155.0492238377,3.4028234663852886E38,1.57542003E9,,,,0,,1,,1.57542003E9
Raw,1933867486,1868824000000,,,-1311853870175908541,0.0,10.303506169939558,,,0,12,0.0,16431,44538924009783,28,30.518329620361328,-452.70435274146826,0.13965632710170617,4,-935937.4498333872,3.4028234663852886E38,1.57542003E9,,,,0,,1,,1.57542003E9
Raw,1933867486,1868824000000,,,-1311853870175908541,0.0,10.303506169939558,,,0,15,0.0,16,1868015983738,1000000000,21.9408016204834,415.30393499370575,2.99792458E8,2,524294.6156585639,3.4028234663852886E38,1.57542003E9,,,,0,,1,,1.57542003E9
Raw,1933867486,1868824000000,,,-1311853870175908541,0.0,10.303506169939558,,,0,18,0.0,16431,44538920671111,24,31.560001373291016,566.2413315383412,0.12695160881991885,4,1141328.9588855796,3.4028234663852886E38,1.57542003E9,,,,0,,1,,1.57542003E9
Raw,1933867487,1868824000000,,,-1311853870175908541,0.0,10.303506169939558,,,0,23,0.0,16431,44538931229837,22,32.539947509765625,138.0709454239376,0.11210569515491736,1,89275.3103308668,0.0021447089966386557,1.57542003E9,,,,0,,1,,1.57542003E9
Raw,1933867487,1868824000000,,,-1311853870175908541,0.0,10.303506169939558,,,0,24,0.0,16431,44538925660176,31,29.60085678100586,473.5037853187307,0.15543172826814333,4,578870.2185771177,3.4028234663852886E38,1.57542003E9,,,,0,,1,,1.57542003E9
Raw,1933867487,1868824000000,,,-1311853870175908541,0.0,10.303506169939558,,,0,25,0.0,16431,44538923455294,21,32.87323760986328,-695.1838192607202,0.10656311887201769,1,-1098817.2826483417,0.0019459318136796355,1.57542003E9,,,,0,,1,,1.57542003E9
Raw,1933867488,1868824000000,,,-1311853870175908541,0.0,10.303506169939558,,,0,31,0.0,16397,44538918646438,38,27.756744384765625,-822.9085067290825,0.19429147013359072,4,-14.80818898190887,3.4028234663852886E38,1.57542003E9,,,,0,,1,,1.57542003E9
Raw,1933867488,1868824000000,,,-1311853870175908541,0.0,10.303506169939558,,,0,32,0.0,16431,44538927340361,10,38.89616394042969,-392.3125573900918,0.05427697352509839,4,-525075.3107857078,3.4028234663852886E38,1.57542003E9,,,,0,,1,,1.57542003E9
Raw,1933867488,1868824000000,,,-1311853870175908541,0.0,10.303506169939558,,,0,10,0.0,32995,55320931039666,33,43.47267532348633,-753.0422656187561,0.033253369148426526,1,-1557778.9240499677,6.330139003694057E-4,1.59806246E9,,,,0,,3,,1.59806246E9
Raw,1933867489,1868824000000,,,-1311853870175908541,0.0,10.303506169939558,,,0,9,0.0,32995,55320933715917,49,31.655353546142578,-62.77854291829115,0.12435509311909526,1,-406329.2393515369,0.002203234238550067,1.59862502E9,,,,0,,3,,1.59862502E9
Raw,1933867489,1868824000000,,,-1311853870175908541,0.0,10.303506169939558,,,0,16,0.0,32995,55320924429790,67,21.553714752197266,557.4753918855874,4.200796966108939,4,547631.6102440585,3.4028234663852886E38,1.60143744E9,,,,0,,3,,1.60143744E9
Raw,1933867489,1868824000000,,,-1311853870175908541,0.0,10.303506169939558,,,0,23,0.0,32961,55320924496899,36,34.297054290771484,31.127697125947137,0.09073290785667532,4,-5073.477156070128,3.4028234663852886E38,1.60368755E9,,,,0,,3,,1.60368755E9
Raw,1933867490,1868824000000,,,-1311853870175908541,0.0,10.303506169939558,,,0,7,0.0,32961,55320932946224,74,28.093372344970703,-159.8778554160143,0.1860078189415738,4,-537403.6899129932,3.4028234663852886E38,1.60481254E9,,,,0,,3,,1.60481254E9
Raw,1933867491,1868824000000,,,-1311853870175908541,0.0,10.303506169939558,,,0,8,0.0,32961,55320927884539,55,30.676069259643555,-559.7568033603113,0.1378529857180515,4,-571329.7960063242,3.4028234663852886E38,1.60537498E9,,,,0,,3,,1.60537498E9
Raw,1933867491,1868824000000,,,-1311853870175908541,0.0,10.303506169939558,,,0,193,0.0,35,9520192,24,31.817716598510742,-256.8144284441481,0.12134311427027755,4,-461961.4276827613,3.4028234663852886E38,1.57542003E9,,,,0,,4,,1.57542003E9
Raw,1933867491,1868824000000,,,-1311853870175908541,0.0,10.303506169939558,,,0,194,0.0,35,12452750,27,30.567598342895508,-100.29461522195675,0.14038918312606896,1,-87135.73437956299,0.002537520369514823,1.57542003E9,,,,0,,4,,1.57542003E9
Raw,1933867492,1868824000000,,,-1311853870175908541,0.0,10.303506169939558,,,0,6,0.0,16431,44524878640202,13,30.771259307861328,-80.05439907070644,0.13830058422910496,4,-124540.11041860991,3.4028234663852886E38,1.56109798E9,,,,0,,5,,1.56109798E9
Raw,1933867492,1868824000000,,,-1311853870175908541,0.0,10.303506169939558,,,0,14,0.0,16431,44524924320963,21,26.94693374633789,141.92272312417822,0.21037261489926473,4,175340.4271585343,3.4028234663852886E38,1.56109798E9,,,,0,,5,,1.56109798E9
Raw,1933867492,1868824000000,,,-1311853870175908541,0.0,10.303506169939558,,,0,16,0.0,16431,44524877997191,17,28.514366149902344,-78.02841004577863,0.1782259686829223,4,-123037.84302454547,3.4028234663852886E38,1.56109798E9,,,,0,,5,,1.56109798E9
Raw,1933867493,1868824000000,,,-1311853870175908541,0.0,10.303506169939558,,,0,24,0.0,16431,44524924140556,14,30.49318504333496,49.5031065796266,0.14008265736108183,4,-71562.56048872076,3.4028234663852886E38,1.56109798E9,,,,0,,5,,1.56109798E9
Raw,1933867493,1868824000000,,,-1311853870175908541,0.0,10.303506169939558,,,0,25,0.0,16431,44524923328280,6,41.31544494628906,-565.0950362781095,0.040681297725988885,1,-823264.8132480574,7.880605990067124E-4,1.56109798E9,,,,0,,5,,1.56109798E9
Raw,1933867493,1868824000000,,,-1311853870175908541,0.0,10.303506169939558,,,0,26,0.0,16431,44524914910202,6,37.997718811035156,440.18849080979226,0.06140962621101806,4,693056.5001704214,3.4028234663852886E38,1.56109798E9,,,,0,,5,,1.56109798E9
Raw,1933867494,1868824000000,,,-1311853870175908541,0.0,10.303506169939558,,,0,27,0.0,16431,44524913059267,6,36.78478240966797,136.81893490418628,0.06987788100146924,1,116185.56959000361,0.0013276779791340232,1.56109798E9,,,,0,,5,,1.56109798E9
Raw,1933867494,1868824000000,,,-1311853870175908541,0.0,10.303506169939558,,,0,33,0.0,16431,44524926086320,166,28.712411880493164,-102.14195253040612,0.17213877205228556,1,-256191.7898590226,0.0031705538276582956,1.56109798E9,,,,1,,5,,1.56109798E9
Fix,gps,34.486324,109.464215,358.723389,0.425747,3.000000,1627820521999
Raw,1933868470,1869824000000,,,-1311853870175908928,0.0,10.17894881273791,,,0,10,0.0,16431,44539931828037,6,44.36495590209961,-323.7293844380231,0.03212757260526715,4,-745478.8188821306,3.4028234663852886E38,1.57542003E9,,,,0,,1,,1.57542003E9
Raw,1933868471,1869824000000,,,-1311853870175908928,0.0,10.17894881273791,,,0,12,0.0,16431,44539924011302,26,31.00632095336914,-452.6023439490955,0.13206616569825874,4,-936390.0806773864,3.4028234663852886E38,1.57542003E9,,,,0,,1,,1.57542003E9
Raw,1933868471,1869824000000,,,-1311853870175908928,0.0,10.17894881273791,,,0,15,0.0,16,1869015982352,1000000000,21.063213348388672,415.4895821343855,2.99792458E8,2,524294.6153665395,3.4028234663852886E38,1.57542003E9,,,,0,,1,,1.57542003E9
Raw,1933868471,1869824000000,,,-1311853870175908928,0.0,10.17894881273791,,,0,18,0.0,16431,44539920669175,16,35.0641975402832,566.1585111689908,0.08604036268426007,4,1141895.1651285498,3.4028234663852886E38,1.57542003E9,,,,0,,1,,1.57542003E9
Raw,1933868471,1869824000000,,,-1311853870175908928,0.0,10.17894881273791,,,0,23,0.0,16431,44539931229348,28,30.34467124938965,138.10265914973206,0.1437606503462624,1,89413.45123075561,0.0026034896727651358,1.57542003E9,,,,0,,1,,1.57542003E9
Raw,1933868472,1869824000000,,,-1311853870175908928,0.0,10.17894881273791,,,0,24,0.0,16431,44539925658638,34,28.698381423950195,473.55790825968893,0.17233832416955364,4,579343.75123759,3.4028234663852886E38,1.57542003E9,,,,0,,1,,1.57542003E9
Raw,1933868472,1869824000000,,,-1311853870175908928,0.0,10.17894881273791,,,0,25,0.0,16431,44539923457611,15,35.852542877197266,-695.1862731975898,0.07580176308763009,1,-1099512.4763175813,0.001464666216634214,1.57542003E9,,,,0,,1,,1.57542003E9
Raw,1933868472,1869824000000,,,-1311853870175908928,0.0,10.17894881273791,,,0,31,0.0,16431,44539918649218,32,29.33249282836914,-822.9951443335635,0.16261342441078797,4,-837.7479203992717,3.4028234663852886E38,1.57542003E9,,,,0,,1,,1.57542003E9
Raw,1933868473,1869824000000,,,-1311853870175908928,0.0,10.17894881273791,,,0,32,0.0,16431,44539927341682,9,39.51637268066406,-392.2384280471547,0.050627729291696705,4,-525467.5615917258,3.4028234663852886E38,1.57542003E9,,,,0,,1,,1.57542003E9
Raw,1933868480,1869824000000,,,-1311853870175908928,0.0,10.17894881273791,,,0,10,0.0,32995,55321931042177,33,44.68730926513672,-752.9592407546666,0.03198622110864087,1,-1558531.906043211,5.504040163941681E-4,1.59806246E9,,,,0,,3,,1.59806246E9
Raw,1933868480,1869824000000,,,-1311853870175908928,0.0,10.17894881273791,,,0,9,0.0,32995,55321933716136,50,31.502714157104492,-62.70341240319368,0.1265160173852234,1,-406391.96423303994,0.002242294605821371,1.59862502E9,,,,0,,3,,1.59862502E9
Raw,1933868480,1869824000000,,,-1311853870175908928,0.0,10.17894881273791,,,0,16,0.0,32995,55321924427654,60,22.846363067626953,557.7225919427474,4.200796433570556,4,548189.389524252,3.4028234663852886E38,1.60143744E9,,,,0,,3,,1.60143744E9
Raw,1933868481,1869824000000,,,-1311853870175908928,0.0,10.17894881273791,,,0,23,0.0,32961,55321924496783,33,35.19664001464844,31.170155346160428,0.08188561471154754,1,-5042.270082491102,0.0015517090214416385,1.60368755E9,,,,0,,3,,1.60368755E9
Raw,1933868481,1869824000000,,,-1311853870175908928,0.0,10.17894881273791,,,0,7,0.0,32961,55321932946748,73,28.200389862060547,-159.89043184247123,0.1837587096475578,4,-537563.4851861122,3.4028234663852886E38,1.60481254E9,,,,0,,3,,1.60481254E9
Raw,1933868481,1869824000000,,,-1311853870175908928,0.0,10.17894881273791,,,0,8,0.0,32961,55321927886448,54,30.866472244262695,-559.7283445091148,0.13489505951512543,4,-571889.5439293927,3.4028234663852886E38,1.60537498E9,,,,0,,3,,1.60537498E9
Raw,1933868481,1869824000000,,,-1311853870175908928,0.0,10.17894881273791,,,0,193,0.0,35,9521028,21,32.865753173828125,-256.88681958180257,0.10774554546363413,4,-462218.2642609475,3.4028234663852886E38,1.57542003E9,,,,0,,4,,1.57542003E9
Raw,1933868481,1869824000000,,,-1311853870175908928,0.0,10.17894881273791,,,0,194,0.0,35,12453013,29,29.96590232849121,-100.17541183026822,0.15029844101635792,1,-87235.90830939802,0.002719533396884799,1.57542003E9,,,,0,,4,,1.57542003E9
Raw,1933868481,1869824000000,,,-1311853870175908928,0.0,10.17894881273791,,,0,6,0.0,16431,44525878640463,12,31.670818328857422,-80.04860505309756,0.12502407782112673,1,-124620.12361856688,0.0022553540766239166,1.56109798E9,,,,0,,5,,1.56109798E9
Raw,1933868482,1869824000000,,,-1311853870175908928,0.0,10.17894881273791,,,0,14,0.0,16431,44525924320440,33,23.0576171875,142.41430291522084,0.3287572787491453,4,175482.3514733123,3.4028234663852886E38,1.56109798E9,,,,0,,5,,1.56109798E9
Raw,1933868482,1869824000000,,,-1311853870175908928,0.0,10.17894881273791,,,0,16,0.0,16431,44525877997474,17,28.389371871948242,-77.97018868942354,0.1807623990764824,1,-123115.82145120544,0.0032906902488321066,1.56109798E9,,,,0,,5,,1.56109798E9
Raw,1933868482,1869824000000,,,-1311853870175908928,0.0,10.17894881273791,,,0,24,0.0,16431,44525924140384,15,29.805002212524414,49.49875680611288,0.15157145737949873,4,-71513.01968649219,3.4028234663852886E38,1.56109798E9,,,,0,,5,,1.56109798E9
Raw,1933868482,1869824000000,,,-1311853870175908928,0.0,10.17894881273791,,,0,25,0.0,16431,44525923330171,6,42.57959747314453,-565.0608515742172,0.03525263473161394,1,-823829.8937259647,7.181757246144116E-4,1.56109798E9,,,,0,,5,,1.56109798E9
Raw,1933868483,1869824000000,,,-1311853870175908928,0.0,10.17894881273791,,,0,26,0.0,16431,44525914908744,6,38.08002471923828,440.2047140590971,0.060855470097857384,4,693496.7177612833,3.4028234663852886E38,1.56109798E9,,,,0,,5,,1.56109798E9
Raw,1933868483,1869824000000,,,-1311853870175908928,0.0,10.17894881273791,,,0,27,0.0,16431,44525913058821,9,33.80171203613281,136.89079776376462,0.0975502312524611,1,116322.43311437803,0.0018717431230470538,1.56109798E9,,,,0,,5,,1.56109798E9
Raw,1933868483,1869824000000,,,-1311853870175908928,0.0,10.17894881273791,,,0,33,0.0,16431,44525926086628,20,27.11447525024414,-102.28549931666606,0.206686084658129,1,-256293.93069209348,0.003810938447713852,1.56109798E9,,,,0,,5,,1.56109798E9
Fix,gps,34.486324,109.464212,358.681763,0.297917,3.000000,1627820522999
Raw,1933869511,1870824000000,,,-1311853870175909317,0.0,10.072083227190817,,,0,10,0.0,16431,44540931829114,6,44.12244415283203,-323.6040632453887,0.03212776606647666,1,-745802.5044649584,5.958299152553082E-4,1.57542003E9,,,,0,,1,,1.57542003E9
Raw,1933869511,1870824000000,,,-1311853870175909317,0.0,10.072083227190817,,,0,12,0.0,16431,44540924012810,22,32.28961181640625,-452.5137295621362,0.1140264862147975,4,-936842.6180196784,3.4028234663852886E38,1.57542003E9,,,,0,,1,,1.57542003E9
Raw,1933869512,1870824000000,,,-1311853870175909317,0.0,10.072083227190817,,,0,15,0.0,16,1870015980967,1000000000,25.767831802368164,415.4895821343855,2.99792458E8,2,524294.6381108362,3.4028234663852886E38,1.57542003E9,,,,0,,1,,1.57542003E9
Raw,1933869512,1870824000000,,,-1311853870175909317,0.0,10.072083227190817,,,0,18,0.0,16431,44540920667313,16,35.0378532409668,566.1712920901869,0.08629009822322958,4,1142461.3838705556,3.4028234663852886E38,1.57542003E9,,,,0,,1,,1.57542003E9
Raw,1933869512,1870824000000,,,-1311853870175909317,0.0,10.072083227190817,,,0,23,0.0,16431,44540931228840,17,34.67878341674805,138.28408006580298,0.0880773968880913,1,89551.69559155345,0.001676588668487966,1.57542003E9,,,,0,,1,,1.57542003E9
Raw,1933869513,1870824000000,,,-1311853870175909317,0.0,10.072083227190817,,,0,24,0.0,16431,44540925656900,41,27.1700496673584,473.6143147252342,0.20529754074948947,4,579817.2848283466,3.4028234663852886E38,1.57542003E9,,,,0,,1,,1.57542003E9
Raw,1933869513,1870824000000,,,-1311853870175909317,0.0,10.072083227190817,,,0,25,0.0,16431,44540923459973,16,35.362247467041016,-695.2315346998521,0.08016794544028516,1,-1100207.6268927138,0.0015497201820835471,1.57542003E9,,,,0,,1,,1.57542003E9
Raw,1933869513,1870824000000,,,-1311853870175909317,0.0,10.072083227190817,,,0,31,0.0,16431,44540918651987,32,29.329145431518555,-823.0044147617377,0.16267533199783135,4,-1660.6478263387412,3.4028234663852886E38,1.57542003E9,,,,0,,1,,1.57542003E9
Raw,1933869514,1870824000000,,,-1311853870175909317,0.0,10.072083227190817,,,0,32,0.0,16431,44540927342997,8,40.41969299316406,-392.1655597551089,0.04575772402400266,1,-525859.7862007949,8.657271391712129E-4,1.57542003E9,,,,0,,1,,1.57542003E9
Raw,1933869514,1870824000000,,,-1311853870175909317,0.0,10.072083227190817,,,0,10,0.0,32995,55322931044700,33,44.18461608886719,-752.8751252519683,0.03198667459835779,1,-1559284.7792915085,5.831982125528157E-4,1.59806246E9,,,,0,,3,,1.59806246E9
Raw,1933869514,1870824000000,,,-1311853870175909317,0.0,10.072083227190817,,,0,9,0.0,32995,55322933716310,53,30.966325759887695,-62.401071191686896,0.1344180465793141,1,-406454.49619087833,0.0023851306177675724,1.59862502E9,,,,0,,3,,1.59862502E9
Raw,1933869515,1870824000000,,,-1311853870175909317,0.0,10.072083227190817,,,0,16,0.0,32995,55322924425809,64,29.37576675415039,557.9306312573626,0.15926355827876182,4,548747.2720814558,3.4028234663852886E38,1.60143744E9,,,,0,,3,,1.60143744E9
Raw,1933869515,1870824000000,,,-1311853870175909317,0.0,10.072083227190817,,,0,23,0.0,32961,55322924496716,33,35.41360855102539,31.608012665108973,0.07988545879075076,1,-5010.899313313827,0.0015134284039959311,1.60368755E9,,,,0,,3,,1.60368755E9
Raw,1933869515,1870824000000,,,-1311853870175909317,0.0,10.072083227190817,,,0,7,0.0,32961,55322932947431,104,25.155921936035156,-159.3927427710969,0.2599208348023485,4,-537723.2120087858,3.4028234663852886E38,1.60481254E9,,,,0,,3,,1.60481254E9
Raw,1933869516,1870824000000,,,-1311853870175909317,0.0,10.072083227190817,,,0,8,0.0,32961,55322927888268,59,30.013023376464844,-559.6744942278087,0.1486763457430499,4,-572449.2781251527,3.4028234663852886E38,1.60537498E9,,,,0,,3,,1.60537498E9
Raw,1933869516,1870824000000,,,-1311853870175909317,0.0,10.072083227190817,,,0,193,0.0,35,9521863,20,33.05809783935547,-256.845647974323,0.10542345344838727,4,-462475.0854583376,3.4028234663852886E38,1.57542003E9,,,,0,,4,,1.57542003E9
Raw,1933869517,1870824000000,,,-1311853870175909317,0.0,10.072083227190817,,,0,194,0.0,35,12453397,41,27.149866104125977,-100.21620001011189,0.2069953063986809,1,-87336.04382932275,0.0037609380669891834,1.57542003E9,,,,0,,4,,1.57542003E9
Raw,1933869517,1870824000000,,,-1311853870175909317,0.0,10.072083227190817,,,0,6,0.0,16431,44526878640735,11,32.386043548583984,-80.00548222498207,0.1154067092112,1,-124700.12824457132,0.0020770812407135963,1.56109798E9,,,,0,,5,,1.56109798E9
Raw,1933869518,1870824000000,,,-1311853870175909317,0.0,10.072083227190817,,,0,14,0.0,16431,44526924320010,77,19.480775833129883,141.98062921781047,4.20077699591957,4,175623.19305972732,3.4028234663852886E38,1.56109798E9,,,,0,,5,,1.56109798E9
Raw,1933869519,1870824000000,,,-1311853870175909317,0.0,10.072083227190817,,,0,16,0.0,16431,44526877997723,14,30.54606819152832,-77.97133897233118,0.14172944910190932,1,-123193.81060498249,0.002567155519500375,1.56109798E9,,,,0,,5,,1.56109798E9
Raw,1933869519,1870824000000,,,-1311853870175909317,0.0,10.072083227190817,,,0,24,0.0,16431,44526924140143,25,25.229660034179688,49.939886040887615,0.25615910015641463,4,-71463.2677500166,3.4028234663852886E38,1.56109798E9,,,,0,,5,,1.56109798E9
Raw,1933869520,1870824000000,,,-1311853870175909317,0.0,10.072083227190817,,,0,25,0.0,16431,44526923332050,6,40.92170715332031,-564.9665454170186,0.042540763662682224,1,-824394.88122445,8.692111587151885E-4,1.56109798E9,,,,0,,5,,1.56109798E9
Raw,1933869520,1870824000000,,,-1311853870175909317,0.0,10.072083227190817,,,0,26,0.0,16431,44526914907274,9,34.2032356262207,440.33327308510115,0.09358202981119018,1,693936.9817090782,0.001787187298759818,1.56109798E9,,,,0,,5,,1.56109798E9
Raw,1933869520,1870824000000,,,-1311853870175909317,0.0,10.072083227190817,,,0,27,0.0,16431,44526913058376,11,31.936450958251953,137.02129096917633,0.12035537206227054,1,116459.35712092955,0.002320114290341735,1.56109798E9,,,,0,,5,,1.56109798E9
Raw,1933869521,1870824000000,,,-1311853870175909317,0.0,10.072083227190817,,,0,33,0.0,16431,44526926086993,16,29.053180694580078,-102.08247864377381,0.1655583283860631,1,-256395.9561686507,0.003048573387786746,1.56109798E9,,,,0,,5,,1.56109798E9
Fix,gps,34.486324,109.464210,358.482208,0.208395,3.000000,1627820523999
Raw,1933870536,1871824000000,,,-1311853870175909708,0.0,10.575058879733556,,,0,10,0.0,16431,44541931830208,9,39.638004302978516,-323.58545422412726,0.050749430954075275,1,-746126.050091769,9.472519741393626E-4,1.57542003E9,,,,0,,1,,1.57542003E9
Raw,1933870537,1871824000000,,,-1311853870175909708,0.0,10.575058879733556,,,0,12,0.0,16431,44541924014294,26,31.004558563232422,-450.9143762073468,0.13209336676036154,1,-937294.6544596504,0.002413023728877306,1.57542003E9,,,,0,,1,,1.57542003E9
Raw,1933870537,1871824000000,,,-1311853870175909708,0.0,10.575058879733556,,,0,15,0.0,16,1871015979581,1000000000,23.068092346191406,415.4895821343855,2.99792458E8,2,524294.6348616509,3.4028234663852886E38,1.57542003E9,,,,0,,1,,1.57542003E9
Raw,1933870538,1871824000000,,,-1311853870175909708,0.0,10.575058879733556,,,0,18,0.0,16431,44541920665465,18,34.14884948730469,566.2882971634297,0.09518875635959645,1,1143027.6151236643,0.0017820637440308928,1.57542003E9,,,,0,,1,,1.57542003E9
Raw,1933870538,1871824000000,,,-1311853870175909708,0.0,10.575058879733556,,,0,23,0.0,16431,44541931228381,12,37.25885772705078,138.6889626080657,0.06596161037346954,1,89690.11443100832,0.0012457268312573433,1.57542003E9,,,,0,,1,,1.57542003E9
Raw,1933870539,1871824000000,,,-1311853870175909708,0.0,10.575058879733556,,,0,24,0.0,16431,44541925655439,30,29.873289108276367,473.87518184745977,0.15066288033051467,4,580290.9828886169,3.4028234663852886E38,1.57542003E9,,,,0,,1,,1.57542003E9
Raw,1933870540,1871824000000,,,-1311853870175909708,0.0,10.575058879733556,,,0,25,0.0,16431,44541923462253,13,37.08573532104492,-694.8280665795351,0.06585190746653674,1,-1100902.604110706,0.0012708051363006234,1.57542003E9,,,,0,,1,,1.57542003E9
Raw,1933870540,1871824000000,,,-1311853870175909708,0.0,10.575058879733556,,,0,31,0.0,16431,44541918654672,30,29.925966262817383,-823.2378114240059,0.15209629059793617,4,-2483.6294089174216,3.4028234663852886E38,1.57542003E9,,,,0,,1,,1.57542003E9
Raw,1933870540,1871824000000,,,-1311853870175909708,0.0,10.575058879733556,,,0,32,0.0,16431,44541927344306,6,42.788246154785156,-392.66537898001593,0.03515214723498364,1,-526252.1083734842,6.947556394152343E-4,1.57542003E9,,,,0,,1,,1.57542003E9
Raw,1933870541,1871824000000,,,-1311853870175909708,0.0,10.575058879733556,,,0,10,0.0,32995,55323931047202,33,42.576148986816406,-752.5152145110874,0.03665449209983268,1,-1560037.462315258,7.018423057161272E-4,1.59806246E9,,,,0,,3,,1.59806246E9
Raw,1933870541,1871824000000,,,-1311853870175909708,0.0,10.575058879733556,,,0,9,0.0,32995,55323933716486,61,29.674888610839844,-61.9325055794113,0.155570354666012,4,-406516.61213358917,3.4028234663852886E38,1.59862502E9,,,,0,,3,,1.59862502E9
Raw,1933870541,1871824000000,,,-1311853870175909708,0.0,10.575058879733556,,,0,16,0.0,32995,55323924424033,59,29.98056983947754,558.2671614330688,0.14860445306132208,4,549305.3451119652,3.4028234663852886E38,1.60143744E9,,,,0,,3,,1.60143744E9
Raw,1933870542,1871824000000,,,-1311853870175909708,0.0,10.575058879733556,,,0,23,0.0,32961,55323924496601,33,38.83714294433594,30.880492808480128,0.054126514790028696,1,-4979.589726283304,0.0010204346617683768,1.60368755E9,,,,0,,3,,1.60368755E9
Raw,1933870542,1871824000000,,,-1311853870175909708,0.0,10.575058879733556,,,0,7,0.0,32961,55323932947839,119,23.966190338134766,-159.51259372945935,0.29773462135777873,4,-537882.8518082506,3.4028234663852886E38,1.60481254E9,,,,0,,3,,1.60481254E9
Raw,1933870542,1871824000000,,,-1311853870175909708,0.0,10.575058879733556,,,0,8,0.0,32961,55323927890243,42,32.97495651245117,-560.3144605139375,0.10612743590728763,1,-573009.1307547662,0.0020018788054585457,1.60537498E9,,,,0,,3,,1.60537498E9
Raw,1933870543,1871824000000,,,-1311853870175909708,0.0,10.575058879733556,,,0,193,0.0,35,9522784,32,29.213773727416992,-256.0392229705368,0.16316351991877698,1,-462731.72732289386,0.002965519204735756,1.57542003E9,,,,0,,4,,1.57542003E9
Raw,1933870543,1871824000000,,,-1311853870175909708,0.0,10.575058879733556,,,0,194,0.0,35,12453729,25,31.38784408569336,-99.18227460903591,0.12794037450013102,1,-87435.94485276093,0.002448913874104619,1.57542003E9,,,,0,,4,,1.57542003E9
Raw,1933870543,1871824000000,,,-1311853870175909708,0.0,10.575058879733556,,,0,6,0.0,16431,44527878641013,12,31.3269100189209,-80.00922277458545,0.12993825049097485,1,-124780.0883358041,0.0023464439436793327,1.56109798E9,,,,0,,5,,1.56109798E9
Raw,1933870543,1871824000000,,,-1311853870175909708,0.0,10.575058879733556,,,0,14,0.0,16431,44527924319605,21,26.972476959228516,142.26444235389005,0.20975690067737462,4,175765.50443261245,3.4028234663852886E38,1.56109798E9,,,,0,,5,,1.56109798E9
Raw,1933870544,1871824000000,,,-1311853870175909708,0.0,10.575058879733556,,,0,16,0.0,16431,44527877997982,9,34.03366470336914,-78.15004181249441,0.09593001650531863,1,-123271.80807235788,0.0018224206287413836,1.56109798E9,,,,0,,5,,1.56109798E9
Raw,1933870544,1871824000000,,,-1311853870175909708,0.0,10.575058879733556,,,0,24,0.0,16431,44527924140060,166,26.29859161376953,50.274132692006816,0.22658359917948512,4,-71413.49814530635,3.4028234663852886E38,1.56109798E9,,,,1,,5,,1.56109798E9
Raw,1933870545,1871824000000,,,-1311853870175909708,0.0,10.575058879733556,,,0,25,0.0,16431,44527923333940,6,40.03990936279297,-564.9007662759295,0.04702265662090521,1,-824959.7420509447,9.127173689194024E-4,1.56109798E9,,,,0,,5,,1.56109798E9
Raw,1933870545,1871824000000,,,-1311853870175909708,0.0,10.575058879733556,,,0,26,0.0,16431,44527914905797,9,33.664833068847656,440.42410283173444,0.0993946280170932,1,694377.3938410616,0.001901473617181182,1.56109798E9,,,,0,,5,,1.56109798E9
Raw,1933870545,1871824000000,,,-1311853870175909708,0.0,10.575058879733556,,,0,27,0.0,16431,44527913057921,11,32.22223663330078,136.31785462838792,0.1165357821135527,1,116596.14881598583,0.0021166240330785513,1.56109798E9,,,,0,,5,,1.56109798E9
Raw,1933870546,1871824000000,,,-1311853870175909708,0.0,10.575058879733556,,,0,33,0.0,16431,44527926087315,21,26.904754638671875,-101.95968807353626,0.2117106342288011,4,-256497.78305923849,3.4028234663852886E38,1.56109798E9,,,,0,,5,,1.56109798E9
Fix,gps,34.486324,109.464207,358.384033,0.295394,3.000000,1627820524999
Raw,1933871490,1872824000000,,,-1311853870175910095,0.0,10.451604574194446,,,0,10,0.0,16431,44542931831280,10,39.098663330078125,-323.76203543137194,0.053864435177755576,4,-746449.7713287661,3.4028234663852886E38,1.57542003E9,,,,0,,1,,1.57542003E9
Raw,1933871491,1872824000000,,,-1311853870175910095,0.0,10.451604574194446,,,0,12,0.0,16431,44542924015784,27,30.68115997314453,-451.25472361818356,0.13707711889833557,4,-937745.5642769762,3.4028234663852886E38,1.57542003E9,,,,0,,1,,1.57542003E9
Raw,1933871491,1872824000000,,,-1311853870175910095,0.0,10.451604574194446,,,0,15,0.0,16,1872015978256,1000000000,23.596843719482422,415.4895821343855,2.99792458E8,2,524294.6186157247,3.4028234663852886E38,1.57542003E9,,,,0,,1,,1.57542003E9
Raw,1933871491,1872824000000,,,-1311853870175910095,0.0,10.451604574194446,,,0,18,0.0,16431,44542920663578,24,31.742076873779297,565.9343167699838,0.12439389353285646,1,1143593.7462956868,0.002351050265133381,1.57542003E9,,,,0,,1,,1.57542003E9
Raw,1933871492,1872824000000,,,-1311853870175910095,0.0,10.451604574194446,,,0,23,0.0,16431,44542931227910,16,35.1541862487793,138.8428704611086,0.0834936226804383,4,89828.90906283981,3.4028234663852886E38,1.57542003E9,,,,0,,1,,1.57542003E9
Raw,1933871492,1872824000000,,,-1311853870175910095,0.0,10.451604574194446,,,0,24,0.0,16431,44542925653840,26,30.949176788330078,474.4422457590863,0.13322858049594516,4,580765.2479185835,3.4028234663852886E38,1.57542003E9,,,,0,,1,,1.57542003E9
Raw,1933871492,1872824000000,,,-1311853870175910095,0.0,10.451604574194446,,,0,25,0.0,16431,44542923464570,12,37.84174728393555,-694.656154668834,0.06041491107855643,1,-1101597.209845872,0.0011648725485429168,1.57542003E9,,,,0,,1,,1.57542003E9
Raw,1933871493,1872824000000,,,-1311853870175910095,0.0,10.451604574194446,,,0,31,0.0,16431,44542918657497,32,29.30075454711914,-823.3253351723565,0.1631979185699648,4,-3306.9387464299457,3.4028234663852886E38,1.57542003E9,,,,0,,1,,1.57542003E9
Raw,1933871493,1872824000000,,,-1311853870175910095,0.0,10.451604574194446,,,0,32,0.0,16431,44542927345617,6,42.60182189941406,-392.65675611851566,0.03588635540758495,1,-526644.7905309689,7.098282221704721E-4,1.57542003E9,,,,0,,1,,1.57542003E9
Raw,1933871493,1872824000000,,,-1311853870175910095,0.0,10.451604574194446,,,0,10,0.0,32995,55324931049724,33,40.66566467285156,-752.6287090913083,0.04518373501652506,1,-1560790.043588223,8.296312880702317E-4,1.59806246E9,,,,0,,3,,1.59806246E9
Raw,1933871494,1872824000000,,,-1311853870175910095,0.0,10.451604574194446,,,0,9,0.0,32995,55324933716684,72,28.340496063232422,-61.19320171343969,0.1809941697659322,4,-406577.4471247126,3.4028234663852886E38,1.59862502E9,,,,0,,3,,1.59862502E9
Raw,1933871494,1872824000000,,,-1311853870175910095,0.0,10.451604574194446,,,0,16,0.0,32995,55324924422124,53,30.95282745361328,558.6773437973209,0.13295146915571587,4,549863.8074613778,3.4028234663852886E38,1.60143744E9,,,,0,,3,,1.60143744E9
Raw,1933871494,1872824000000,,,-1311853870175910095,0.0,10.451604574194446,,,0,23,0.0,32961,55324924496482,33,39.6416130065918,31.03667140518884,0.04941009692040546,1,-4948.6254537403265,9.301684913225472E-4,1.60368755E9,,,,0,,3,,1.60368755E9
Raw,1933871495,1872824000000,,,-1311853870175910095,0.0,10.451604574194446,,,0,7,0.0,32961,55324932948156,81,27.328598022460938,-159.37680922267248,0.20291404872284569,4,-538042.1141999358,3.4028234663852886E38,1.60481254E9,,,,0,,3,,1.60481254E9
Raw,1933871495,1872824000000,,,-1311853870175910095,0.0,10.451604574194446,,,0,8,0.0,32961,55324927892094,33,35.122493743896484,-560.164940777172,0.08319143211072666,1,-573569.3084429023,0.0015633668517693877,1.60537498E9,,,,0,,3,,1.60537498E9
Raw,1933871495,1872824000000,,,-1311853870175910095,0.0,10.451604574194446,,,0,193,0.0,35,9523609,38,27.76436996459961,-256.5471708613245,0.19248300306799804,4,-462988.33952579286,3.4028234663852886E38,1.57542003E9,,,,0,,4,,1.57542003E9
Raw,1933871495,1872824000000,,,-1311853870175910095,0.0,10.451604574194446,,,0,194,0.0,35,12454077,31,29.65230369567871,-99.65337936432246,0.15574189859269028,4,-87536.35445048512,3.4028234663852886E38,1.57542003E9,,,,0,,4,,1.57542003E9
Raw,1933871495,1872824000000,,,-1311853870175910095,0.0,10.451604574194446,,,0,6,0.0,16431,44528878641282,10,32.65277862548828,-80.2258679094727,0.11201805098632489,1,-124860.25922435617,0.002136451192200184,1.56109798E9,,,,0,,5,,1.56109798E9
Raw,1933871496,1872824000000,,,-1311853870175910095,0.0,10.451604574194446,,,0,14,0.0,16431,44528924319125,17,28.599231719970703,142.89391976402396,0.17406424778575513,4,175908.22819285362,3.4028234663852886E38,1.56109798E9,,,,0,,5,,1.56109798E9
Raw,1933871496,1872824000000,,,-1311853870175910095,0.0,10.451604574194446,,,0,16,0.0,16431,44528877998222,6,37.505126953125,-78.15542684062501,0.06539186919168893,1,-123349.96782739395,0.0012220123317092657,1.56109798E9,,,,0,,5,,1.56109798E9
Raw,1933871496,1872824000000,,,-1311853870175910095,0.0,10.451604574194446,,,0,24,0.0,16431,44528924139881,24,25.59347915649414,50.64626199355112,0.2456816570949334,4,-71362.38641659006,3.4028234663852886E38,1.56109798E9,,,,0,,5,,1.56109798E9
Raw,1933871496,1872824000000,,,-1311853870175910095,0.0,10.451604574194446,,,0,25,0.0,16431,44528923335828,6,40.83053207397461,-564.9494701063006,0.04298402697846021,1,-825524.6576697822,8.783834055066109E-4,1.56109798E9,,,,0,,5,,1.56109798E9
Raw,1933871496,1872824000000,,,-1311853870175910095,0.0,10.451604574194446,,,0,26,0.0,16431,44528914904339,8,34.46038055419922,440.858960894509,0.0909298305656765,1,694818.2393614622,0.001735053607262671,1.56109798E9,,,,0,,5,,1.56109798E9
Raw,1933871496,1872824000000,,,-1311853870175910095,0.0,10.451604574194446,,,0,27,0.0,16431,44528913057459,8,35.09861755371094,136.26431108919058,0.08434565080985962,1,116732.39127407623,0.001612133695743978,1.56109798E9,,,,0,,5,,1.56109798E9
Raw,1933871497,1872824000000,,,-1311853870175910095,0.0,10.451604574194446,,,0,33,0.0,16431,44528926087658,17,28.706668853759766,-101.27879727773768,0.17225211951877817,4,-256599.41574110405,3.4028234663852886E38,1.56109798E9,,,,0,,5,,1.56109798E9
Fix,gps,34.486324,109.464201,358.328278,0.543813,3.000000,1627820525999
Raw,1933872530,1873824000000,,,-1311853870175910481,0.0,10.289870320043443,,,0,10,0.0,16431,44543931832370,10,39.405906677246094,-323.1437115051351,0.052066564793896736,4,-746773.202898882,3.4028234663852886E38,1.57542003E9,,,,0,,1,,1.57542003E9
Raw,1933872530,1873824000000,,,-1311853870175910481,0.0,10.289870320043443,,,0,12,0.0,16431,44543924017283,32,29.277339935302734,-451.0443666965248,0.1609959722065082,4,-938196.131628386,3.4028234663852886E38,1.57542003E9,,,,0,,1,,1.57542003E9
Raw,1933872530,1873824000000,,,-1311853870175910481,0.0,10.289870320043443,,,0,15,0.0,16,1873015976809,1000000000,18.991363525390625,415.30393499370575,2.99792458E8,2,524294.6124108306,3.4028234663852886E38,1.57542003E9,,,,0,,1,,1.57542003E9
Raw,1933872530,1873824000000,,,-1311853870175910481,0.0,10.289870320043443,,,0,18,0.0,16431,44543920661667,15,35.86113357543945,566.0072873093991,0.07882202956503587,1,1144159.8860793668,0.001463217893615365,1.57542003E9,,,,0,,1,,1.57542003E9
Raw,1933872530,1873824000000,,,-1311853870175910481,0.0,10.289870320043443,,,0,23,0.0,16431,44543931227448,16,35.335227966308594,138.9252733203666,0.08181293154315722,4,89967.84592072148,3.4028234663852886E38,1.57542003E9,,,,0,,1,,1.57542003E9
Raw,1933872530,1873824000000,,,-1311853870175910481,0.0,10.289870320043443,,,0,24,0.0,16431,44543925652266,30,29.701799392700195,474.8262187142723,0.15364616035302692,4,581238.8986556554,3.4028234663852886E38,1.57542003E9,,,,0,,1,,1.57542003E9
Raw,1933872531,1873824000000,,,-1311853870175910481,0.0,10.289870320043443,,,0,25,0.0,16431,44543923466887,11,38.634971618652344,-694.3369383810414,0.05519685453335643,1,-1102291.586559582,0.0010632051853463054,1.57542003E9,,,,0,,1,,1.57542003E9
Raw,1933872531,1873824000000,,,-1311853870175910481,0.0,10.289870320043443,,,0,31,0.0,16431,44543918660145,38,27.88745880126953,-823.7211688224124,0.19144204030532308,4,-4130.389308165373,3.4028234663852886E38,1.57542003E9,,,,0,,1,,1.57542003E9
Raw,1933872531,1873824000000,,,-1311853870175910481,0.0,10.289870320043443,,,0,32,0.0,16431,44543927346906,6,43.54078674316406,-393.0460800193757,0.03234490027130155,1,-527037.6214242949,6.370962946675718E-4,1.57542003E9,,,,0,,1,,1.57542003E9
Raw,1933872531,1873824000000,,,-1311853870175910481,0.0,10.289870320043443,,,0,10,0.0,32995,55325931052232,33,40.96269607543945,-752.5495696272624,0.043731985458533185,1,-1561542.4111212827,8.451081230305135E-4,1.59806246E9,,,,0,,3,,1.59806246E9
Raw,1933872531,1873824000000,,,-1311853870175910481,0.0,10.289870320043443,,,0,9,0.0,32995,55325933716920,55,30.629060745239258,-61.452454179287514,0.1396424644619193,4,-406639.1671910729,3.4028234663852886E38,1.59862502E9,,,,0,,3,,1.59862502E9
Raw,1933872531,1873824000000,,,-1311853870175910481,0.0,10.289870320043443,,,0,16,0.0,32995,55325924420253,42,32.952735900878906,559.2483271914475,0.10577150888634934,4,550422.5915315066,3.4028234663852886E38,1.60143744E9,,,,0,,3,,1.60143744E9
Raw,1933872531,1873824000000,,,-1311853870175910481,0.0,10.289870320043443,,,0,23,0.0,32961,55325924496392,33,39.68727111816406,30.757425318283325,0.049155281464515255,1,-4917.783896266206,9.252918534912169E-4,1.60368755E9,,,,0,,3,,1.60368755E9
Raw,1933872532,1873824000000,,,-1311853870175910481,0.0,10.289870320043443,,,0,7,0.0,32961,55325932948699,74,28.04261589050293,-159.27960605666942,0.18708472804511267,4,-538202.67946203,3.4028234663852886E38,1.60481254E9,,,,0,,3,,1.60481254E9
Raw,1933872532,1873824000000,,,-1311853870175910481,0.0,10.289870320043443,,,0,8,0.0,32961,55325927893929,33,36.97923278808594,-560.3048833436546,0.06745379124402107,1,-574129.5766819128,0.001262478530406952,1.60537498E9,,,,0,,3,,1.60537498E9
Raw,1933872532,1873824000000,,,-1311853870175910481,0.0,10.289870320043443,,,0,193,0.0,35,9524472,37,27.974685668945312,-255.97862436283924,0.18791941539343204,4,-463244.46283707593,3.4028234663852886E38,1.57542003E9,,,,0,,4,,1.57542003E9
Raw,1933872532,1873824000000,,,-1311853870175910481,0.0,10.289870320043443,,,0,194,0.0,35,12454360,33,29.066362380981445,-99.4612054332186,0.16645427429027138,4,-87635.7199182365,3.4028234663852886E38,1.57542003E9,,,,0,,4,,1.57542003E9
Raw,1933872532,1873824000000,,,-1311853870175910481,0.0,10.289870320043443,,,0,6,0.0,16431,44529878641548,9,33.551292419433594,-79.63324215545407,0.10133911703502435,4,-124940.32628197216,3.4028234663852886E38,1.56109798E9,,,,0,,5,,1.56109798E9
Raw,1933872532,1873824000000,,,-1311853870175910481,0.0,10.289870320043443,,,0,14,0.0,16431,44529924318655,18,28.04448699951172,143.40532702414873,0.18549260469768236,4,176051.2954535358,3.4028234663852886E38,1.56109798E9,,,,0,,5,,1.56109798E9
Raw,1933872533,1873824000000,,,-1311853870175910481,0.0,10.289870320043443,,,0,16,0.0,16431,44529877998497,6,36.78662872314453,-78.18184926504432,0.07075197619014312,1,-123428.10907557109,0.0013273960212245584,1.56109798E9,,,,0,,5,,1.56109798E9
Raw,1933872533,1873824000000,,,-1311853870175910481,0.0,10.289870320043443,,,0,24,0.0,16431,44529924139742,23,26.18235206604004,50.654991362728026,0.22962620730624728,4,-71311.40972588661,3.4028234663852886E38,1.56109798E9,,,,0,,5,,1.56109798E9
Raw,1933872533,1873824000000,,,-1311853870175910481,0.0,10.289870320043443,,,0,25,0.0,16431,44529923337704,6,41.817596435546875,-565.0644643146086,0.03843144371032767,1,-826089.444381968,7.840264006517828E-4,1.56109798E9,,,,0,,5,,1.56109798E9
Raw,1933872534,1873824000000,,,-1311853870175910481,0.0,10.289870320043443,,,0,26,0.0,16431,44529914902859,11,31.940670013427734,441.2184626459116,0.12062982903149622,4,695259.3569551364,3.4028234663852886E38,1.56109798E9,,,,0,,5,,1.56109798E9
Raw,1933872534,1873824000000,,,-1311853870175910481,0.0,10.289870320043443,,,0,27,0.0,16431,44529913057006,9,34.16658020019531,135.82648785269856,0.09363363610888414,1,116868.42587476011,0.0017947457963600755,1.56109798E9,,,,0,,5,,1.56109798E9
Raw,1933872534,1873824000000,,,-1311853870175910481,0.0,10.289870320043443,,,0,33,0.0,16431,44529926088010,15,29.54945945739746,-101.32252506945645,0.15642511205464704,4,-256700.9570305169,3.4028234663852886E38,1.56109798E9,,,,0,,5,,1.56109798E9
Fix,gps,34.486324,109.464193,358.371643,0.774764,4.000000,1627820526999
Raw,1933873525,1874824000000,,,-1311853870175910867,0.0,10.158520486814576,,,0,10,0.0,16431,44544931833448,8,40.952457427978516,-323.4208359591221,0.04392172722027382,4,-747096.5543749133,3.4028234663852886E38,1.57542003E9,,,,0,,1,,1.57542003E9
Raw,1933873531,1874824000000,,,-1311853870175910867,0.0,10.158520486814576,,,0,12,0.0,16431,44544924018769,33,29.081710815429688,-451.2550644427488,0.16464698879421635,4,-938647.2898882609,3.4028234663852886E38,1.57542003E9,,,,0,,1,,1.57542003E9
Raw,1933873531,1874824000000,,,-1311853870175910867,0.0,10.158520486814576,,,0,15,0.0,16,1874015975424,1000000000,22.158525466918945,415.30393499370575,2.99792458E8,2,524294.609163097,3.4028234663852886E38,1.57542003E9,,,,0,,1,,1.57542003E9
Raw,1933873531,1874824000000,,,-1311853870175910867,0.0,10.158520486814576,,,0,18,0.0,16431,44544920659779,13,37.12248611450195,566.5081630904583,0.06866991336974129,1,1144726.0749776445,0.0012654396705329418,1.57542003E9,,,,0,,1,,1.57542003E9
Raw,1933873532,1874824000000,,,-1311853870175910867,0.0,10.158520486814576,,,0,23,0.0,16431,44544931227002,16,35.136688232421875,139.24834092574633,0.08365774435340118,4,90106.91392737573,3.4028234663852886E38,1.57542003E9,,,,0,,1,,1.57542003E9
Raw,1933873532,1874824000000,,,-1311853870175910867,0.0,10.158520486814576,,,0,24,0.0,16431,44544925650691,36,28.242332458496094,474.33716954562647,0.18157235667363336,4,581712.9249413405,3.4028234663852886E38,1.57542003E9,,,,0,,1,,1.57542003E9
Raw,1933873532,1874824000000,,,-1311853870175910867,0.0,10.158520486814576,,,0,25,0.0,16431,44544923469181,11,37.974483489990234,-694.0814562869464,0.059508955116927026,1,-1102985.8741145579,0.0011472062906250358,1.57542003E9,,,,0,,1,,1.57542003E9
Raw,1933873533,1874824000000,,,-1311853870175910867,0.0,10.158520486814576,,,0,31,0.0,16431,44544918662893,53,24.967479705810547,-823.7065815310207,0.2665985166489727,4,-4953.812891738894,3.4028234663852886E38,1.57542003E9,,,,0,,1,,1.57542003E9
Raw,1933873533,1874824000000,,,-1311853870175910867,0.0,10.158520486814576,,,0,32,0.0,16431,44544927348214,6,43.89983367919922,-392.86741978228315,0.03132176298286633,1,-527430.424018104,6.112978444434702E-4,1.57542003E9,,,,0,,1,,1.57542003E9
Raw,1933873533,1874824000000,,,-1311853870175910867,0.0,10.158520486814576,,,0,10,0.0,32995,55326931054719,33,42.05707931518555,-751.8985265427636,0.03879072405889747,1,-1562294.6101798555,7.450631237588823E-4,1.59806246E9,,,,0,,3,,1.59806246E9
Raw,1933873534,1874824000000,,,-1311853870175910867,0.0,10.158520486814576,,,0,9,0.0,32995,55326933717064,56,30.44058609008789,-62.15707914574716,0.14265158923783972,4,-406700.720512924,3.4028234663852886E38,1.59862502E9,,,,0,,3,,1.59862502E9
Raw,1933873534,1874824000000,,,-1311853870175910867,0.0,10.158520486814576,,,0,16,0.0,32995,55326924418402,44,32.63676452636719,558.6742763762338,0.10966027057849348,4,550981.3411741061,3.4028234663852886E38,1.60143744E9,,,,0,,3,,1.60143744E9
Raw,1933873534,1874824000000,,,-1311853870175910867,0.0,10.158520486814576,,,0,23,0.0,32961,55326924496297,33,39.940650939941406,30.95135662605165,0.047765298038058734,1,-4886.802491829185,8.986897300928831E-4,1.60368755E9,,,,0,,3,,1.60368755E9
Raw,1933873535,1874824000000,,,-1311853870175910867,0.0,10.158520486814576,,,0,7,0.0,32961,55326932949257,64,29.343069076538086,-159.0426818601511,0.16139434420076748,4,-538361.7585370648,3.4028234663852886E38,1.60481254E9,,,,0,,3,,1.60481254E9
Raw,1933873535,1874824000000,,,-1311853870175910867,0.0,10.158520486814576,,,0,8,0.0,32961,55326927895822,33,37.51543426513672,-560.3287069807641,0.06350097932993251,1,-574689.9115826898,0.0011868991423398256,1.60537498E9,,,,0,,3,,1.60537498E9
Raw,1933873535,1874824000000,,,-1311853870175910867,0.0,10.158520486814576,,,0,193,0.0,35,9525282,43,26.771223068237305,-256.0281291309386,0.21559190709993192,4,-463500.56080409326,3.4028234663852886E38,1.57542003E9,,,,0,,4,,1.57542003E9
Raw,1933873536,1874824000000,,,-1311853870175910867,0.0,10.158520486814576,,,0,194,0.0,35,12454680,33,28.909072875976562,-99.15247802142085,0.16945507815395477,4,-87734.76171121927,3.4028234663852886E38,1.57542003E9,,,,0,,4,,1.57542003E9
Raw,1933873536,1874824000000,,,-1311853870175910867,0.0,10.158520486814576,,,0,6,0.0,16431,44530878641804,10,33.04786682128906,-81.14500359697985,0.10718613053393966,4,-125020.46833764193,3.4028234663852886E38,1.56109798E9,,,,0,,5,,1.56109798E9
Raw,1933873537,1874824000000,,,-1311853870175910867,0.0,10.158520486814576,,,0,14,0.0,16431,44530924318172,17,28.839458465576172,143.00116021347299,0.1693371042602584,4,176194.3704934743,3.4028234663852886E38,1.56109798E9,,,,0,,5,,1.56109798E9
Raw,1933873537,1874824000000,,,-1311853870175910867,0.0,10.158520486814576,,,0,16,0.0,16431,44530877998753,7,36.40406036376953,-78.48790972461916,0.07379212132688312,4,-123506.28535659888,3.4028234663852886E38,1.56109798E9,,,,0,,5,,1.56109798E9
Raw,1933873538,1874824000000,,,-1311853870175910867,0.0,10.158520486814576,,,0,24,0.0,16431,44530924139525,26,25.08435821533203,50.30982554460033,0.26046763522909167,4,-71261.15251858455,3.4028234663852886E38,1.56109798E9,,,,0,,5,,1.56109798E9
Raw,1933873538,1874824000000,,,-1311853870175910867,0.0,10.158520486814576,,,0,25,0.0,16431,44530923339595,6,40.196739196777344,-564.2830899163666,0.04619301590585759,1,-826654.1060651215,8.963858126662672E-4,1.56109798E9,,,,0,,5,,1.56109798E9
Raw,1933873538,1874824000000,,,-1311853870175910867,0.0,10.158520486814576,,,0,26,0.0,16431,44530914901380,12,31.486331939697266,441.08676803390745,0.12696340787347093,4,695700.3874729185,3.4028234663852886E38,1.56109798E9,,,,0,,5,,1.56109798E9
Raw,1933873539,1874824000000,,,-1311853870175910867,0.0,10.158520486814576,,,0,27,0.0,16431,44530913056563,9,33.82080841064453,136.21525791364013,0.09734076892871873,4,117004.5189141093,3.4028234663852886E38,1.56109798E9,,,,0,,5,,1.56109798E9
Raw,1933873539,1874824000000,,,-1311853870175910867,0.0,10.158520486814576,,,0,33,0.0,16431,44530926088351,18,28.217954635620117,-101.4125112752908,0.18215854829890654,4,-256802.43741298132,3.4028234663852886E38,1.56109798E9,,,,0,,5,,1.56109798E9
Raw,1933874520,1875824000000,,,-1311853870175911255,0.0,10.274258997667335,,,0,10,0.0,16431,44545931834516,7,41.66282653808594,-323.42359663810043,0.04063995111308316,4,-747420.0042214536,3.4028234663852886E38,1.57542003E9,,,,0,,1,,1.57542003E9
Raw,1933874520,1875824000000,,,-1311853870175911255,0.0,10.274258997667335,,,0,12,0.0,16431,44545924020269,32,29.281265258789062,-451.34378107707767,0.1609241294502538,4,-939098.5385219854,3.4028234663852886E38,1.57542003E9,,,,0,,1,,1.57542003E9
Raw,1933874521,1875824000000,,,-1311853870175911255,0.0,10.274258997667335,,,0,15,0.0,16,1875015974039,1000000000,21.947364807128906,415.30393499370575,2.99792458E8,2,524294.6318972317,3.4028234663852886E38,1.57542003E9,,,,0,,1,,1.57542003E9
Raw,1933874521,1875824000000,,,-1311853870175911255,0.0,10.274258997667335,,,0,18,0.0,16431,44545920657849,12,37.2989387512207,566.0958335314454,0.06736336789074143,4,1145292.2383418318,3.4028234663852886E38,1.57542003E9,,,,0,,1,,1.57542003E9
Raw,1933874521,1875824000000,,,-1311853870175911255,0.0,10.274258997667335,,,0,23,0.0,16431,44545931226543,16,34.98326110839844,139.34804063168968,0.0851125393652718,4,90246.09058437875,3.4028234663852886E38,1.57542003E9,,,,0,,1,,1.57542003E9
Raw,1933874522,1875824000000,,,-1311853870175911255,0.0,10.274258997667335,,,0,24,0.0,16431,44545925649158,42,26.966594696044922,474.2989631118644,0.21013763233769145,4,582187.4477744391,3.4028234663852886E38,1.57542003E9,,,,0,,1,,1.57542003E9
Raw,1933874523,1875824000000,,,-1311853870175911255,0.0,10.274258997667335,,,0,25,0.0,16431,44545923471526,11,38.18791961669922,-694.2847240576484,0.05808005478393799,1,-1103680.093420912,0.0011193599784746766,1.57542003E9,,,,0,,1,,1.57542003E9
Raw,1933874523,1875824000000,,,-1311853870175911255,0.0,10.274258997667335,,,0,31,0.0,16431,44545918665660,60,22.830490112304688,-823.2022293393961,4.203357410655215,4,-5777.334397228752,3.4028234663852886E38,1.57542003E9,,,,0,,1,,1.57542003E9
Raw,1933874524,1875824000000,,,-1311853870175911255,0.0,10.274258997667335,,,0,32,0.0,16431,44545927349551,7,42.2668571472168,-392.6790801275381,0.03724606735532321,1,-527823.2338003321,7.377372239716351E-4,1.57542003E9,,,,0,,1,,1.57542003E9
Raw,1933874524,1875824000000,,,-1311853870175911255,0.0,10.274258997667335,,,0,10,0.0,32995,55327931057241,33,42.29973602294922,-751.9593296452003,0.03777727023207808,1,-1563046.7311056738,7.245363085530698E-4,1.59806246E9,,,,0,,3,,1.59806246E9
Raw,1933874525,1875824000000,,,-1311853870175911255,0.0,10.274258997667335,,,0,9,0.0,32995,55327933717293,63,29.40802764892578,-61.10529453745323,0.1603473737394574,4,-406761.0033463382,3.4028234663852886E38,1.59862502E9,,,,0,,3,,1.59862502E9
Raw,1933874525,1875824000000,,,-1311853870175911255,0.0,10.274258997667335,,,0,16,0.0,32995,55327924416482,47,32.05978012084961,557.7193200269212,0.11713721765004409,4,551540.2859591172,3.4028234663852886E38,1.60143744E9,,,,0,,3,,1.60143744E9
Raw,1933874526,1875824000000,,,-1311853870175911255,0.0,10.274258997667335,,,0,23,0.0,32961,55327924496190,33,39.600093841552734,31.427825107933472,0.04964291604479712,1,-4855.713314495041,9.346255101263523E-4,1.60368755E9,,,,0,,3,,1.60368755E9
Raw,1933874527,1875824000000,,,-1311853870175911255,0.0,10.274258997667335,,,0,7,0.0,32961,55327932949733,64,29.273357391357422,-159.16231128254617,0.16267623065635295,4,-538520.8265607115,3.4028234663852886E38,1.60481254E9,,,,0,,3,,1.60481254E9
Raw,1933874527,1875824000000,,,-1311853870175911255,0.0,10.274258997667335,,,0,8,0.0,32961,55327927897701,33,37.03392028808594,-560.0162049369064,0.06704003804349165,1,-575250.2578768242,0.0012545546051114798,1.60537498E9,,,,0,,3,,1.60537498E9
