# 
# Header Description:
# 
# Version: v2.0.0.1 Platform: 10 Manufacturer: HUAWEI Model: BLA-AL00
# 
# Raw,ElapsedRealtimeMillis,TimeNanos,LeapSecond,TimeUncertaintyNanos,FullBiasNanos,BiasNanos,BiasUncertaintyNanos,DriftNanosPerSecond,DriftUncertaintyNanosPerSecond,HardwareClockDiscontinuityCount,Svid,TimeOffsetNanos,State,ReceivedSvTimeNanos,ReceivedSvTimeUncertaintyNanos,Cn0DbHz,PseudorangeRateMetersPerSecond,PseudorangeRateUncertaintyMetersPerSecond,AccumulatedDeltaRangeState,AccumulatedDeltaRangeMeters,AccumulatedDeltaRangeUncertaintyMeters,CarrierFrequencyHz,CarrierCycles,CarrierPhase,CarrierPhaseUncertainty,MultipathIndicator,SnrInDb,ConstellationType,AgcDb,CarrierFrequencyHz
# 
# Fix,Provider,Latitude,Longitude,Altitude,Speed,Accuracy,(UTC)TimeInMs
# 
# Nav,Svid,Type,Status,MessageId,Sub-messageId,Data(Bytes)
# 
Fix,gps,34.486395,109.464215,356.333801,0.000000,3.000000,1627951803999
Raw,2065151115,1405291000000,,,-1311985616708657969,0.0,9.309384636649527,,,0,1,0.0,16431,175821925540900,66,21.75640296936035,491.1172921076104,4.200996668002627,4,578307.9891813055,3.4028234663852886E38,1.57542003E9,,,,0,,1,,1.57542003E9
Raw,2065151115,1405291000000,,,-1311985616708657969,0.0,9.309384636649527,,,0,3,0.0,16431,175821925862646,32,29.124370574951172,-200.8327325545407,0.16417555919051607,4,-45427.56265098127,3.4028234663852886E38,1.57542003E9,,,,0,,1,,1.57542003E9
Raw,2065151115,1405291000000,,,-1311985616708657969,0.0,9.309384636649527,,,0,6,0.0,16431,175821924137015,6,44.90037536621094,-655.0075558414574,0.030744146057653396,1,-557088.9809819343,5.447857547551394E-4,1.57542003E9,,,,0,,1,,1.57542003E9
Raw,2065151116,1405291000000,,,-1311985616708657969,0.0,9.309384636649527,,,0,7,0.0,16,1405015323429,1000000000,7.0,530.5939449418295,2.99792458E8,2,7.944418802906132,3.4028234663852886E38,1.57542003E9,,,,0,,1,,1.57542003E9
Raw,2065151116,1405291000000,,,-1311985616708657969,0.0,9.309384636649527,,,0,14,0.0,16431,175821932405145,13,37.129486083984375,-89.77590003637613,0.06713279541265377,4,-226822.8906506246,3.4028234663852886E38,1.57542003E9,,,,0,,1,,1.57542003E9
Raw,2065151116,1405291000000,,,-1311985616708657969,0.0,9.309384636649527,,,0,17,0.0,16431,175821929365642,12,37.890357971191406,-192.91636629553102,0.06114267054417405,4,-47189.36329719206,3.4028234663852886E38,1.57542003E9,,,,0,,1,,1.57542003E9
Raw,2065151117,1405291000000,,,-1311985616708657969,0.0,9.309384636649527,,,0,19,0.0,16431,175821927360995,6,43.276344299316406,-444.89255145907055,0.03330647737077927,1,-545642.1184412207,6.56791147775948E-4,1.57542003E9,,,,0,,1,,1.57542003E9
Raw,2065151117,1405291000000,,,-1311985616708657969,0.0,9.309384636649527,,,0,21,0.0,16431,175821915974634,17,34.425621032714844,476.443976595584,0.09147624823045675,1,614731.5144088257,0.0017261744942516088,1.57542003E9,,,,0,,1,,1.57542003E9
Raw,2065151117,1405291000000,,,-1311985616708657969,0.0,9.309384636649527,,,0,22,0.0,16431,175821922782648,54,24.737571716308594,132.16558895021393,0.27080285725861786,4,13029.157463532121,3.4028234663852886E38,1.57542003E9,,,,0,,1,,1.57542003E9
Raw,2065151118,1405291000000,,,-1311985616708657969,0.0,9.309384636649527,,,0,24,0.0,16,1405016313069,1000000000,7.0,-408.06349201245644,2.99792458E8,2,-524294.5182705501,3.4028234663852886E38,1.57542003E9,,,,0,,1,,1.57542003E9
Raw,2065151118,1405291000000,,,-1311985616708657969,0.0,9.309384636649527,,,0,30,0.0,16431,175821921498756,12,37.88777160644531,483.1974835204919,0.059745310629019416,4,16431.39843126678,3.4028234663852886E38,1.57542003E9,,,,0,,1,,1.57542003E9
Raw,2065151118,1405291000000,,,-1311985616708657969,0.0,9.309384636649527,,,0,10,0.0,16,1405001209740,1000000000,7.0,-860.2754895869962,2.99792458E8,2,-524288.8732395275,3.4028234663852886E38,1.59806246E9,,,,0,,3,,1.59806246E9
Raw,2065151119,1405291000000,,,-1311985616708657969,0.0,9.309384636649527,,,0,2,0.0,32995,13803919989286,60,22.78069496154785,-31.825036967325033,4.203595721581683,4,-5614.770653141064,3.4028234663852886E38,1.59975002E9,,,,0,,3,,1.59975002E9
Raw,2065151119,1405291000000,,,-1311985616708657969,0.0,9.309384636649527,,,0,18,0.0,32995,13803928230437,68,21.367414474487305,375.93348309401176,4.201480745392928,4,44819.35154871255,3.4028234663852886E38,1.60031245E9,,,,0,,3,,1.60031245E9
Raw,2065151119,1405291000000,,,-1311985616708657969,0.0,9.309384636649527,,,0,16,0.0,32995,13803932847033,34,34.67538070678711,365.77316197999676,0.08840219537635091,4,22463.175850592976,3.4028234663852886E38,1.60143744E9,,,,0,,3,,1.60143744E9
Raw,2065151120,1405291000000,,,-1311985616708657969,0.0,9.309384636649527,,,0,19,0.0,99,1933162335,57,30.30376625061035,-27.943230492734273,0.14477746582162554,4,-1055.7387567198869,3.4028234663852886E38,1.60368755E9,,,,0,,3,,1.60368755E9
Raw,2065151120,1405291000000,,,-1311985616708657969,0.0,9.309384636649527,,,0,3,0.0,32995,13803922072335,63,29.461156845092773,-520.2070095743943,0.15728995438891336,4,-638153.2844938439,3.4028234663852886E38,1.60481254E9,,,,0,,3,,1.60481254E9
Raw,2065151120,1405291000000,,,-1311985616708657969,0.0,9.309384636649527,,,0,193,0.0,35,11212231,25,31.24620246887207,-181.04846298603843,0.1297836645834356,4,-11541.196490220555,3.4028234663852886E38,1.57542003E9,,,,0,,4,,1.57542003E9
Raw,2065151121,1405291000000,,,-1311985616708657969,0.0,9.309384636649527,,,0,194,0.0,35,15676234,8,40.493438720703125,-152.04076495087668,0.04688097644824557,4,-37081.267292880235,3.4028234663852886E38,1.57542003E9,,,,0,,4,,1.57542003E9
Raw,2065151121,1405291000000,,,-1311985616708657969,0.0,9.309384636649527,,,0,195,0.0,1,807621,30,29.79966926574707,-119.38045005016534,0.15232373441302272,4,-37055.61183162014,3.4028234663852886E38,1.57542003E9,,,,0,,4,,1.57542003E9
Raw,2065151121,1405291000000,,,-1311985616708657969,0.0,9.309384636649527,,,0,7,0.0,16431,175807879664537,12,31.67442512512207,-101.62361801099308,0.1251577615971266,4,-145873.71929351264,3.4028234663852886E38,1.56109798E9,,,,0,,5,,1.56109798E9
Raw,2065151122,1405291000000,,,-1311985616708657969,0.0,9.309384636649527,,,0,8,0.0,16431,175807877916760,6,37.12474822998047,-209.67378994147077,0.06815960014315744,4,-299225.96841355757,3.4028234663852886E38,1.56109798E9,,,,0,,5,,1.56109798E9
Raw,2065151122,1405291000000,,,-1311985616708657969,0.0,9.309384636649527,,,0,10,0.0,16431,175807880214327,8,34.68641662597656,-165.61297854002066,0.08961805539333567,4,-203013.6235960959,3.4028234663852886E38,1.56109798E9,,,,0,,5,,1.56109798E9
Raw,2065151122,1405291000000,,,-1311985616708657969,0.0,9.309384636649527,,,0,30,0.0,16431,175807924237794,6,40.63135528564453,-322.81205512071165,0.04412940886879746,4,-78284.45404851896,3.4028234663852886E38,1.56109798E9,,,,0,,5,,1.56109798E9
Raw,2065151123,1405291000000,,,-1311985616708657969,0.0,9.309384636649527,,,0,32,0.0,16431,175807912796283,7,36.51667404174805,-648.9051601659612,0.07194749157670838,1,-155285.25960473332,0.001369298784993589,1.56109798E9,,,,0,,5,,1.56109798E9
Raw,2065151123,1405291000000,,,-1311985616708657969,0.0,9.309384636649527,,,0,33,0.0,16431,175807910824636,16,29.253692626953125,9.837957524377835,0.1626574253946973,4,-2087.6341287900414,3.4028234663852886E38,1.56109798E9,,,,0,,5,,1.56109798E9
Raw,2065151123,1405291000000,,,-1311985616708657969,0.0,9.309384636649527,,,0,36,0.0,16431,175807920503504,6,39.32709503173828,-340.22880388808517,0.05408147369208974,1,-119447.09592137793,9.907798375934362E-4,1.56109798E9,,,,0,,5,,1.56109798E9
Fix,gps,34.486395,109.464215,356.481567,0.000000,3.000000,1627951804999
Raw,2065152130,1406291000000,,,-1311985616708658355,0.0,9.116112012072168,,,0,1,0.0,16431,175822925539253,166,21.683727264404297,491.2748893865719,4.200996401733436,4,578799.6241754075,3.4028234663852886E38,1.57542003E9,,,,1,,1,,1.57542003E9
Raw,2065152130,1406291000000,,,-1311985616708658355,0.0,9.116112012072168,,,0,3,0.0,16431,175822925863327,35,28.39495086669922,-200.74975881413593,0.17846581065724199,4,-45628.3660154737,3.4028234663852886E38,1.57542003E9,,,,0,,1,,1.57542003E9
Raw,2065152131,1406291000000,,,-1311985616708658355,0.0,9.116112012072168,,,0,6,0.0,16431,175822924139201,6,45.16944885253906,-655.0271191715015,0.030744539220756595,1,-557743.9546279062,5.281679332256317E-4,1.57542003E9,,,,0,,1,,1.57542003E9
Raw,2065152131,1406291000000,,,-1311985616708658355,0.0,9.116112012072168,,,0,7,0.0,16,1406015321722,1000000000,7.0,530.22265066047,2.99792458E8,2,7.951299030684783,3.4028234663852886E38,1.57542003E9,,,,0,,1,,1.57542003E9
Raw,2065152131,1406291000000,,,-1311985616708658355,0.0,9.116112012072168,,,0,14,0.0,16431,175822932405442,10,39.21786880493164,-89.75003145187532,0.05326253367017891,1,-226912.61892542487,9.941967437043786E-4,1.57542003E9,,,,0,,1,,1.57542003E9
Raw,2065152132,1406291000000,,,-1311985616708658355,0.0,9.116112012072168,,,0,17,0.0,16431,175822929366316,14,36.23639678955078,-192.8986263769109,0.07361449481335958,4,-47382.25638586159,3.4028234663852886E38,1.57542003E9,,,,0,,1,,1.57542003E9
Raw,2065152132,1406291000000,,,-1311985616708658355,0.0,9.116112012072168,,,0,19,0.0,16431,175822927362482,7,42.427696228027344,-444.8847124940703,0.036589297752455674,1,-546086.9724039368,7.24201847333461E-4,1.57542003E9,,,,0,,1,,1.57542003E9
Raw,2065152132,1406291000000,,,-1311985616708658355,0.0,9.116112012072168,,,0,21,0.0,16431,175822915973010,17,34.67591857910156,476.4122799110178,0.08895914731602322,1,615207.9701784763,0.0016771419905126095,1.57542003E9,,,,0,,1,,1.57542003E9
Raw,2065152132,1406291000000,,,-1311985616708658355,0.0,9.116112012072168,,,0,22,0.0,16431,175822922782199,62,22.390785217285156,132.4327528062821,4.200500342229514,4,13161.456883274877,3.4028234663852886E38,1.57542003E9,,,,0,,1,,1.57542003E9
Raw,2065152133,1406291000000,,,-1311985616708658355,0.0,9.116112012072168,,,0,24,0.0,16,1406016314431,1000000000,7.0,-408.2491391531362,2.99792458E8,2,-524294.5308135686,3.4028234663852886E38,1.57542003E9,,,,0,,1,,1.57542003E9
Raw,2065152133,1406291000000,,,-1311985616708658355,0.0,9.116112012072168,,,0,30,0.0,16431,175822921497127,13,37.116973876953125,483.0787061595099,0.06526424720025373,1,16914.590570270786,0.0012662429362535477,1.57542003E9,,,,0,,1,,1.57542003E9
Raw,2065152133,1406291000000,,,-1311985616708658355,0.0,9.116112012072168,,,0,10,0.0,16,1406001212733,1000000000,13.382307052612305,-860.5497851970918,2.99792458E8,2,-524288.8600455502,3.4028234663852886E38,1.59806246E9,,,,0,,3,,1.59806246E9
Raw,2065152134,1406291000000,,,-1311985616708658355,0.0,9.116112012072168,,,0,2,0.0,32995,13804919989602,120,23.866125106811523,-30.9697568922669,0.30242422092726207,4,-5647.909239131326,3.4028234663852886E38,1.59975002E9,,,,0,,3,,1.59975002E9
Raw,2065152134,1406291000000,,,-1311985616708658355,0.0,9.116112012072168,,,0,18,0.0,32995,13804928229007,62,22.530012130737305,376.3788044709388,4.201480479123736,4,45195.46978998055,3.4028234663852886E38,1.60031245E9,,,,0,,3,,1.60031245E9
Raw,2065152134,1406291000000,,,-1311985616708658355,0.0,9.116112012072168,,,0,16,0.0,32995,13804932845860,41,33.13044738769531,365.80035978030196,0.10516107844372974,1,22829.02101799545,0.001971195684745908,1.60143744E9,,,,0,,3,,1.60143744E9
Raw,2065152134,1406291000000,,,-1311985616708658355,0.0,9.116112012072168,,,0,19,0.0,99,933162393,64,29.30047607421875,-27.978897783485394,0.16221463637091682,4,-1083.7092775667659,3.4028234663852886E38,1.60368755E9,,,,0,,3,,1.60368755E9
Raw,2065152135,1406291000000,,,-1311985616708658355,0.0,9.116112012072168,,,0,3,0.0,32995,13804922074084,65,29.20044708251953,-520.202033535742,0.16207159988956255,4,-638673.4400587776,3.4028234663852886E38,1.60481254E9,,,,0,,3,,1.60481254E9
Raw,2065152135,1406291000000,,,-1311985616708658355,0.0,9.116112012072168,,,0,193,0.0,35,11212840,27,30.562101364135742,-181.25244648832745,0.14025358554025458,1,-11722.278270567695,0.0025391271337866783,1.57542003E9,,,,0,,4,,1.57542003E9
Raw,2065152135,1406291000000,,,-1311985616708658355,0.0,9.116112012072168,,,0,194,0.0,35,15676751,8,41.23201370239258,-152.193266902588,0.043289342050716856,1,-37233.3547183818,8.310818229801953E-4,1.57542003E9,,,,0,,4,,1.57542003E9
Raw,2065152135,1406291000000,,,-1311985616708658355,0.0,9.116112012072168,,,0,195,0.0,1,808057,28,30.519554138183594,-119.44218189954228,0.140319953136257,1,-37174.97274687529,0.0025515949819236994,1.57542003E9,,,,0,,4,,1.57542003E9
Raw,2065152136,1406291000000,,,-1311985616708658355,0.0,9.116112012072168,,,0,7,0.0,16431,175808879664864,11,32.26392364501953,-101.83039627471697,0.11717750750709571,1,-145975.43103568407,0.0022342705633491278,1.56109798E9,,,,0,,5,,1.56109798E9
Raw,2065152136,1406291000000,,,-1311985616708658355,0.0,9.116112012072168,,,0,8,0.0,16431,175808877917464,9,34.357269287109375,-209.67106334494895,0.09252569832361346,4,-299435.6168743918,3.4028234663852886E38,1.56109798E9,,,,0,,5,,1.56109798E9
Raw,2065152136,1406291000000,,,-1311985616708658355,0.0,9.116112012072168,,,0,10,0.0,16431,175808880214872,8,35.12458419799805,-165.63138306654298,0.08538830271771869,1,-203179.19092632813,0.001607321435585618,1.56109798E9,,,,0,,5,,1.56109798E9
Raw,2065152137,1406291000000,,,-1311985616708658355,0.0,9.116112012072168,,,0,30,0.0,16431,175808924238867,6,39.08257293701172,-322.8536357176695,0.05259469309358003,1,-78607.24299654544,0.0010190681787207723,1.56109798E9,,,,0,,5,,1.56109798E9
Raw,2065152137,1406291000000,,,-1311985616708658355,0.0,9.116112012072168,,,0,32,0.0,16431,175808912798453,7,36.56404495239258,-649.0526008728789,0.07156909809273015,1,-155934.2116910705,0.0013618512311950326,1.56109798E9,,,,0,,5,,1.56109798E9
Raw,2065152137,1406291000000,,,-1311985616708658355,0.0,9.116112012072168,,,0,33,0.0,16431,175808910824585,15,29.619218826293945,9.978970493010664,0.15603457835971501,1,-2077.7523113066372,0.0028562399093061686,1.56109798E9,,,,0,,5,,1.56109798E9
Raw,2065152137,1406291000000,,,-1311985616708658355,0.0,9.116112012072168,,,0,36,0.0,16431,175808920504644,6,40.26328659057617,-340.14421123099555,0.048932605532140516,1,-119787.25902269478,8.895444334484637E-4,1.56109798E9,,,,0,,5,,1.56109798E9
Fix,gps,34.486395,109.464215,356.390625,0.000000,3.000000,1627951805999
Raw,2065153139,1407291000000,,,-1311985616708658744,0.0,9.15879939566157,,,0,1,0.0,16431,175823925537590,57,24.33130645751953,491.73755873386904,0.2842416297761301,4,579291.7187277969,3.4028234663852886E38,1.57542003E9,,,,0,,1,,1.57542003E9
Raw,2065153139,1407291000000,,,-1311985616708658744,0.0,9.15879939566157,,,0,3,0.0,16431,175823925864022,39,27.513296127319336,-200.85471573899792,0.19741956731267596,4,-45829.19729178813,3.4028234663852886E38,1.57542003E9,,,,0,,1,,1.57542003E9
Raw,2065153139,1407291000000,,,-1311985616708658744,0.0,9.15879939566157,,,0,6,0.0,16431,175823924141377,6,45.06626892089844,-655.0305274171537,0.030744930303631735,1,-558398.9839045302,5.344793316908181E-4,1.57542003E9,,,,0,,1,,1.57542003E9
Raw,2065153140,1407291000000,,,-1311985616708658744,0.0,9.15879939566157,,,0,7,0.0,16,1407015319953,1000000000,7.0,530.22265066047,2.99792458E8,2,7.947152616857883,3.4028234663852886E38,1.57542003E9,,,,0,,1,,1.57542003E9
Raw,2065153140,1407291000000,,,-1311985616708658744,0.0,9.15879939566157,,,0,14,0.0,16431,175823932405756,11,38.626731872558594,-89.76351106343009,0.056856543688151295,1,-227002.36906007733,0.0010642142733559012,1.57542003E9,,,,0,,1,,1.57542003E9
Raw,2065153140,1407291000000,,,-1311985616708658744,0.0,9.15879939566157,,,0,17,0.0,16431,175823929366968,15,35.68054962158203,-193.0004477157728,0.0783681820488924,1,-47575.24337364608,0.001493957475759089,1.57542003E9,,,,0,,1,,1.57542003E9
Raw,2065153141,1407291000000,,,-1311985616708658744,0.0,9.15879939566157,,,0,19,0.0,16431,175823927363983,7,42.131202697753906,-444.99115200579104,0.037814131873288054,1,-546531.9236175013,7.493492448702455E-4,1.57542003E9,,,,0,,1,,1.57542003E9
Raw,2065153141,1407291000000,,,-1311985616708658744,0.0,9.15879939566157,,,0,21,0.0,16431,175823915971462,15,35.67539978027344,476.32901646973255,0.07960167407890739,1,615684.3224337075,0.0014948436291888356,1.57542003E9,,,,0,,1,,1.57542003E9
Raw,2065153141,1407291000000,,,-1311985616708658744,0.0,9.15879939566157,,,0,22,0.0,16431,175823922781646,86,17.796302795410156,132.7864520194617,4.200500342229514,4,13292.991532334909,3.4028234663852886E38,1.57542003E9,,,,0,,1,,1.57542003E9
Raw,2065153142,1407291000000,,,-1311985616708658744,0.0,9.15879939566157,,,0,24,0.0,16,1407016315792,1000000000,7.0,-408.06349201245644,2.99792458E8,2,-524294.5246527746,3.4028234663852886E38,1.57542003E9,,,,0,,1,,1.57542003E9
Raw,2065153142,1407291000000,,,-1311985616708658744,0.0,9.15879939566157,,,0,30,0.0,16431,175823921495524,14,36.432071685791016,483.07325296646627,0.07059644169860885,1,17397.688832021166,0.0013701312709599733,1.57542003E9,,,,0,,1,,1.57542003E9
Raw,2065153143,1407291000000,,,-1311985616708658744,0.0,9.15879939566157,,,0,10,0.0,16,1407001215481,1000000000,7.0,-860.4583078837845,2.99792458E8,2,-524288.8464831412,3.4028234663852886E38,1.59806246E9,,,,0,,3,,1.59806246E9
Raw,2065153143,1407291000000,,,-1311985616708658744,0.0,9.15879939566157,,,0,2,0.0,32995,13805919989751,117,24.138465881347656,-31.819051235898215,0.29319999045779754,4,-5680.900758901936,3.4028234663852886E38,1.59975002E9,,,,0,,3,,1.59975002E9
Raw,2065153143,1407291000000,,,-1311985616708658744,0.0,9.15879939566157,,,0,18,0.0,32995,13805928227756,67,21.537893295288086,377.0183276851328,4.201480212854545,4,45571.52410066661,3.4028234663852886E38,1.60031245E9,,,,0,,3,,1.60031245E9
Raw,2065153144,1407291000000,,,-1311985616708658744,0.0,9.15879939566157,,,0,16,0.0,32995,13805932844581,49,31.55683135986328,365.84187221234674,0.1255887765300917,1,23194.828195708596,0.002362710889428854,1.60143744E9,,,,0,,3,,1.60143744E9
Raw,2065153144,1407291000000,,,-1311985616708658744,0.0,9.15879939566157,,,0,19,0.0,99,1933162429,61,29.770370483398438,-28.05872102681535,0.1537968853572882,1,-1111.7360996505154,0.0027324208058416843,1.60368755E9,,,,0,,3,,1.60368755E9
Raw,2065153144,1407291000000,,,-1311985616708658744,0.0,9.15879939566157,,,0,3,0.0,32995,13805922075768,63,29.42701530456543,-520.170745840654,0.15790858093008642,1,-639193.6123939131,0.002840604167431593,1.60481254E9,,,,0,,3,,1.60481254E9
Raw,2065153145,1407291000000,,,-1311985616708658744,0.0,9.15879939566157,,,0,193,0.0,35,11213471,30,29.86424446105957,-181.28775591328508,0.15181850526381568,1,-11903.47436996543,0.002751549007371068,1.57542003E9,,,,0,,4,,1.57542003E9
Raw,2065153145,1407291000000,,,-1311985616708658744,0.0,9.15879939566157,,,0,194,0.0,35,15677263,7,41.4502067565918,-152.16640992684802,0.04228549887753122,1,-37385.5314316653,8.104649023152888E-4,1.57542003E9,,,,0,,4,,1.57542003E9
Raw,2065153145,1407291000000,,,-1311985616708658744,0.0,9.15879939566157,,,0,195,0.0,1,808427,31,29.632568359375,-119.5489792770565,0.155255408137841,1,-37294.48133522668,0.0028259276878088713,1.57542003E9,,,,0,,4,,1.57542003E9
Raw,2065153145,1407291000000,,,-1311985616708658744,0.0,9.15879939566157,,,0,7,0.0,16431,175809879665208,11,32.47308349609375,-101.81667808596654,0.11447371860571254,1,-146077.23944552566,0.0021811111364513636,1.56109798E9,,,,0,,5,,1.56109798E9
Raw,2065153146,1407291000000,,,-1311985616708658744,0.0,9.15879939566157,,,0,8,0.0,16431,175809877918164,9,33.914920806884766,-209.7661533986476,0.09719153336774788,1,-299645.3671135849,0.0018475060351192951,1.56109798E9,,,,0,,5,,1.56109798E9
Raw,2065153146,1407291000000,,,-1311985616708658744,0.0,9.15879939566157,,,0,10,0.0,16431,175809880215425,8,35.11825942993164,-165.69881520677336,0.08544795533754584,1,-203344.87091572734,0.001608491875231266,1.56109798E9,,,,0,,5,,1.56109798E9
Raw,2065153146,1407291000000,,,-1311985616708658744,0.0,9.15879939566157,,,0,30,0.0,16431,175809924239942,6,38.69935607910156,-322.8988290550187,0.05493289439491775,1,-78930.12684566171,0.0010650355834513903,1.56109798E9,,,,0,,5,,1.56109798E9
Raw,2065153147,1407291000000,,,-1311985616708658744,0.0,9.15879939566157,,,0,32,0.0,16431,175809912800617,6,36.9819450378418,-649.1097230700111,0.06831576286356561,1,-156583.27898931768,0.001297880313359201,1.56109798E9,,,,0,,5,,1.56109798E9
Raw,2065153147,1407291000000,,,-1311985616708658744,0.0,9.15879939566157,,,0,33,0.0,16431,175809910824537,14,30.35324478149414,9.846200153472523,0.1435480343967822,1,-2067.891960128686,0.002624782733619213,1.56109798E9,,,,0,,5,,1.56109798E9
Raw,2065153147,1407291000000,,,-1311985616708658744,0.0,9.15879939566157,,,0,36,0.0,16431,175809920505778,6,40.22403335571289,-340.1674213838876,0.04913774098151963,1,-120127.4446236107,8.935734513215721E-4,1.56109798E9,,,,0,,5,,1.56109798E9
Fix,gps,34.486395,109.464215,356.598633,0.000000,3.000000,1627951806999
Raw,2065154148,1408291000000,,,-1311985616708659131,0.0,9.23019395723418,,,0,1,0.0,16431,175824925535884,47,25.887310028076172,492.0466525320744,0.23778552742761871,4,579783.7420244307,3.4028234663852886E38,1.57542003E9,,,,0,,1,,1.57542003E9
Raw,2065154149,1408291000000,,,-1311985616708659131,0.0,9.23019395723418,,,0,3,0.0,16431,175824925864623,50,25.455238342285156,-200.70770106278678,0.24992142814888374,1,-46029.95334538892,0.004571171477437019,1.57542003E9,,,,0,,1,,1.57542003E9
Raw,2065154149,1408291000000,,,-1311985616708659131,0.0,9.23019395723418,,,0,6,0.0,16431,175824924143564,6,44.70352554321289,-655.0432742558933,0.030745325546962993,1,-559054.0307681106,5.572732188738883E-4,1.57542003E9,,,,0,,1,,1.57542003E9
Raw,2065154149,1408291000000,,,-1311985616708659131,0.0,9.23019395723418,,,0,7,0.0,16,1408015318124,1000000000,7.0,530.22265066047,2.99792458E8,2,7.943006203233052,3.4028234663852886E38,1.57542003E9,,,,0,,1,,1.57542003E9
Raw,2065154150,1408291000000,,,-1311985616708659131,0.0,9.23019395723418,,,0,14,0.0,16431,175824932406046,10,38.672752380371094,-89.69289221351482,0.05656794948903493,1,-227092.07728421222,0.0010585907148197293,1.57542003E9,,,,0,,1,,1.57542003E9
Raw,2065154150,1408291000000,,,-1311985616708659131,0.0,9.23019395723418,,,0,17,0.0,16431,175824929367606,14,36.13027572631836,-193.03154795734986,0.0744989412168563,1,-47768.27439941493,0.0014185737818479538,1.57542003E9,,,,0,,1,,1.57542003E9
Raw,2065154150,1408291000000,,,-1311985616708659131,0.0,9.23019395723418,,,0,19,0.0,16431,175824927365471,7,41.628074645996094,-445.0106812533786,0.03999044982705466,1,-546976.9041024894,7.940370123833418E-4,1.57542003E9,,,,0,,1,,1.57542003E9
Raw,2065154150,1408291000000,,,-1311985616708659131,0.0,9.23019395723418,,,0,21,0.0,16431,175824915969876,15,35.9525146484375,476.19704919807623,0.07719207935057609,1,616160.5835541483,0.00144790462218225,1.57542003E9,,,,0,,1,,1.57542003E9
Raw,2065154151,1408291000000,,,-1311985616708659131,0.0,9.23019395723418,,,0,22,0.0,16430,175824922781204,1000000000,12.46452522277832,132.79062712038575,2.99792458E8,4,13425.924258045732,3.4028234663852886E38,1.57542003E9,,,,0,,1,,1.57542003E9
Raw,2065154151,1408291000000,,,-1311985616708659131,0.0,9.23019395723418,,,0,24,0.0,16,1408016317214,1000000000,7.0,-408.06349201245644,2.99792458E8,2,-524294.5214616624,3.4028234663852886E38,1.57542003E9,,,,0,,1,,1.57542003E9
Raw,2065154151,1408291000000,,,-1311985616708659131,0.0,9.23019395723418,,,0,30,0.0,16431,175824921493901,15,35.71828842163086,483.01745998513843,0.0766195756259328,1,17880.731347453184,0.0014874807093292475,1.57542003E9,,,,0,,1,,1.57542003E9
Raw,2065154151,1408291000000,,,-1311985616708659131,0.0,9.23019395723418,,,0,10,0.0,16,1408001218473,1000000000,7.0,-860.4583078837845,2.99792458E8,2,-524288.8868960533,3.4028234663852886E38,1.59806246E9,,,,0,,3,,1.59806246E9
Raw,2065154152,1408291000000,,,-1311985616708659131,0.0,9.23019395723418,,,0,2,0.0,32995,13806919989745,87,26.690378189086914,-31.543903564389566,0.21947421176418014,4,-5713.46131041445,3.4028234663852886E38,1.59975002E9,,,,0,,3,,1.59975002E9
Raw,2065154152,1408291000000,,,-1311985616708659131,0.0,9.23019395723418,,,0,18,0.0,32995,13806928226395,75,20.002992630004883,376.27921553297915,4.201479946585353,4,45947.50006690737,3.4028234663852886E38,1.60031245E9,,,,0,,3,,1.60031245E9
Raw,2065154152,1408291000000,,,-1311985616708659131,0.0,9.23019395723418,,,0,16,0.0,32995,13806932843456,52,31.17380142211914,365.9858365086991,0.13114656344056064,1,23560.739475121165,0.0024692327715456486,1.60143744E9,,,,0,,3,,1.60143744E9
Raw,2065154153,1408291000000,,,-1311985616708659131,0.0,9.23019395723418,,,0,19,0.0,99,933162615,57,30.264636993408203,-28.064917643441902,0.14542047263565305,1,-1139.754931027892,0.0025812743697315454,1.60368755E9,,,,0,,3,,1.60368755E9
Raw,2065154153,1408291000000,,,-1311985616708659131,0.0,9.23019395723418,,,0,3,0.0,32995,13806922077478,60,29.853492736816406,-520.1360158174573,0.1503607313653642,1,-639713.7858760175,0.0027044997550547123,1.60481254E9,,,,0,,3,,1.60481254E9
Raw,2065154154,1408291000000,,,-1311985616708659131,0.0,9.23019395723418,,,0,193,0.0,35,11214024,40,27.382976531982422,-181.327581263732,0.20135026640249465,1,-12084.739268586614,0.0036613447591662407,1.57542003E9,,,,0,,4,,1.57542003E9
Raw,2065154154,1408291000000,,,-1311985616708659131,0.0,9.23019395723418,,,0,194,0.0,35,15677779,7,41.83897399902344,-152.24162990839386,0.040558114941232126,1,-37537.775198249845,7.749893120490015E-4,1.57542003E9,,,,0,,4,,1.57542003E9
Raw,2065154154,1408291000000,,,-1311985616708659131,0.0,9.23019395723418,,,0,195,0.0,1,808819,32,29.204021453857422,-119.64081445615722,0.1630366260071625,1,-37414.080035113504,0.0029688512440770864,1.57542003E9,,,,0,,4,,1.57542003E9
Raw,2065154154,1408291000000,,,-1311985616708659131,0.0,9.23019395723418,,,0,7,0.0,16431,175810879665542,11,32.150001525878906,-101.88800414685466,0.11867789279711294,1,-146179.1098410242,0.002263767644762993,1.56109798E9,,,,0,,5,,1.56109798E9
Raw,2065154155,1408291000000,,,-1311985616708659131,0.0,9.23019395723418,,,0,8,0.0,16431,175810877918845,8,34.51353073120117,-209.82020817469277,0.09093372475260342,1,-299855.1527329034,0.0017244688933715224,1.56109798E9,,,,0,,5,,1.56109798E9
Raw,2065154155,1408291000000,,,-1311985616708659131,0.0,9.23019395723418,,,0,10,0.0,16431,175810880215982,8,35.13808059692383,-165.7932406525698,0.08526159186617344,1,-203510.61284499546,0.001604825840331614,1.56109798E9,,,,0,,5,,1.56109798E9
Raw,2065154155,1408291000000,,,-1311985616708659131,0.0,9.23019395723418,,,0,30,0.0,16431,175810924241032,6,38.26610565185547,-322.8923874707359,0.05770360007251099,1,-79253.04206822108,0.0011195065453648567,1.56109798E9,,,,0,,5,,1.56109798E9
Raw,2065154155,1408291000000,,,-1311985616708659131,0.0,9.23019395723418,,,0,32,0.0,16431,175810912802764,6,37.298439025878906,-649.187294741057,0.06595407578743892,1,-157232.4411059392,0.0012514399131760001,1.56109798E9,,,,0,,5,,1.56109798E9
Raw,2065154156,1408291000000,,,-1311985616708659131,0.0,9.23019395723418,,,0,33,0.0,16431,175810910824489,12,31.654943466186523,9.896104325359282,0.12384076089190094,1,-2058.0013900085337,0.0022594796027988195,1.56109798E9,,,,0,,5,,1.56109798E9
Raw,2065154156,1408291000000,,,-1311985616708659131,0.0,9.23019395723418,,,0,36,0.0,16431,175810920506912,6,40.13818359375,-340.16704647686583,0.04958937513500805,1,-120467.60882120425,9.024491882883012E-4,1.56109798E9,,,,0,,5,,1.56109798E9
Fix,gps,34.486395,109.464215,356.846771,0.000000,3.000000,1627951807999
Raw,2065155145,1409291000000,,,-1311985616708659519,0.0,9.364510180298138,,,0,1,0.0,16431,175825925534312,47,25.902973175048828,491.9864288313986,0.23735863134621094,4,580275.7379502767,3.4028234663852886E38,1.57542003E9,,,,0,,1,,1.57542003E9
Raw,2065155145,1409291000000,,,-1311985616708659519,0.0,9.364510180298138,,,0,3,0.0,16431,175825925865382,53,24.8459415435791,-200.6698524948182,0.2680058658192679,1,-46230.6530779356,0.004903344437479973,1.57542003E9,,,,0,,1,,1.57542003E9
Raw,2065155145,1409291000000,,,-1311985616708659519,0.0,9.364510180298138,,,0,6,0.0,16431,175825924145741,6,44.26388168334961,-655.0534989928501,0.030745716629838132,1,-559709.0747214056,5.8620615163818E-4,1.57542003E9,,,,0,,1,,1.57542003E9
Raw,2065155146,1409291000000,,,-1311985616708659519,0.0,9.364510180298138,,,0,7,0.0,16,1409015316356,1000000000,7.0,530.0370035197902,2.99792458E8,2,7.936079825750243,3.4028234663852886E38,1.57542003E9,,,,0,,1,,1.57542003E9
Raw,2065155146,1409291000000,,,-1311985616708659519,0.0,9.364510180298138,,,0,14,0.0,16431,175825932406344,10,38.98674774169922,-89.6297203803498,0.0546387959123566,1,-227181.74281664233,0.0010210061445832253,1.57542003E9,,,,0,,1,,1.57542003E9
Raw,2065155146,1409291000000,,,-1311985616708659519,0.0,9.364510180298138,,,0,17,0.0,16431,175825929368236,15,35.418357849121094,-193.0147964299689,0.08071849027753497,1,-47961.33821848011,0.0015397416427731514,1.57542003E9,,,,0,,1,,1.57542003E9
Raw,2065155146,1409291000000,,,-1311985616708659519,0.0,9.364510180298138,,,0,19,0.0,16431,175825927366940,7,41.84754180908203,-445.04513861692317,0.03902599785239905,1,-547421.9264625522,7.742251036688685E-4,1.57542003E9,,,,0,,1,,1.57542003E9
Raw,2065155147,1409291000000,,,-1311985616708659519,0.0,9.364510180298138,,,0,21,0.0,16431,175825915968263,14,36.08792495727539,476.1898237172934,0.07604215424215743,1,616636.7690598919,0.0014255073620006442,1.57542003E9,,,,0,,1,,1.57542003E9
Raw,2065155147,1409291000000,,,-1311985616708659519,0.0,9.364510180298138,,,0,22,0.0,16430,175825922780754,1000000000,10.333724975585938,132.72557223149784,2.99792458E8,4,13559.498506777403,3.4028234663852886E38,1.57542003E9,,,,0,,1,,1.57542003E9
Raw,2065155147,1409291000000,,,-1311985616708659519,0.0,9.364510180298138,,,0,24,0.0,16,1409016318514,1000000000,12.389606475830078,-407.8778448717767,2.99792458E8,2,-524294.5153052234,3.4028234663852886E38,1.57542003E9,,,,0,,1,,1.57542003E9
Raw,2065155148,1409291000000,,,-1311985616708659519,0.0,9.364510180298138,,,0,30,0.0,16431,175825921492313,14,36.018104553222656,482.9588722423757,0.07402881799637723,1,18363.72571035359,0.0014370123390108347,1.57542003E9,,,,0,,1,,1.57542003E9
Raw,2065155148,1409291000000,,,-1311985616708659519,0.0,9.364510180298138,,,0,10,0.0,16,1409001221221,1000000000,7.0,-860.3668987353904,2.99792458E8,2,-524288.873332336,3.4028234663852886E38,1.59806246E9,,,,0,,3,,1.59806246E9
Raw,2065155148,1409291000000,,,-1311985616708659519,0.0,9.364510180298138,,,0,2,0.0,32995,13807919989849,94,26.024892807006836,-31.37750023072401,0.2366642512200321,4,-5745.184403923938,3.4028234663852886E38,1.59975002E9,,,,0,,3,,1.59975002E9
Raw,2065155148,1409291000000,,,-1311985616708659519,0.0,9.364510180298138,,,0,18,0.0,32995,13807928225088,79,19.091516494750977,376.15072467188816,4.201479680316162,4,46323.39752627148,3.4028234663852886E38,1.60031245E9,,,,0,,3,,1.60031245E9
Raw,2065155149,1409291000000,,,-1311985616708659519,0.0,9.364510180298138,,,0,16,0.0,32995,13807932842199,49,31.575481414794922,365.9507315784806,0.12532393853541202,1,23926.70973840097,0.0023576426319777966,1.60143744E9,,,,0,,3,,1.60143744E9
Raw,2065155149,1409291000000,,,-1311985616708659519,0.0,9.364510180298138,,,0,19,0.0,99,1933162615,58,30.159076690673828,-27.963192161488976,0.14716961159699582,1,-1167.7633048804153,0.002612836193293333,1.60368755E9,,,,0,,3,,1.60368755E9
Raw,2065155149,1409291000000,,,-1311985616708659519,0.0,9.364510180298138,,,0,3,0.0,32995,13807922079216,59,30.030941009521484,-520.1200993102611,0.1473279585568662,1,-640233.9004071739,0.0026498078368604183,1.60481254E9,,,,0,,3,,1.60481254E9
Raw,2065155150,1409291000000,,,-1311985616708659519,0.0,9.364510180298138,,,0,193,0.0,35,11214649,43,26.73702049255371,-181.2930046115896,0.21673964380843225,1,-12266.051940455553,0.003944014199078083,1.57542003E9,,,,0,,4,,1.57542003E9
Raw,2065155150,1409291000000,,,-1311985616708659519,0.0,9.364510180298138,,,0,194,0.0,35,15678275,8,41.36124038696289,-152.24626512248096,0.0426919837612216,1,-37690.050755829216,8.188085630536079E-4,1.57542003E9,,,,0,,4,,1.57542003E9
Raw,2065155150,1409291000000,,,-1311985616708659519,0.0,9.364510180298138,,,0,195,0.0,1,809208,33,29.08270263671875,-119.66957152884834,0.16531008229038402,1,-37533.73253926349,0.003010608721524477,1.57542003E9,,,,0,,4,,1.57542003E9
Raw,2065155151,1409291000000,,,-1311985616708659519,0.0,9.364510180298138,,,0,7,0.0,16431,175811879665891,10,32.652626037597656,-101.96168189724284,0.1122042563603648,1,-146281.01855539237,0.002136488677933812,1.56109798E9,,,,0,,5,,1.56109798E9
Raw,2065155151,1409291000000,,,-1311985616708659519,0.0,9.364510180298138,,,0,8,0.0,16431,175811877919553,9,33.80698776245117,-209.82925706689957,0.09836674572845483,1,-300064.9698300016,0.0018706070259213448,1.56109798E9,,,,0,,5,,1.56109798E9
Raw,2065155151,1409291000000,,,-1311985616708659519,0.0,9.364510180298138,,,0,10,0.0,16431,175811880216546,8,34.894622802734375,-165.82328433799466,0.08758194481076276,1,-203676.40252040615,0.0016504436498507857,1.56109798E9,,,,0,,5,,1.56109798E9
Raw,2065155151,1409291000000,,,-1311985616708659519,0.0,9.364510180298138,,,0,30,0.0,16431,175811924242111,6,39.0135383605957,-322.9056455463233,0.053008866500177415,1,-79575.98185082982,0.0010271999053657055,1.56109798E9,,,,0,,5,,1.56109798E9
Raw,2065155152,1409291000000,,,-1311985616708659519,0.0,9.364510180298138,,,0,32,0.0,16431,175811912804945,6,36.990421295166016,-649.2412131872761,0.06825215781042587,1,-157881.66438267674,0.0012966144131496549,1.56109798E9,,,,0,,5,,1.56109798E9
Raw,2065155153,1409291000000,,,-1311985616708659519,0.0,9.364510180298138,,,0,33,0.0,16431,175811910824465,12,31.521841049194336,9.976105436509215,0.1257230261281237,1,-2048.0630973336233,0.0022943709045648575,1.56109798E9,,,,0,,5,,1.56109798E9
Raw,2065155153,1409291000000,,,-1311985616708659519,0.0,9.364510180298138,,,0,36,0.0,16431,175811920508053,6,40.47876739501953,-340.1130939481902,0.0478245928586597,1,-120807.73564858199,8.677477017045021E-4,1.56109798E9,,,,0,,5,,1.56109798E9
Fix,gps,34.486395,109.464215,357.076324,0.000000,3.000000,1627951808999
Raw,2065156243,1410291000000,,,-1311985616708659907,0.0,9.391098735621645,,,0,1,0.0,16431,175826925532639,48,25.714231491088867,491.98533819278987,0.24255061431291625,4,580767.7457786624,3.4028234663852886E38,1.57542003E9,,,,0,,1,,1.57542003E9
Raw,2065156244,1410291000000,,,-1311985616708659907,0.0,9.391098735621645,,,0,3,0.0,16431,175826925865982,59,22.930517196655273,-200.12705529223592,4.201055247224776,4,-46431.273715615345,3.4028234663852886E38,1.57542003E9,,,,0,,1,,1.57542003E9
Raw,2065156244,1410291000000,,,-1311985616708659907,0.0,9.391098735621645,,,0,6,0.0,16431,175826924147930,6,43.918212890625,-654.9776996095434,0.03074610979294133,1,-560364.1045540242,6.100055761635303E-4,1.57542003E9,,,,0,,1,,1.57542003E9
Raw,2065156245,1410291000000,,,-1311985616708659907,0.0,9.391098735621645,,,0,7,0.0,16,1410015314588,1000000000,7.0,529.8513563791105,2.99792458E8,2,7.945730391588066,3.4028234663852886E38,1.57542003E9,,,,0,,1,,1.57542003E9
Raw,2065156245,1410291000000,,,-1311985616708659907,0.0,9.391098735621645,,,0,14,0.0,16431,175826932406631,8,40.57560729980469,-89.56736652614131,0.0458780028103887,1,-227271.34699648,8.503255085088313E-4,1.57542003E9,,,,0,,1,,1.57542003E9
Raw,2065156246,1410291000000,,,-1311985616708659907,0.0,9.391098735621645,,,0,17,0.0,16431,175826929368845,18,34.01109313964844,-193.07670721224258,0.09461900685690361,1,-48154.41463629875,0.0018105522030964494,1.57542003E9,,,,0,,1,,1.57542003E9
Raw,2065156247,1410291000000,,,-1311985616708659907,0.0,9.391098735621645,,,0,19,0.0,16431,175826927368434,8,40.97840881347656,-444.9676351107903,0.04299389974082943,1,-547866.9407900159,8.55705002322793E-4,1.57542003E9,,,,0,,1,,1.57542003E9
Raw,2065156247,1410291000000,,,-1311985616708659907,0.0,9.391098735621645,,,0,21,0.0,16431,175826915966701,13,36.8687858581543,476.0942224267469,0.06975091636210076,1,617112.900226577,0.0013029458932578564,1.57542003E9,,,,0,,1,,1.57542003E9
Raw,2065156248,1410291000000,,,-1311985616708659907,0.0,9.391098735621645,,,0,22,0.0,16430,175826922780321,1000000000,7.0,132.7500093528247,2.99792458E8,4,13693.106873597144,3.4028234663852886E38,1.57542003E9,,,,1,,1,,1.57542003E9
Raw,2065156248,1410291000000,,,-1311985616708659907,0.0,9.391098735621645,,,0,24,0.0,16,1410016319875,1000000000,7.0,-408.06349201245644,2.99792458E8,2,-524294.5278438868,3.4028234663852886E38,1.57542003E9,,,,0,,1,,1.57542003E9
Raw,2065156249,1410291000000,,,-1311985616708659907,0.0,9.391098735621645,,,0,30,0.0,16431,175826921490674,13,36.737091064453125,483.0372959748347,0.06816878226981099,1,18846.716145767416,0.0013228516327217221,1.57542003E9,,,,0,,1,,1.57542003E9
Raw,2065156250,1410291000000,,,-1311985616708659907,0.0,9.391098735621645,,,0,10,0.0,16,1410001224214,1000000000,7.0,-860.5497851970918,2.99792458E8,2,-524288.8600455502,3.4028234663852886E38,1.59806246E9,,,,0,,3,,1.59806246E9
Raw,2065156250,1410291000000,,,-1311985616708659907,0.0,9.391098735621645,,,0,2,0.0,32995,13808919990113,80,27.358726501464844,-31.153957658697962,0.2034861780064383,4,-5776.404571349778,3.4028234663852886E38,1.59975002E9,,,,0,,3,,1.59975002E9
Raw,2065156251,1410291000000,,,-1311985616708659907,0.0,9.391098735621645,,,0,18,0.0,32995,13808928223956,166,23.559284210205078,375.82141997696476,0.3110531067679927,4,46699.26951064745,3.4028234663852886E38,1.60031245E9,,,,1,,3,,1.60031245E9
Raw,2065156251,1410291000000,,,-1311985616708659907,0.0,9.391098735621645,,,0,16,0.0,32995,13808932840947,33,36.54064178466797,366.1369240384647,0.07176364102083155,1,24292.779421066898,0.0013311285292729735,1.60143744E9,,,,0,,3,,1.60143744E9
Raw,2065156252,1410291000000,,,-1311985616708659907,0.0,9.391098735621645,,,0,19,0.0,99,933162754,77,27.702802658081055,-27.92374597837089,0.19449456695947176,1,-1195.746741757103,0.003466776804998517,1.60368755E9,,,,0,,3,,1.60368755E9
Raw,2065156253,1410291000000,,,-1311985616708659907,0.0,9.391098735621645,,,0,3,0.0,32995,13808922080870,70,28.504711151123047,-519.9886432754527,0.17555763518858103,1,-640753.9818796526,0.0031588280107825994,1.60481254E9,,,,0,,3,,1.60481254E9
Raw,2065156253,1410291000000,,,-1311985616708659907,0.0,9.391098735621645,,,0,193,0.0,35,11215294,40,27.250364303588867,-181.40632877952794,0.20441720487663784,1,-12447.436726084678,0.0037176739424467087,1.57542003E9,,,,0,,4,,1.57542003E9
Raw,2065156254,1410291000000,,,-1311985616708659907,0.0,9.391098735621645,,,0,194,0.0,35,15678798,7,41.46519088745117,-152.3228143198312,0.04221774584964133,1,-37842.365214969046,8.090678020380437E-4,1.57542003E9,,,,0,,4,,1.57542003E9
Raw,2065156254,1410291000000,,,-1311985616708659907,0.0,9.391098735621645,,,0,195,0.0,1,809668,33,29.04990005493164,-119.78341545424865,0.16593032308853106,1,-37653.470343635745,0.00302200042642653,1.57542003E9,,,,0,,4,,1.57542003E9
Raw,2065156255,1410291000000,,,-1311985616708659907,0.0,9.391098735621645,,,0,7,0.0,16431,175812879666205,9,34.05821228027344,-101.9106348979858,0.09596850904532706,1,-146382.94144946488,0.0018172773998230696,1.56109798E9,,,,0,,5,,1.56109798E9
Raw,2065156255,1410291000000,,,-1311985616708659907,0.0,9.391098735621645,,,0,8,0.0,16431,175812877920279,166,30.59954833984375,-209.54911631551033,0.14086540557521776,4,-300274.7553444961,3.4028234663852886E38,1.56109798E9,,,,1,,5,,1.56109798E9
Raw,2065156256,1410291000000,,,-1311985616708659907,0.0,9.391098735621645,,,0,10,0.0,16431,175812880217100,9,34.23137664794922,-165.8524589207782,0.09424309300477202,1,-203842.219626904,0.0017814066959545016,1.56109798E9,,,,0,,5,,1.56109798E9
Raw,2065156257,1410291000000,,,-1311985616708659907,0.0,9.391098735621645,,,0,30,0.0,16431,175812924243195,6,38.487037658691406,-322.90336202173626,0.05627390925285944,1,-79898.92643857493,0.0010913899168372154,1.56109798E9,,,,0,,5,,1.56109798E9
Raw,2065156257,1410291000000,,,-1311985616708659907,0.0,9.391098735621645,,,0,32,0.0,16431,175812912807110,7,35.71903610229492,-649.3918576451069,0.078647972722862,1,-158530.9610883988,0.0015009978087618947,1.56109798E9,,,,0,,5,,1.56109798E9
Raw,2065156258,1410291000000,,,-1311985616708659907,0.0,9.391098735621645,,,0,33,0.0,16431,175812910824476,166,30.62348175048828,10.073982796105362,0.1392103262058022,1,-2038.068710587106,0.0025443776976317167,1.56109798E9,,,,1,,5,,1.56109798E9
Raw,2065156258,1410291000000,,,-1311985616708659907,0.0,9.391098735621645,,,0,36,0.0,16431,175812920509186,6,40.7345085144043,-339.9823195625122,0.04654423745092584,1,-121147.80005262914,8.425706764683127E-4,1.56109798E9,,,,0,,5,,1.56109798E9
Fix,gps,34.486395,109.464215,357.223602,0.000000,3.000000,1627951809999
Raw,2065157161,1411291000000,,,-1311985616708660297,0.0,9.429865394844555,,,0,1,0.0,16431,175827925531034,36,28.35468101501465,492.12071371009847,0.1792304359245257,4,581259.795770883,3.4028234663852886E38,1.57542003E9,,,,0,,1,,1.57542003E9
Raw,2065157162,1411291000000,,,-1311985616708660297,0.0,9.429865394844555,,,0,3,0.0,16431,175827925866634,71,20.77829360961914,-200.06526379856007,4.201055247224776,4,-46631.70704035067,3.4028234663852886E38,1.57542003E9,,,,0,,1,,1.57542003E9
Raw,2065157162,1411291000000,,,-1311985616708660297,0.0,9.429865394844555,,,0,6,0.0,16431,175827924150120,7,41.98234558105469,-654.944230637238,0.03786675748273105,1,-561019.0856762512,7.623022538609803E-4,1.57542003E9,,,,0,,1,,1.57542003E9
Raw,2065157163,1411291000000,,,-1311985616708660297,0.0,9.429865394844555,,,0,7,0.0,16,1411015312821,1000000000,7.0,529.8513563791105,2.99792458E8,2,7.941586881711446,3.4028234663852886E38,1.57542003E9,,,,0,,1,,1.57542003E9
Raw,2065157164,1411291000000,,,-1311985616708660297,0.0,9.429865394844555,,,0,14,0.0,16431,175827932406918,10,39.25017547607422,-89.36142328260223,0.05307334940955816,1,-227360.81022447607,9.90505563095212E-4,1.57542003E9,,,,0,,1,,1.57542003E9
Raw,2065157164,1411291000000,,,-1311985616708660297,0.0,9.429865394844555,,,0,17,0.0,16431,175827929369527,22,32.25885772705078,-192.9675922276848,0.11539188966650588,1,-48347.39190079745,0.002088557928800583,1.57542003E9,,,,0,,1,,1.57542003E9
Raw,2065157164,1411291000000,,,-1311985616708660297,0.0,9.429865394844555,,,0,19,0.0,16431,175827927369917,12,37.87010192871094,-444.74238415563104,0.060922520008663245,1,-548311.8708315807,0.001161075895652175,1.57542003E9,,,,0,,1,,1.57542003E9
Raw,2065157165,1411291000000,,,-1311985616708660297,0.0,9.429865394844555,,,0,21,0.0,16431,175827915965094,13,37.14389419555664,476.1781675171626,0.06766557094182143,1,617589.0262685008,0.0012623246293514967,1.57542003E9,,,,0,,1,,1.57542003E9
Raw,2065157165,1411291000000,,,-1311985616708660297,0.0,9.429865394844555,,,0,22,0.0,16430,175827922780000,1000000000,9.279182434082031,132.30554003731072,2.99792458E8,4,13824.855027820036,3.4028234663852886E38,1.57542003E9,,,,1,,1,,1.57542003E9
Raw,2065157166,1411291000000,,,-1311985616708660297,0.0,9.429865394844555,,,0,24,0.0,16,1411016321297,1000000000,9.339618682861328,-408.06349201245644,2.99792458E8,2,-524294.5246527744,3.4028234663852886E38,1.57542003E9,,,,0,,1,,1.57542003E9
Raw,2065157166,1411291000000,,,-1311985616708660297,0.0,9.429865394844555,,,0,30,0.0,16431,175827921489077,11,38.54557418823242,482.99148915326805,0.05540567614685654,1,19329.695726519545,0.0010742044541984797,1.57542003E9,,,,0,,1,,1.57542003E9
Raw,2065157166,1411291000000,,,-1311985616708660297,0.0,9.429865394844555,,,0,10,0.0,16,1411001226962,1000000000,13.233943939208984,-860.5497851970918,2.99792458E8,2,-524288.846573147,3.4028234663852886E38,1.59806246E9,,,,0,,3,,1.59806246E9
Raw,2065157167,1411291000000,,,-1311985616708660297,0.0,9.429865394844555,,,0,2,0.0,32995,13809919990028,90,26.390623092651367,-31.236066556768478,0.22705439639385538,4,-5807.504035378721,3.4028234663852886E38,1.59975002E9,,,,0,,3,,1.59975002E9
Raw,2065157167,1411291000000,,,-1311985616708660297,0.0,9.429865394844555,,,0,18,0.0,32995,13809928222765,115,24.279191970825195,375.62043573084975,0.28642919760324115,4,47075.155644563994,3.4028234663852886E38,1.60031245E9,,,,0,,3,,1.60031245E9
Raw,2065157168,1411291000000,,,-1311985616708660297,0.0,9.429865394844555,,,0,16,0.0,32995,13809932839760,33,39.161651611328125,366.2177335428803,0.05367201824273074,1,24658.95103818354,9.843952720984817E-4,1.60143744E9,,,,0,,3,,1.60143744E9
Raw,2065157168,1411291000000,,,-1311985616708660297,0.0,9.429865394844555,,,0,19,0.0,99,1933162816,105,25.01970672607422,-27.97493782806815,0.264031065894593,1,-1223.6168172570851,0.004721507430076599,1.60368755E9,,,,0,,3,,1.60368755E9
Raw,2065157169,1411291000000,,,-1311985616708660297,0.0,9.429865394844555,,,0,3,0.0,32995,13809922082829,103,25.181934356689453,-519.7398072603796,0.2571963351504074,4,-641274.0020829171,3.4028234663852886E38,1.60481254E9,,,,0,,3,,1.60481254E9
Raw,2065157169,1411291000000,,,-1311985616708660297,0.0,9.429865394844555,,,0,193,0.0,35,11215855,34,28.68027114868164,-181.61390798098012,0.17369551488088408,1,-12628.852281528727,0.003153376281261444,1.57542003E9,,,,0,,4,,1.57542003E9
Raw,2065157169,1411291000000,,,-1311985616708660297,0.0,9.429865394844555,,,0,194,0.0,35,15679285,7,42.196815490722656,-152.28966913086276,0.03903524238589437,1,-37994.65344150772,7.43709912057966E-4,1.57542003E9,,,,0,,4,,1.57542003E9
Raw,2065157169,1411291000000,,,-1311985616708660297,0.0,9.429865394844555,,,0,195,0.0,1,810101,37,28.03446388244629,-119.69551679887633,0.18633393213396687,1,-37773.174539599415,0.003396771615371108,1.57542003E9,,,,0,,4,,1.57542003E9
Raw,2065157170,1411291000000,,,-1311985616708660297,0.0,9.429865394844555,,,0,7,0.0,16431,175813879666549,8,34.62255096435547,-101.86733313697357,0.09015406359690742,1,-146484.84560975665,0.0017029597656801343,1.56109798E9,,,,0,,5,,1.56109798E9
Raw,2065157170,1411291000000,,,-1311985616708660297,0.0,9.429865394844555,,,0,8,0.0,16431,175813877920943,8,34.61140060424805,-209.832154075704,0.08995132457025257,4,-300484.5354872158,3.4028234663852886E38,1.56109798E9,,,,0,,5,,1.56109798E9
Raw,2065157170,1411291000000,,,-1311985616708660297,0.0,9.429865394844555,,,0,10,0.0,16431,175813880217659,11,32.59314727783203,-165.62221488573834,0.11305017694020414,1,-204007.95397562973,0.0020281414035707712,1.56109798E9,,,,0,,5,,1.56109798E9
Raw,2065157171,1411291000000,,,-1311985616708660297,0.0,9.429865394844555,,,0,30,0.0,16431,175813924244273,6,38.91866683959961,-322.84808027725626,0.05358302608635587,1,-80221.80985250059,0.001038480899296701,1.56109798E9,,,,0,,5,,1.56109798E9
Raw,2065157171,1411291000000,,,-1311985616708660297,0.0,9.429865394844555,,,0,32,0.0,16431,175813912809256,8,35.346534729003906,-649.4258037718037,0.08199365343603293,1,-159180.28830073163,0.0015667697880417109,1.56109798E9,,,,0,,5,,1.56109798E9
Raw,2065157171,1411291000000,,,-1311985616708660297,0.0,9.429865394844555,,,0,33,0.0,16431,175813910824446,16,29.125415802001953,10.144267211915995,0.16504843952600334,1,-2027.9932167630252,0.0030233249999582767,1.56109798E9,,,,0,,5,,1.56109798E9
Raw,2065157171,1411291000000,,,-1311985616708660297,0.0,9.429865394844555,,,0,36,0.0,16431,175813920510318,6,39.76418685913086,-339.8061473447458,0.05160955117064708,1,-121487.75816006714,9.421553695574403E-4,1.56109798E9,,,,0,,5,,1.56109798E9
Fix,gps,34.486395,109.464215,357.319611,0.000000,3.000000,1627951810999
Raw,2065158177,1412291000000,,,-1311985616708660686,0.0,9.562955298035671,,,0,1,0.0,16431,175828925529351,29,30.029264450073242,492.17879021601334,0.1479769397858799,1,581751.8946835506,0.00269976700656116,1.57542003E9,,,,0,,1,,1.57542003E9
Raw,2065158177,1412291000000,,,-1311985616708660686,0.0,9.562955298035671,,,0,3,0.0,16431,175828925867302,61,23.777124404907227,-200.32188765494857,0.3029616852904753,4,-46832.08886412164,3.4028234663852886E38,1.57542003E9,,,,0,,1,,1.57542003E9
Raw,2065158178,1412291000000,,,-1311985616708660686,0.0,9.562955298035671,,,0,6,0.0,16431,175828924152288,12,37.50108337402344,-654.8781788364968,0.06293026460142018,1,-561673.9937101213,0.0011421821545809507,1.57542003E9,,,,0,,1,,1.57542003E9
Raw,2065158178,1412291000000,,,-1311985616708660686,0.0,9.562955298035671,,,0,7,0.0,16,1412015310993,1000000000,7.0,529.6656410735177,2.99792458E8,2,7.934661956352132,3.4028234663852886E38,1.57542003E9,,,,0,,1,,1.57542003E9
Raw,2065158178,1412291000000,,,-1311985616708660686,0.0,9.562955298035671,,,0,14,0.0,16431,175828932407209,15,35.57203674316406,-89.294587585361,0.07987908497197721,1,-227450.16756907903,0.001512738410383463,1.57542003E9,,,,0,,1,,1.57542003E9
Raw,2065158178,1412291000000,,,-1311985616708660686,0.0,9.562955298035671,,,0,17,0.0,16431,175828929370227,27,30.818559646606445,-192.89273011193245,0.1359002839597424,1,-48540.41501684302,0.0024652527645230293,1.57542003E9,,,,0,,1,,1.57542003E9
Raw,2065158179,1412291000000,,,-1311985616708660686,0.0,9.562955298035671,,,0,19,0.0,16431,175828927371373,11,38.63987731933594,-444.77360368580594,0.0558683563113396,1,-548756.786423653,0.0010626051807776093,1.57542003E9,,,,0,,1,,1.57542003E9
Raw,2065158179,1412291000000,,,-1311985616708660686,0.0,9.562955298035671,,,0,21,0.0,16431,175828915963521,15,35.71824645996094,476.0461320805932,0.07922267316833587,1,618065.0728742502,0.0014874879270792007,1.57542003E9,,,,0,,1,,1.57542003E9
Raw,2065158179,1412291000000,,,-1311985616708660686,0.0,9.562955298035671,,,0,22,0.0,16431,175828922779597,42,26.929203033447266,132.66182099657192,0.21052363945636654,4,13945.318954065444,3.4028234663852886E38,1.57542003E9,,,,0,,1,,1.57542003E9
Raw,2065158180,1412291000000,,,-1311985616708660686,0.0,9.562955298035671,,,0,24,0.0,16,1412016322657,1000000000,10.488258361816406,-407.8778448717767,2.99792458E8,2,-524294.5184948839,3.4028234663852886E38,1.57542003E9,,,,0,,1,,1.57542003E9
Raw,2065158181,1412291000000,,,-1311985616708660686,0.0,9.562955298035671,,,0,30,0.0,16431,175828921487457,6,42.587337493896484,482.9918981427463,0.034890298528025096,1,19812.725533837835,7.110130973160267E-4,1.57542003E9,,,,0,,1,,1.57542003E9
Raw,2065158181,1412291000000,,,-1311985616708660686,0.0,9.562955298035671,,,0,10,0.0,16,1412001229955,1000000000,21.734943389892578,-860.5497851970918,2.99792458E8,2,-524288.8869903563,3.4028234663852886E38,1.59806246E9,,,,0,,3,,1.59806246E9
Raw,2065158181,1412291000000,,,-1311985616708660686,0.0,9.562955298035671,,,0,2,0.0,32995,13810919990163,60,22.941875457763672,-30.62739009588114,4.203595721581683,4,-5838.967375540999,3.4028234663852886E38,1.59975002E9,,,,0,,3,,1.59975002E9
Raw,2065158182,1412291000000,,,-1311985616708660686,0.0,9.562955298035671,,,0,18,0.0,32995,13810928221255,112,24.514965057373047,376.00294314040525,0.27879810563249985,4,47451.10618696924,3.4028234663852886E38,1.60031245E9,,,,0,,3,,1.60031245E9
Raw,2065158182,1412291000000,,,-1311985616708660686,0.0,9.562955298035671,,,0,16,0.0,32995,13810932838530,33,38.19485855102539,366.4583216034748,0.05971907895319223,1,25025.283797029348,0.001100294990465045,1.60143744E9,,,,0,,3,,1.60143744E9
Raw,2065158182,1412291000000,,,-1311985616708660686,0.0,9.562955298035671,,,0,19,0.0,99,933162964,66,29.11115837097168,-27.70931194285056,0.16573699501361627,1,-1251.4157068224833,0.0029478685464709997,1.60368755E9,,,,0,,3,,1.60368755E9
Raw,2065158183,1412291000000,,,-1311985616708660686,0.0,9.562955298035671,,,0,3,0.0,32995,13810922084509,33,35.05452346801758,-519.8784546935144,0.08278918257136492,4,-641793.932536738,3.4028234663852886E38,1.60481254E9,,,,0,,3,,1.60481254E9
Raw,2065158183,1412291000000,,,-1311985616708660686,0.0,9.562955298035671,,,0,193,0.0,35,11216474,25,31.251909255981445,-181.40305686370175,0.12970052202836335,1,-12810.27020170763,0.002345276065170765,1.57542003E9,,,,0,,4,,1.57542003E9
Raw,2065158183,1412291000000,,,-1311985616708660686,0.0,9.562955298035671,,,0,194,0.0,35,15679812,8,40.56891632080078,-152.2726108613731,0.04650040704571737,1,-38146.95213619899,8.970131166279316E-4,1.57542003E9,,,,0,,4,,1.57542003E9
Raw,2065158183,1412291000000,,,-1311985616708660686,0.0,9.562955298035671,,,0,195,0.0,1,810509,38,27.82181167602539,-119.70816991086042,0.19091740678877933,1,-37892.92875241816,0.0034809582866728306,1.57542003E9,,,,0,,4,,1.57542003E9
Raw,2065158184,1412291000000,,,-1311985616708660686,0.0,9.562955298035671,,,0,7,0.0,16431,175814879666878,9,33.48268127441406,-101.94957410456311,0.10230059012309911,1,-146586.76166505643,0.001941770315170288,1.56109798E9,,,,0,,5,,1.56109798E9
Raw,2065158184,1412291000000,,,-1311985616708660686,0.0,9.562955298035671,,,0,8,0.0,16431,175814877921657,6,37.358665466308594,-209.70127744265642,0.06643502451473834,4,-300694.3089847734,3.4028234663852886E38,1.56109798E9,,,,0,,5,,1.56109798E9
Raw,2065158184,1412291000000,,,-1311985616708660686,0.0,9.562955298035671,,,0,10,0.0,16431,175814880218177,9,34.24720001220703,-165.73105721064394,0.09407839718886479,1,-204173.73600542097,0.001778164179995656,1.56109798E9,,,,0,,5,,1.56109798E9
Raw,2065158185,1412291000000,,,-1311985616708660686,0.0,9.562955298035671,,,0,30,0.0,16431,175814924245366,6,41.46425247192383,-322.72749654607856,0.04016540948820624,1,-80544.63222436835,8.165785693563521E-4,1.56109798E9,,,,0,,5,,1.56109798E9
Raw,2065158185,1412291000000,,,-1311985616708660686,0.0,9.562955298035671,,,0,32,0.0,16431,175814912811424,6,36.77155303955078,-649.4043318241943,0.06993623555898743,1,-159829.65426377123,0.0013297018595039845,1.56109798E9,,,,0,,5,,1.56109798E9
Raw,2065158185,1412291000000,,,-1311985616708660686,0.0,9.562955298035671,,,0,33,0.0,16431,175814910824391,18,27.934837341308594,10.11339383169016,0.1890094548964809,1,-2017.869551147409,0.00346747855655849,1.56109798E9,,,,0,,5,,1.56109798E9
Raw,2065158186,1412291000000,,,-1311985616708660686,0.0,9.562955298035671,,,0,36,0.0,16431,175814920511469,8,35.213069915771484,-339.67980367841574,0.08461305164550831,1,-121827.53459462977,0.0015910299262031913,1.56109798E9,,,,0,,5,,1.56109798E9
Fix,gps,34.486395,109.464215,357.330841,0.000000,3.000000,1627951811999
Raw,2065159196,1413291000000,,,-1311985616708661074,0.0,9.607952171191052,,,0,1,0.0,16431,175829925527686,36,28.218088150024414,492.2710514258206,0.1820549030160823,4,582244.2046717149,3.4028234663852886E38,1.57542003E9,,,,0,,1,,1.57542003E9
Raw,2065159196,1413291000000,,,-1311985616708661074,0.0,9.607952171191052,,,0,3,0.0,16431,175829925868025,44,26.54942512512207,-199.54465427517414,0.22046584815911408,4,-47032.05013393837,3.4028234663852886E38,1.57542003E9,,,,0,,1,,1.57542003E9
Raw,2065159197,1413291000000,,,-1311985616708661074,0.0,9.607952171191052,,,0,6,0.0,16431,175829924154495,9,39.98747634887695,-655.5093859312992,0.04745134169844395,1,-562329.1138221759,9.591149864718318E-4,1.57542003E9,,,,0,,1,,1.57542003E9
Raw,2065159197,1413291000000,,,-1311985616708661074,0.0,9.607952171191052,,,0,7,0.0,16,1413015309287,1000000000,7.0,529.6656410735177,2.99792458E8,2,7.930519898426057,3.4028234663852886E38,1.57542003E9,,,,0,,1,,1.57542003E9
Raw,2065159198,1413291000000,,,-1311985616708661074,0.0,9.607952171191052,,,0,14,0.0,16431,175829932407523,10,39.318946838378906,-89.18487615781407,0.05267250194390835,1,-227539.43817376986,9.826940950006247E-4,1.57542003E9,,,,0,,1,,1.57542003E9
Raw,2065159199,1413291000000,,,-1311985616708661074,0.0,9.607952171191052,,,0,17,0.0,16431,175829929370808,15,35.42372131347656,-192.93603187294468,0.08067015409835016,4,-48733.32780815238,3.4028234663852886E38,1.57542003E9,,,,0,,1,,1.57542003E9
Raw,2065159199,1413291000000,,,-1311985616708661074,0.0,9.607952171191052,,,0,19,0.0,16431,175829927372875,6,43.0401611328125,-445.53323347678634,0.03419019777468331,1,-549201.972958333,6.748953019268811E-4,1.57542003E9,,,,0,,1,,1.57542003E9
Raw,2065159200,1413291000000,,,-1311985616708661074,0.0,9.607952171191052,,,0,21,0.0,16431,175829915961902,19,33.89475631713867,477.306126415785,0.09705806593546618,4,618541.505098483,3.4028234663852886E38,1.57542003E9,,,,0,,1,,1.57542003E9
Raw,2065159200,1413291000000,,,-1311985616708661074,0.0,9.607952171191052,,,0,22,0.0,16431,175829922779124,53,24.970977783203125,133.32712758912544,0.26363542315954747,4,14078.3103771121,3.4028234663852886E38,1.57542003E9,,,,0,,1,,1.57542003E9
Raw,2065159201,1413291000000,,,-1311985616708661074,0.0,9.607952171191052,,,0,24,0.0,16,1413016323957,1000000000,19.05564308166504,-407.8778448717767,2.99792458E8,2,-524294.5153052233,3.4028234663852886E38,1.57542003E9,,,,0,,1,,1.57542003E9
Raw,2065159202,1413291000000,,,-1311985616708661074,0.0,9.607952171191052,,,0,30,0.0,16431,175829921485834,6,43.41972351074219,482.5959281628643,0.03172605738641032,1,20295.564660593456,6.460383883677423E-4,1.57542003E9,,,,0,,1,,1.57542003E9
Raw,2065159202,1413291000000,,,-1311985616708661074,0.0,9.607952171191052,,,0,10,0.0,16,1413001232703,1000000000,15.12154483795166,-860.4583078837845,2.99792458E8,2,-524288.8734250827,3.4028234663852886E38,1.59806246E9,,,,0,,3,,1.59806246E9
Raw,2065159203,1413291000000,,,-1311985616708661074,0.0,9.607952171191052,,,0,2,0.0,32995,13811919990401,116,24.191261291503906,-30.539097362105267,0.2914452099179581,4,-5869.54287077465,3.4028234663852886E38,1.59975002E9,,,,0,,3,,1.59975002E9
Raw,2065159203,1413291000000,,,-1311985616708661074,0.0,9.607952171191052,,,0,18,0.0,32995,13811928220196,109,24.701496124267578,376.19598617415045,0.2729059844683477,4,47827.0234695842,3.4028234663852886E38,1.60031245E9,,,,0,,3,,1.60031245E9
Raw,2065159204,1413291000000,,,-1311985616708661074,0.0,9.607952171191052,,,0,16,0.0,32995,13811932837313,33,35.44752502441406,366.2779913260126,0.0810775293196499,1,25391.672313089104,0.0015096483984962106,1.60143744E9,,,,0,,3,,1.60143744E9
Raw,2065159205,1413291000000,,,-1311985616708661074,0.0,9.607952171191052,,,0,19,0.0,99,1933163061,93,26.1317081451416,-27.949075634027935,0.2325876532550496,1,-1279.265487494741,0.0041541350074112415,1.60368755E9,,,,0,,3,,1.60368755E9
Raw,2065159206,1413291000000,,,-1311985616708661074,0.0,9.607952171191052,,,0,3,0.0,32995,13811922086313,33,36.48908996582031,-518.9063889510273,0.07024257826390534,4,-642313.3123200041,3.4028234663852886E38,1.60481254E9,,,,0,,3,,1.60481254E9
Raw,2065159206,1413291000000,,,-1311985616708661074,0.0,9.607952171191052,,,0,193,0.0,35,11217102,23,32.11626434326172,-180.88231101048973,0.117606317398318,1,-12991.414224005324,0.002123128157109022,1.57542003E9,,,,0,,4,,1.57542003E9
Raw,2065159207,1413291000000,,,-1311985616708661074,0.0,9.607952171191052,,,0,194,0.0,35,15680298,10,39.43024444580078,-151.94828220510203,0.052618985996855994,1,-38299.0459026807,9.701826493255794E-4,1.57542003E9,,,,0,,4,,1.57542003E9
Raw,2065159208,1413291000000,,,-1311985616708661074,0.0,9.607952171191052,,,0,195,0.0,1,810857,27,30.682931900024414,-119.46370497083643,0.13773195804956412,1,-38012.55614141729,0.0025040495675057173,1.57542003E9,,,,0,,4,,1.57542003E9
Raw,2065159208,1413291000000,,,-1311985616708661074,0.0,9.607952171191052,,,0,7,0.0,16431,175815879667236,11,32.16120910644531,-101.47548713433082,0.1185297389547329,1,-146688.47248698672,0.0021315482445061207,1.56109798E9,,,,0,,5,,1.56109798E9
Raw,2065159209,1413291000000,,,-1311985616708661074,0.0,9.607952171191052,,,0,8,0.0,16431,175815877922359,9,33.713932037353516,-209.6216267417626,0.09939204853429973,4,-300904.1130327672,3.4028234663852886E38,1.56109798E9,,,,0,,5,,1.56109798E9
Raw,2065159209,1413291000000,,,-1311985616708661074,0.0,9.607952171191052,,,0,10,0.0,16431,175815880218739,9,34.27435302734375,-165.8026985342549,0.09379621841308317,1,-204339.5287830685,0.001772614079527557,1.56109798E9,,,,0,,5,,1.56109798E9
Raw,2065159210,1413291000000,,,-1311985616708661074,0.0,9.607952171191052,,,0,30,0.0,16431,175815924246436,7,36.014671325683594,-322.96089320834676,0.07455335998288637,4,-80867.61558506486,3.4028234663852886E38,1.56109798E9,,,,0,,5,,1.56109798E9
Raw,2065159211,1413291000000,,,-1311985616708661074,0.0,9.607952171191052,,,0,32,0.0,16431,175815912813583,9,33.659969329833984,-648.7530842449564,0.09907242565345153,4,-160478.7769199376,3.4028234663852886E38,1.56109798E9,,,,0,,5,,1.56109798E9
Raw,2065159211,1413291000000,,,-1311985616708661074,0.0,9.607952171191052,,,0,33,0.0,16431,175815910824280,21,26.6549072265625,10.912165193833474,0.21870898739121536,4,-2007.534445911667,3.4028234663852886E38,1.56109798E9,,,,0,,5,,1.56109798E9
