# 
# Header Description:
# 
# Version: v2.0.0.1 Platform: 10 Manufacturer: HUAWEI Model: BLA-AL00
# 
# Raw,ElapsedRealtimeMillis,TimeNanos,LeapSecond,TimeUncertaintyNanos,FullBiasNanos,BiasNanos,BiasUncertaintyNanos,DriftNanosPerSecond,DriftUncertaintyNanosPerSecond,HardwareClockDiscontinuityCount,Svid,TimeOffsetNanos,State,ReceivedSvTimeNanos,ReceivedSvTimeUncertaintyNanos,Cn0DbHz,PseudorangeRateMetersPerSecond,PseudorangeRateUncertaintyMetersPerSecond,AccumulatedDeltaRangeState,AccumulatedDeltaRangeMeters,AccumulatedDeltaRangeUncertaintyMeters,CarrierFrequencyHz,CarrierCycles,CarrierPhase,CarrierPhaseUncertainty,MultipathIndicator,SnrInDb,ConstellationType,AgcDb,CarrierFrequencyHz
# 
# Fix,Provider,Latitude,Longitude,Altitude,Speed,Accuracy,(UTC)TimeInMs
# 
# Nav,Svid,Type,Status,MessageId,Sub-messageId,Data(Bytes)
# 
Raw,2065486139,1740291000000,,,-1311985616708787567,0.0,8.280494310544366,,,0,1,0.0,16,1740004983363,1000000000,37.81990051269531,505.34521807779674,2.99792458E8,2,524290.5119374407,3.4028234663852886E38,1.57542003E9,,,,0,,1,,1.57542003E9
Raw,2065486139,1740291000000,,,-1311985616708787567,0.0,8.280494310544366,,,0,2,0.0,16,1740014747154,1000000000,7.0,-688.5839560498171,2.99792458E8,2,-9.626081841711414,3.4028234663852886E38,1.57542003E9,,,,0,,1,,1.57542003E9
Raw,2065486140,1740291000000,,,-1311985616708787567,0.0,8.280494310544366,,,0,3,0.0,16431,176156926063400,6,42.73830795288086,-158.20713339726615,0.035116820802081394,4,-17831.474586947334,3.4028234663852886E38,1.57542003E9,,,,0,,1,,1.57542003E9
Raw,2065486140,1740291000000,,,-1311985616708787567,0.0,8.280494310544366,,,0,6,0.0,16431,176156924856377,23,32.14263916015625,-632.1967130100447,0.11611175674686669,4,-683204.0462685506,3.4028234663852886E38,1.57542003E9,,,,0,,1,,1.57542003E9
Raw,2065486140,1740291000000,,,-1311985616708787567,0.0,8.280494310544366,,,0,14,0.0,16431,176156932484974,10,39.21926498413086,-52.89307977490435,0.053268632898848645,4,-250756.66189965812,3.4028234663852886E38,1.57542003E9,,,,0,,1,,1.57542003E9
Raw,2065486140,1740291000000,,,-1311985616708787567,0.0,8.280494310544366,,,0,17,0.0,16431,176156929576135,6,42.813385009765625,-183.66921643913167,0.035455839729354066,4,-110297.10184614034,3.4028234663852886E38,1.57542003E9,,,,0,,1,,1.57542003E9
Raw,2065486141,1740291000000,,,-1311985616708787567,0.0,8.280494310544366,,,0,19,0.0,16431,176156927851772,25,31.291332244873047,-433.5378447386702,0.12851708860636624,4,-692780.1443474896,3.4028234663852886E38,1.57542003E9,,,,0,,1,,1.57542003E9
Raw,2065486141,1740291000000,,,-1311985616708787567,0.0,8.280494310544366,,,0,21,0.0,16431,176156915444369,23,32.2249641418457,472.57445897672324,0.1169291865232065,1,533280.8415213474,0.002223911229521036,1.57542003E9,,,,0,,1,,1.57542003E9
Raw,2065486141,1740291000000,,,-1311985616708787567,0.0,8.280494310544366,,,0,22,0.0,39,2922614253,7,42.020816802978516,169.1023745212825,0.03742645641170944,4,338.25987323859033,3.4028234663852886E38,1.57542003E9,,,,0,,1,,1.57542003E9
Raw,2065486141,1740291000000,,,-1311985616708787567,0.0,8.280494310544366,,,0,24,0.0,16,1740016750310,1000000000,22.057424545288086,-373.90349790105665,2.99792458E8,2,-524293.9755339643,3.4028234663852886E38,1.57542003E9,,,,0,,1,,1.57542003E9
Raw,2065486142,1740291000000,,,-1311985616708787567,0.0,8.280494310544366,,,0,30,0.0,16431,176156920954629,26,31.037633895874023,490.6704029376833,0.13464121344551083,4,179543.43860448102,3.4028234663852886E38,1.57542003E9,,,,0,,1,,1.57542003E9
Raw,2065486142,1740291000000,,,-1311985616708787567,0.0,8.280494310544366,,,0,10,0.0,32995,14138922160644,47,31.980470657348633,-840.5431787234629,0.1177985887173787,4,-534378.5973255424,3.4028234663852886E38,1.59806246E9,,,,0,,3,,1.59806246E9
Raw,2065486142,1740291000000,,,-1311985616708787567,0.0,8.280494310544366,,,0,2,0.0,17,997825,63,22.21907615661621,17.11307620990881,4.203597052927641,4,29.630904292385228,3.4028234663852886E38,1.59975002E9,,,,0,,3,,1.59975002E9
Raw,2065486142,1740291000000,,,-1311985616708787567,0.0,8.280494310544366,,,0,18,0.0,16,1740007807624,1000000000,24.22378921508789,380.23485951947305,2.99792458E8,2,2.6539800554131223,3.4028234663852886E38,1.60031245E9,,,,0,,3,,1.60031245E9
Raw,2065486143,1740291000000,,,-1311985616708787567,0.0,8.280494310544366,,,0,9,0.0,32995,14138933268990,39,33.58085250854492,-349.0886747910158,0.10003980658921457,4,-637852.8484856498,3.4028234663852886E38,1.59862502E9,,,,0,,3,,1.59862502E9
Raw,2065486143,1740291000000,,,-1311985616708787567,0.0,8.280494310544366,,,0,16,0.0,32995,14138932413729,72,28.264577865600586,410.2148448330893,0.18232704677170608,4,36759.628412056874,3.4028234663852886E38,1.60143744E9,,,,0,,3,,1.60143744E9
Raw,2065486143,1740291000000,,,-1311985616708787567,0.0,8.280494310544366,,,0,19,0.0,99,933180594,63,29.425548553466797,-4.747786310843523,0.15993269275721356,4,-138.79115163831676,3.4028234663852886E38,1.60368755E9,,,,0,,3,,1.60368755E9
Raw,2065486144,1740291000000,,,-1311985616708787567,0.0,8.280494310544366,,,0,3,0.0,32995,14138922634877,33,43.41114044189453,-485.93260065644745,0.031963856576775834,4,-806772.9185560688,3.4028234663852886E38,1.60481254E9,,,,0,,3,,1.60481254E9
Raw,2065486144,1740291000000,,,-1311985616708787567,0.0,8.280494310544366,,,0,193,0.0,35,11414190,10,39.041080474853516,-180.18803432989182,0.054133541800412854,1,-5750.490955084867,0.0010146392742171884,1.57542003E9,,,,0,,4,,1.57542003E9
Raw,2065486144,1740291000000,,,-1311985616708787567,0.0,8.280494310544366,,,0,194,0.0,35,15842007,11,38.03244400024414,-144.381772362299,0.06134290081578944,4,-86772.78378289548,3.4028234663852886E38,1.57542003E9,,,,0,,4,,1.57542003E9
Raw,2065486144,1740291000000,,,-1311985616708787567,0.0,8.280494310544366,,,0,195,0.0,51,7943629,8,40.66211700439453,-123.92192034060156,0.04464267601922545,4,-1361.9109259294494,3.4028234663852886E38,1.57542003E9,,,,0,,4,,1.57542003E9
Raw,2065486145,1740291000000,,,-1311985616708787567,0.0,8.280494310544366,,,0,7,0.0,16431,176142879774429,10,32.94168472290039,-94.67978612824766,0.1086669616801999,4,-178821.2081228134,3.4028234663852886E38,1.56109798E9,,,,0,,5,,1.56109798E9
Raw,2065486146,1740291000000,,,-1311985616708787567,0.0,8.280494310544366,,,0,8,0.0,16431,176142878144955,12,31.804746627807617,-198.56357372293678,0.12307328987263216,4,-367631.7087532544,3.4028234663852886E38,1.56109798E9,,,,0,,5,,1.56109798E9
Raw,2065486147,1740291000000,,,-1311985616708787567,0.0,8.280494310544366,,,0,10,0.0,16431,176142880396501,8,34.73546600341797,-160.21114775835088,0.0891666791881266,4,-257627.73842384818,3.4028234663852886E38,1.56109798E9,,,,0,,5,,1.56109798E9
Raw,2065486147,1740291000000,,,-1311985616708787567,0.0,8.280494310544366,,,0,30,0.0,16431,176142924591702,17,28.662429809570312,-310.3872615128646,0.1728569832711112,4,-184368.19076961372,3.4028234663852886E38,1.56109798E9,,,,0,,5,,1.56109798E9
Raw,2065486147,1740291000000,,,-1311985616708787567,0.0,8.280494310544366,,,0,32,0.0,16431,176142913522190,15,29.919076919555664,-649.7733766634233,0.15129109256258477,4,-372917.58275392454,3.4028234663852886E38,1.56109798E9,,,,0,,5,,1.56109798E9
Raw,2065486148,1740291000000,,,-1311985616708787567,0.0,8.280494310544366,,,0,33,0.0,16431,176142910795401,60,22.861217498779297,42.090317136355566,4.201941923632752,4,6618.653031419247,3.4028234663852886E38,1.56109798E9,,,,0,,5,,1.56109798E9
Raw,2065486148,1740291000000,,,-1311985616708787567,0.0,8.280494310544366,,,0,36,0.0,16431,176142920864943,12,31.462451934814453,-306.2671015087351,0.12837827914842836,4,-227810.38813589557,3.4028234663852886E38,1.56109798E9,,,,0,,5,,1.56109798E9
Fix,gps,34.486373,109.463858,357.248444,0.834384,2.000000,1627952138999
Fix,gps,34.486373,109.463861,357.237030,0.755698,2.000000,1627952139999
Raw,2065487170,1741291000000,,,-1311985616708787957,0.0,8.191275961040358,,,0,1,0.0,17,981670,13,36.575355529785156,505.4155301856033,0.07007290654248038,4,524694.9039202828,3.4028234663852886E38,1.57542003E9,,,,0,,1,,1.57542003E9
Raw,2065487170,1741291000000,,,-1311985616708787957,0.0,8.191275961040358,,,0,2,0.0,16,1741014749451,1000000000,7.0,-688.5839560498171,2.99792458E8,2,-9.620697021139039,3.4028234663852886E38,1.57542003E9,,,,0,,1,,1.57542003E9
Raw,2065487171,1741291000000,,,-1311985616708787957,0.0,8.191275961040358,,,0,3,0.0,16431,176157926063921,6,44.71933364868164,-158.08561239853407,0.031090751576658165,4,-17989.586336461067,3.4028234663852886E38,1.57542003E9,,,,0,,1,,1.57542003E9
Raw,2065487171,1741291000000,,,-1311985616708787957,0.0,8.191275961040358,,,0,6,0.0,16431,176157924858540,30,29.784326553344727,-632.0166894746912,0.15206007798788068,4,-683836.1260318515,3.4028234663852886E38,1.57542003E9,,,,0,,1,,1.57542003E9
Raw,2065487171,1741291000000,,,-1311985616708787957,0.0,8.191275961040358,,,0,14,0.0,16431,176157932485164,8,41.24960708618164,-52.72132123525765,0.042633367094967956,4,-250809.40744816847,3.4028234663852886E38,1.57542003E9,,,,0,,1,,1.57542003E9
Raw,2065487172,1741291000000,,,-1311985616708787957,0.0,8.191275961040358,,,0,17,0.0,16431,176157929576775,6,43.641212463378906,-183.6410813712721,0.032389383868120625,4,-110480.74632268379,3.4028234663852886E38,1.57542003E9,,,,0,,1,,1.57542003E9
Raw,2065487172,1741291000000,,,-1311985616708787957,0.0,8.191275961040358,,,0,19,0.0,16431,176157927853239,35,28.573673248291016,-433.06968811587285,0.17521058658099964,4,-693213.4096592233,3.4028234663852886E38,1.57542003E9,,,,0,,1,,1.57542003E9
Raw,2065487172,1741291000000,,,-1311985616708787957,0.0,8.191275961040358,,,0,21,0.0,16431,176157915442795,30,29.921857833862305,472.58536536281053,0.15158893129519646,1,533753.3862767244,0.002733358182013035,1.57542003E9,,,,0,,1,,1.57542003E9
Raw,2065487172,1741291000000,,,-1311985616708787957,0.0,8.191275961040358,,,0,22,0.0,39,3922613686,6,43.572757720947266,169.20037862501385,0.031379530916071804,4,507.42422232660317,3.4028234663852886E38,1.57542003E9,,,,0,,1,,1.57542003E9
Raw,2065487173,1741291000000,,,-1311985616708787957,0.0,8.191275961040358,,,0,24,0.0,16,1741016751495,1000000000,20.561054229736328,-373.7178507603769,2.99792458E8,2,-524293.9696446613,3.4028234663852886E38,1.57542003E9,,,,0,,1,,1.57542003E9
Raw,2065487173,1741291000000,,,-1311985616708787957,0.0,8.191275961040358,,,0,30,0.0,16431,176157920952884,34,28.812198638916016,490.6107927212249,0.17285913006646836,4,180033.97076246666,3.4028234663852886E38,1.57542003E9,,,,0,,1,,1.57542003E9
Raw,2065487173,1741291000000,,,-1311985616708787957,0.0,8.191275961040358,,,0,10,0.0,32995,14139922163518,41,33.24494934082031,-840.4105298026761,0.10189262411703054,4,-535219.0613805631,3.4028234663852886E38,1.59806246E9,,,,0,,3,,1.59806246E9
Raw,2065487174,1741291000000,,,-1311985616708787957,0.0,8.191275961040358,,,0,18,0.0,16,1741007806355,1000000000,25.997589111328125,380.23485951947305,2.99792458E8,2,2.6718384429462168,3.4028234663852886E38,1.60031245E9,,,,0,,3,,1.60031245E9
Raw,2065487174,1741291000000,,,-1311985616708787957,0.0,8.191275961040358,,,0,9,0.0,32995,14139933270121,33,37.33580780029297,-348.9323726454022,0.06576491648955488,4,-638201.855119306,3.4028234663852886E38,1.59862502E9,,,,0,,3,,1.59862502E9
Raw,2065487174,1741291000000,,,-1311985616708787957,0.0,8.191275961040358,,,0,16,0.0,32995,14139932412270,110,24.6230525970459,410.2624239423951,0.27612243309356554,4,37169.33388934725,3.4028234663852886E38,1.60143744E9,,,,0,,3,,1.60143744E9
Raw,2065487174,1741291000000,,,-1311985616708787957,0.0,8.191275961040358,,,0,19,0.0,99,1933180584,51,31.25572395324707,-4.65974227249259,0.12999775333438174,4,-143.48610876280782,3.4028234663852886E38,1.60368755E9,,,,0,,3,,1.60368755E9
Raw,2065487175,1741291000000,,,-1311985616708787957,0.0,8.191275961040358,,,0,3,0.0,32995,14139922636478,33,42.995033264160156,-485.8612319924887,0.03350942025978393,4,-807258.8004664041,3.4028234663852886E38,1.60481254E9,,,,0,,3,,1.60481254E9
Raw,2065487175,1741291000000,,,-1311985616708787957,0.0,8.191275961040358,,,0,193,0.0,35,11414797,11,38.4920768737793,-180.22608739259954,0.05753171498843099,1,-5930.672999084078,0.0010808411752805114,1.57542003E9,,,,0,,4,,1.57542003E9
Raw,2065487175,1741291000000,,,-1311985616708787957,0.0,8.191275961040358,,,0,194,0.0,35,15842467,10,39.19364929199219,-144.42669303999605,0.05402324810871123,4,-86917.16563152982,3.4028234663852886E38,1.57542003E9,,,,0,,4,,1.57542003E9
Raw,2065487175,1741291000000,,,-1311985616708787957,0.0,8.191275961040358,,,0,195,0.0,51,7944029,10,39.298954010009766,-123.90349877285098,0.05198586858702217,4,-1485.7539857722918,3.4028234663852886E38,1.57542003E9,,,,0,,4,,1.57542003E9
Raw,2065487176,1741291000000,,,-1311985616708787957,0.0,8.191275961040358,,,0,7,0.0,16431,176143879774734,15,29.94440460205078,-94.80097482302864,0.15198236066758697,4,-178915.99479870228,3.4028234663852886E38,1.56109798E9,,,,0,,5,,1.56109798E9
Raw,2065487176,1741291000000,,,-1311985616708787957,0.0,8.191275961040358,,,0,8,0.0,16431,176143878145606,9,33.88011932373047,-198.54114746654477,0.09760970913313127,4,-367830.2262920991,3.4028234663852886E38,1.56109798E9,,,,0,,5,,1.56109798E9
Raw,2065487176,1741291000000,,,-1311985616708787957,0.0,8.191275961040358,,,0,10,0.0,16431,176143880397038,6,36.712257385253906,-160.21072172764434,0.0717639904991455,4,-257787.94847140394,3.4028234663852886E38,1.56109798E9,,,,0,,5,,1.56109798E9
Raw,2065487177,1741291000000,,,-1311985616708787957,0.0,8.191275961040358,,,0,30,0.0,16431,176143924592743,13,30.61607551574707,-310.29990817679663,0.13820647471170433,4,-184678.4587026513,3.4028234663852886E38,1.56109798E9,,,,0,,5,,1.56109798E9
Raw,2065487177,1741291000000,,,-1311985616708787957,0.0,8.191275961040358,,,0,32,0.0,16431,176143913524368,14,30.37764549255371,-649.8810090611223,0.1436364024847393,4,-373567.4409344926,3.4028234663852886E38,1.56109798E9,,,,0,,5,,1.56109798E9
Raw,2065487177,1741291000000,,,-1311985616708787957,0.0,8.191275961040358,,,0,33,0.0,16431,176143910795213,70,20.845497131347656,43.634712530001934,4.201941923632752,4,6661.1621627021295,3.4028234663852886E38,1.56109798E9,,,,0,,5,,1.56109798E9
Raw,2065487177,1741291000000,,,-1311985616708787957,0.0,8.191275961040358,,,0,36,0.0,16431,176143920865978,11,32.539913177490234,-306.1641724900362,0.11383943210770942,4,-228116.60850628864,3.4028234663852886E38,1.56109798E9,,,,0,,5,,1.56109798E9
Fix,gps,34.486372,109.463864,357.218567,0.517397,3.000000,1627952140999
Raw,2065488148,1742291000000,,,-1311985616708788343,0.0,8.337269262374743,,,0,1,0.0,17,979942,12,37.76853561401367,505.4968168444102,0.061193598687520695,4,524290.488360584,3.4028234663852886E38,1.57542003E9,,,,0,,1,,1.57542003E9
Raw,2065488148,1742291000000,,,-1311985616708788343,0.0,8.337269262374743,,,0,2,0.0,16,1742014751687,1000000000,7.0,-688.5839560498171,2.99792458E8,2,-9.636851482714533,3.4028234663852886E38,1.57542003E9,,,,0,,1,,1.57542003E9
Raw,2065488149,1742291000000,,,-1311985616708788343,0.0,8.337269262374743,,,0,3,0.0,16431,176158926064456,6,45.254642486572266,-158.0083304283686,0.03109084726714889,4,-18147.62902008911,3.4028234663852886E38,1.57542003E9,,,,0,,1,,1.57542003E9
Raw,2065488149,1742291000000,,,-1311985616708788343,0.0,8.337269262374743,,,0,6,0.0,16431,176158924860639,31,29.414833068847656,-632.0821959561281,0.15863060312671662,4,-684468.2140220241,3.4028234663852886E38,1.57542003E9,,,,0,,1,,1.57542003E9
Raw,2065488149,1742291000000,,,-1311985616708788343,0.0,8.337269262374743,,,0,14,0.0,16431,176158932485331,7,41.642723083496094,-52.726676441238794,0.040846255650631574,4,-250862.13394473286,3.4028234663852886E38,1.57542003E9,,,,0,,1,,1.57542003E9
Raw,2065488150,1742291000000,,,-1311985616708788343,0.0,8.337269262374743,,,0,17,0.0,16431,176158929577373,6,43.4597282409668,-183.67490820937098,0.03303697550479073,4,-110664.41571626472,3.4028234663852886E38,1.57542003E9,,,,0,,1,,1.57542003E9
Raw,2065488150,1742291000000,,,-1311985616708788343,0.0,8.337269262374743,,,0,19,0.0,16431,176158927854690,35,28.423856735229492,-433.0603154403291,0.17823455586435089,4,-693646.64353574,3.4028234663852886E38,1.57542003E9,,,,0,,1,,1.57542003E9
Raw,2065488150,1742291000000,,,-1311985616708788343,0.0,8.337269262374743,,,0,21,0.0,16431,176158915441228,32,29.159021377563477,472.38424478686943,0.16524904007821328,1,534225.8511856899,0.0029842720832675695,1.57542003E9,,,,0,,1,,1.57542003E9
Raw,2065488150,1742291000000,,,-1311985616708788343,0.0,8.337269262374743,,,0,22,0.0,39,4922613128,6,43.19544219970703,169.25809726513523,0.03275172839262171,1,676.6458195469222,6.629370618611574E-4,1.57542003E9,,,,0,,1,,1.57542003E9
Raw,2065488151,1742291000000,,,-1311985616708788343,0.0,8.337269262374743,,,0,24,0.0,16,1742016752803,1000000000,18.150928497314453,-373.7178507603769,2.99792458E8,2,-524293.9784122352,3.4028234663852886E38,1.57542003E9,,,,0,,1,,1.57542003E9
Raw,2065488152,1742291000000,,,-1311985616708788343,0.0,8.337269262374743,,,0,30,0.0,16431,176158920951276,35,28.403148651123047,490.51727046052633,0.18101237592190678,4,180524.4471264149,3.4028234663852886E38,1.57542003E9,,,,0,,1,,1.57542003E9
Raw,2065488152,1742291000000,,,-1311985616708788343,0.0,8.337269262374743,,,0,10,0.0,32995,14140922166304,39,33.69322204589844,-840.5106640599402,0.09678748651134295,4,-536059.5366753461,3.4028234663852886E38,1.59806246E9,,,,0,,3,,1.59806246E9
Raw,2065488152,1742291000000,,,-1311985616708788343,0.0,8.337269262374743,,,0,18,0.0,16,1742007805087,1000000000,27.338298797607422,380.23485951947305,2.99792458E8,2,2.665885647015214,3.4028234663852886E38,1.60031245E9,,,,0,,3,,1.60031245E9
Raw,2065488153,1742291000000,,,-1311985616708788343,0.0,8.337269262374743,,,0,9,0.0,32995,14140933271233,33,36.18147277832031,-348.87463696405257,0.07477319848418829,4,-638550.7647514008,3.4028234663852886E38,1.59862502E9,,,,0,,3,,1.59862502E9
Raw,2065488153,1742291000000,,,-1311985616708788343,0.0,8.337269262374743,,,0,16,0.0,32995,14140932411045,122,23.782089233398438,410.2810670461131,0.30396625238302555,4,37579.208151102284,3.4028234663852886E38,1.60143744E9,,,,0,,3,,1.60143744E9
Raw,2065488153,1742291000000,,,-1311985616708788343,0.0,8.337269262374743,,,0,19,0.0,99,933180605,52,31.149333953857422,-4.655220489081103,0.13157063041180783,4,-148.17443040010903,3.4028234663852886E38,1.60368755E9,,,,0,,3,,1.60368755E9
Raw,2065488153,1742291000000,,,-1311985616708788343,0.0,8.337269262374743,,,0,3,0.0,32995,14140922638095,33,43.11363983154297,-485.8074498760957,0.03306168445367855,4,-807744.6322079083,3.4028234663852886E38,1.60481254E9,,,,0,,3,,1.60481254E9
Raw,2065488154,1742291000000,,,-1311985616708788343,0.0,8.337269262374743,,,0,193,0.0,35,11415381,11,38.02777099609375,-180.24047018925216,0.060578146574366054,1,-6110.917415583491,0.0011401899391785264,1.57542003E9,,,,0,,4,,1.57542003E9
Raw,2065488155,1742291000000,,,-1311985616708788343,0.0,8.337269262374743,,,0,194,0.0,35,15842963,10,38.72013473510742,-144.43703706555073,0.056890547096007854,4,-87061.59830641883,3.4028234663852886E38,1.57542003E9,,,,0,,4,,1.57542003E9
Raw,2065488155,1742291000000,,,-1311985616708788343,0.0,8.337269262374743,,,0,195,0.0,51,7944462,10,38.96581268310547,-124.02410806587108,0.05396268850945024,4,-1609.6804686363446,3.4028234663852886E38,1.57542003E9,,,,0,,4,,1.57542003E9
Raw,2065488155,1742291000000,,,-1311985616708788343,0.0,8.337269262374743,,,0,7,0.0,16431,176144879775038,20,27.2225399017334,-94.9199907612063,0.20660628710977602,4,-179010.82197480652,3.4028234663852886E38,1.56109798E9,,,,0,,5,,1.56109798E9
Raw,2065488155,1742291000000,,,-1311985616708788343,0.0,8.337269262374743,,,0,8,0.0,16431,176144878146278,9,34.37916946411133,-198.56536305190423,0.09234194761868347,4,-368028.78683097364,3.4028234663852886E38,1.56109798E9,,,,0,,5,,1.56109798E9
Raw,2065488156,1742291000000,,,-1311985616708788343,0.0,8.337269262374743,,,0,10,0.0,16431,176144880397568,6,37.073951721191406,-160.29032130485336,0.06898672378225337,4,-257948.21705863584,3.4028234663852886E38,1.56109798E9,,,,0,,5,,1.56109798E9
Raw,2065488156,1742291000000,,,-1311985616708788343,0.0,8.337269262374743,,,0,30,0.0,16431,176144924593780,14,30.280685424804688,-310.2372646217077,0.14361510094941254,4,-184988.74035023732,3.4028234663852886E38,1.56109798E9,,,,0,,5,,1.56109798E9
Raw,2065488156,1742291000000,,,-1311985616708788343,0.0,8.337269262374743,,,0,32,0.0,16431,176144913526536,16,28.93218994140625,-649.9037761420796,0.16920345376790746,1,-374217.3663157219,0.003091335529461503,1.56109798E9,,,,0,,5,,1.56109798E9
Raw,2065488157,1742291000000,,,-1311985616708788343,0.0,8.337269262374743,,,0,33,0.0,16431,176144910795035,66,21.774032592773438,42.89093108130464,4.201941657363561,4,6703.655193714076,3.4028234663852886E38,1.56109798E9,,,,0,,5,,1.56109798E9
Raw,2065488157,1742291000000,,,-1311985616708788343,0.0,8.337269262374743,,,0,36,0.0,16431,176144920866987,10,33.36958312988281,-306.3101135688669,0.10381086065685391,4,-228422.80838118496,3.4028234663852886E38,1.56109798E9,,,,0,,5,,1.56109798E9
Fix,gps,34.486373,109.463866,357.219452,0.352860,3.000000,1627952141999
Raw,2065489139,1743291000000,,,-1311985616708788729,0.0,8.58116456217007,,,0,1,0.0,51,4978267,10,38.9005126953125,505.55318922749893,0.05382558067806484,4,524796.0420335211,3.4028234663852886E38,1.57542003E9,,,,0,,1,,1.57542003E9
Raw,2065489139,1743291000000,,,-1311985616708788729,0.0,8.58116456217007,,,0,2,0.0,16,1743014753983,1000000000,17.41636848449707,-688.3983429915938,2.99792458E8,2,-9.628870498868666,3.4028234663852886E38,1.57542003E9,,,,0,,1,,1.57542003E9
Raw,2065489139,1743291000000,,,-1311985616708788729,0.0,8.58116456217007,,,0,3,0.0,16431,176159926064986,6,45.07223892211914,-157.91364936414823,0.031090942957639617,1,-18305.6086515719,5.341121577657759E-4,1.57542003E9,,,,0,,1,,1.57542003E9
Raw,2065489140,1743291000000,,,-1311985616708788729,0.0,8.58116456217007,,,0,6,0.0,16431,176159924862752,30,29.830284118652344,-632.0682903138668,0.15126303444652156,4,-685100.269204712,3.4028234663852886E38,1.57542003E9,,,,0,,1,,1.57542003E9
Raw,2065489140,1743291000000,,,-1311985616708788729,0.0,8.58116456217007,,,0,14,0.0,16431,176159932485512,9,40.34922790527344,-52.60544940369422,0.04704470287787718,1,-250914.79104413083,9.199901251122355E-4,1.57542003E9,,,,0,,1,,1.57542003E9
Raw,2065489140,1743291000000,,,-1311985616708788729,0.0,8.58116456217007,,,0,17,0.0,16431,176159929578006,6,43.272735595703125,-183.7125693238287,0.033718553907492926,1,-110848.12503553063,6.570641999132931E-4,1.57542003E9,,,,0,,1,,1.57542003E9
Raw,2065489141,1743291000000,,,-1311985616708788729,0.0,8.58116456217007,,,0,19,0.0,16431,176159927855964,37,27.926095962524414,-433.2664120549225,0.18866385412762876,1,-694079.9256073635,0.003439415479078889,1.57542003E9,,,,0,,1,,1.57542003E9
Raw,2065489141,1743291000000,,,-1311985616708788729,0.0,8.58116456217007,,,0,21,0.0,16431,176159915439685,33,28.944177627563477,472.335779533694,0.16931758340015035,1,534698.2411572917,0.003059007925912738,1.57542003E9,,,,0,,1,,1.57542003E9
Raw,2065489141,1743291000000,,,-1311985616708788729,0.0,8.58116456217007,,,0,22,0.0,39,5922612553,6,43.150672912597656,169.3002743050822,0.03291843786929029,1,845.8991873233692,6.663629319518805E-4,1.57542003E9,,,,0,,1,,1.57542003E9
Raw,2065489141,1743291000000,,,-1311985616708788729,0.0,8.58116456217007,,,0,24,0.0,16,1743016754049,1000000000,7.0,-373.53216953724063,2.99792458E8,2,-524293.9725209925,3.4028234663852886E38,1.57542003E9,,,,0,,1,,1.57542003E9
Raw,2065489142,1743291000000,,,-1311985616708788729,0.0,8.58116456217007,,,0,30,0.0,16431,176159920949707,33,28.878189086914062,490.4015605206314,0.17157874137508555,4,181014.87257270687,3.4028234663852886E38,1.57542003E9,,,,0,,1,,1.57542003E9
Raw,2065489142,1743291000000,,,-1311985616708788729,0.0,8.58116456217007,,,0,10,0.0,32995,14141922169080,33,35.40486145019531,-840.4441351048076,0.07954643986347809,4,-536899.9682710643,3.4028234663852886E38,1.59806246E9,,,,0,,3,,1.59806246E9
Raw,2065489142,1743291000000,,,-1311985616708788729,0.0,8.58116456217007,,,0,18,0.0,16,1743007803818,1000000000,26.744205474853516,380.32613233804113,2.99792458E8,2,2.6605713870467613,3.4028234663852886E38,1.60031245E9,,,,0,,3,,1.60031245E9
Raw,2065489143,1743291000000,,,-1311985616708788729,0.0,8.58116456217007,,,0,9,0.0,32995,14141933272427,36,34.3469123840332,-348.73817080813524,0.0917966948816164,1,-638899.5548036899,0.0017141905846074224,1.59862502E9,,,,0,,3,,1.59862502E9
Raw,2065489143,1743291000000,,,-1311985616708788729,0.0,8.58116456217007,,,0,16,0.0,32995,14141932409650,122,23.779041290283203,410.0586108523887,0.3040718946847867,4,37989.19430513024,3.4028234663852886E38,1.60143744E9,,,,0,,3,,1.60143744E9
Raw,2065489143,1743291000000,,,-1311985616708788729,0.0,8.58116456217007,,,0,19,0.0,99,1933180635,49,31.560535430908203,-4.709904725495186,0.12559667307580463,4,-152.86392184941408,3.4028234663852886E38,1.60368755E9,,,,0,,3,,1.60368755E9
Raw,2065489144,1743291000000,,,-1311985616708788729,0.0,8.58116456217007,,,0,3,0.0,32995,14141922639717,33,42.92024230957031,-485.7544175737462,0.033795701245298404,1,-808230.4247117335,6.717449869029224E-4,1.60481254E9,,,,0,,3,,1.60481254E9
Raw,2065489144,1743291000000,,,-1311985616708788729,0.0,8.58116456217007,,,0,193,0.0,35,11416003,11,38.30352020263672,-180.32952764814627,0.058749451371125194,1,-6291.235886529128,0.001104561029933393,1.57542003E9,,,,0,,4,,1.57542003E9
Raw,2065489145,1743291000000,,,-1311985616708788729,0.0,8.58116456217007,,,0,194,0.0,35,15843452,11,38.23605728149414,-144.49993623906357,0.05998791930665792,1,-87206.07550134455,0.0011131734354421496,1.57542003E9,,,,0,,4,,1.57542003E9
Raw,2065489145,1743291000000,,,-1311985616708788729,0.0,8.58116456217007,,,0,195,0.0,51,7944872,9,39.7435417175293,-124.03166585060501,0.04946337572145906,1,-1733.6806399692323,9.358120150864124E-4,1.57542003E9,,,,0,,4,,1.57542003E9
Raw,2065489145,1743291000000,,,-1311985616708788729,0.0,8.58116456217007,,,0,7,0.0,16431,176145879775356,20,27.050975799560547,-94.86595302638938,0.2106568739031056,1,-179105.6914652671,0.0038389000110328197,1.56109798E9,,,,0,,5,,1.56109798E9
Raw,2065489145,1743291000000,,,-1311985616708788729,0.0,8.58116456217007,,,0,8,0.0,16431,176145878146935,9,34.00897216796875,-198.62853488506926,0.09622070757431872,1,-368227.37207731575,0.0018276089103892446,1.56109798E9,,,,0,,5,,1.56109798E9
Raw,2065489146,1743291000000,,,-1311985616708788729,0.0,8.58116456217007,,,0,10,0.0,16431,176145880398094,7,35.490840911865234,-160.29954060934278,0.08204571738389993,1,-258108.52654365476,0.0015409542247653008,1.56109798E9,,,,0,,5,,1.56109798E9
Raw,2065489146,1743291000000,,,-1311985616708788729,0.0,8.58116456217007,,,0,30,0.0,16431,176145924594804,15,29.706995010375977,-310.32516327708004,0.15336471381752215,4,-185299.0672388246,3.4028234663852886E38,1.56109798E9,,,,0,,5,,1.56109798E9
Raw,2065489146,1743291000000,,,-1311985616708788729,0.0,8.58116456217007,,,0,32,0.0,16431,176145913528711,17,28.701431274414062,-650.0655996456499,0.17369381741478773,1,-374867.3827565757,0.0031745638698339462,1.56109798E9,,,,0,,5,,1.56109798E9
Raw,2065489147,1743291000000,,,-1311985616708788729,0.0,8.58116456217007,,,0,33,0.0,16431,176145910794937,31,23.532255172729492,41.388619000849815,0.3124803762021833,4,6746.15031749231,3.4028234663852886E38,1.56109798E9,,,,0,,5,,1.56109798E9
Raw,2065489147,1743291000000,,,-1311985616708788729,0.0,8.58116456217007,,,0,36,0.0,16431,176145920867990,13,30.589336395263672,-306.10762969466487,0.14155757233874156,4,-228728.94538735584,3.4028234663852886E38,1.56109798E9,,,,0,,5,,1.56109798E9
Fix,gps,34.486373,109.463866,357.203156,0.000000,3.000000,1627952142999
Raw,2065490144,1744291000000,,,-1311985616708789116,0.0,8.442712094191277,,,0,1,0.0,16431,176160924976565,10,38.723899841308594,505.5731274645648,0.054912528962217655,4,525301.5823983062,3.4028234663852886E38,1.57542003E9,,,,0,,1,,1.57542003E9
Raw,2065490145,1744291000000,,,-1311985616708789116,0.0,8.442712094191277,,,0,2,0.0,16,1744014756279,1000000000,7.0,-688.3983429915938,2.99792458E8,2,-9.623487129782443,3.4028234663852886E38,1.57542003E9,,,,0,,1,,1.57542003E9
Raw,2065490145,1744291000000,,,-1311985616708789116,0.0,8.442712094191277,,,0,3,0.0,16431,176160926065502,6,45.460384368896484,-157.81261192178636,0.031091034487674224,1,-18463.493099338626,5.107697215862572E-4,1.57542003E9,,,,0,,1,,1.57542003E9
Raw,2065490145,1744291000000,,,-1311985616708789116,0.0,8.442712094191277,,,0,6,0.0,16431,176160924864872,31,29.55219078063965,-631.9160780630359,0.1561562633802691,1,-685732.2936705798,0.0028521998319774866,1.57542003E9,,,,0,,1,,1.57542003E9
Raw,2065490146,1744291000000,,,-1311985616708789116,0.0,8.442712094191277,,,0,14,0.0,16431,176160932485694,9,40.294639587402344,-52.48308060385614,0.047327168725130986,1,-250967.36719857078,9.257901692762971E-4,1.57542003E9,,,,0,,1,,1.57542003E9
Raw,2065490146,1744291000000,,,-1311985616708789116,0.0,8.442712094191277,,,0,17,0.0,16431,176160929578607,6,42.62981414794922,-183.71130827293734,0.03617679268876181,1,-111031.84633562912,7.075445028021932E-4,1.57542003E9,,,,0,,1,,1.57542003E9
Raw,2065490146,1744291000000,,,-1311985616708789116,0.0,8.442712094191277,,,0,19,0.0,16431,176160927857326,166,27.812177658081055,-433.3039368395541,0.19113611364601701,1,-694513.2083934348,0.003484821878373623,1.57542003E9,,,,1,,1,,1.57542003E9
Raw,2065490146,1744291000000,,,-1311985616708789116,0.0,8.442712094191277,,,0,21,0.0,16431,176160915438112,35,28.515138626098633,472.280497789214,0.17775009571208744,1,535170.5641393797,0.003213901538401842,1.57542003E9,,,,0,,1,,1.57542003E9
Raw,2065490147,1744291000000,,,-1311985616708789116,0.0,8.442712094191277,,,0,22,0.0,16431,176160922612001,6,43.27760696411133,169.42019342835772,0.032447599050358836,1,1015.2327736345815,6.56695629004389E-4,1.57542003E9,,,,0,,1,,1.57542003E9
Raw,2065490147,1744291000000,,,-1311985616708789116,0.0,8.442712094191277,,,0,24,0.0,16,1744016755295,1000000000,22.774728775024414,-373.53216953724063,2.99792458E8,2,-524293.9695999199,3.4028234663852886E38,1.57542003E9,,,,0,,1,,1.57542003E9
Raw,2065490147,1744291000000,,,-1311985616708789116,0.0,8.442712094191277,,,0,30,0.0,16431,176160920948068,29,30.18065071105957,490.4866303321123,0.14821084062886236,4,181505.29014129087,3.4028234663852886E38,1.57542003E9,,,,0,,1,,1.57542003E9
Raw,2065490148,1744291000000,,,-1311985616708789116,0.0,8.442712094191277,,,0,10,0.0,32995,14142922171931,34,34.742218017578125,-840.3946473779365,0.08582208851445872,1,-537740.4156775522,0.001640806789509952,1.59806246E9,,,,0,,3,,1.59806246E9
Raw,2065490148,1744291000000,,,-1311985616708789116,0.0,8.442712094191277,,,0,18,0.0,16,1744007802427,1000000000,26.423276901245117,380.32613233804113,2.99792458E8,2,2.6546171622077606,3.4028234663852886E38,1.60031245E9,,,,0,,3,,1.60031245E9
Raw,2065490148,1744291000000,,,-1311985616708789116,0.0,8.442712094191277,,,0,9,0.0,32995,14142933273615,33,35.0322265625,-348.57580198526057,0.0850136702860716,1,-639248.2293368926,0.0015841390704736114,1.59862502E9,,,,0,,3,,1.59862502E9
Raw,2065490149,1744291000000,,,-1311985616708789116,0.0,8.442712094191277,,,0,16,0.0,32995,14142932408156,92,26.201169967651367,410.10632629152065,0.2306181765376707,4,38399.24136838981,3.4028234663852886E38,1.60143744E9,,,,0,,3,,1.60143744E9
Raw,2065490149,1744291000000,,,-1311985616708789116,0.0,8.442712094191277,,,0,19,0.0,99,933180631,51,31.215377807617188,-4.656669526021705,0.13059198296087587,1,-157.52753579482643,0.0023136476520448923,1.60368755E9,,,,0,,3,,1.60368755E9
Raw,2065490149,1744291000000,,,-1311985616708789116,0.0,8.442712094191277,,,0,3,0.0,32995,14142922641366,33,43.70726776123047,-485.67084739035226,0.030909544990644647,1,-808716.1468497481,6.135546136647463E-4,1.60481254E9,,,,0,,3,,1.60481254E9
Raw,2065490149,1744291000000,,,-1311985616708789116,0.0,8.442712094191277,,,0,193,0.0,35,11416583,10,38.67387390136719,-180.34464321761413,0.056382938165901036,1,-6471.552819980008,0.0010584541596472263,1.57542003E9,,,,0,,4,,1.57542003E9
Raw,2065490150,1744291000000,,,-1311985616708789116,0.0,8.442712094191277,,,0,194,0.0,35,15843923,11,38.63932418823242,-144.46374067023635,0.05739583865205666,1,-87350.53278673608,0.001062672701664269,1.57542003E9,,,,0,,4,,1.57542003E9
Raw,2065490150,1744291000000,,,-1311985616708789116,0.0,8.442712094191277,,,0,195,0.0,51,7945283,10,39.090858459472656,-124.0851156630469,0.05321193836332175,1,-1857.7340711666686,0.0010088412091135979,1.57542003E9,,,,0,,4,,1.57542003E9
Raw,2065490150,1744291000000,,,-1311985616708789116,0.0,8.442712094191277,,,0,7,0.0,16431,176146879775683,18,28.04584503173828,-94.94212731671786,0.18824408074709587,1,-179200.571405227,0.0034234453924000263,1.56109798E9,,,,0,,5,,1.56109798E9
Raw,2065490151,1744291000000,,,-1311985616708789116,0.0,8.442712094191277,,,0,8,0.0,16431,176146878147590,9,34.24756622314453,-198.5588873851649,0.09370211721659477,1,-368425.947173301,0.0017780894413590431,1.56109798E9,,,,0,,5,,1.56109798E9
Raw,2065490151,1744291000000,,,-1311985616708789116,0.0,8.442712094191277,,,0,10,0.0,16431,176146880398639,8,34.57003402709961,-160.3061526059082,0.09081104954349312,1,-258268.8550762461,0.001713287434540689,1.56109798E9,,,,0,,5,,1.56109798E9
Raw,2065490152,1744291000000,,,-1311985616708789116,0.0,8.442712094191277,,,0,30,0.0,16431,176146924595849,14,30.43185043334961,-310.27022235716527,0.14115194450901158,1,-185609.39633869776,0.002601136453449726,1.56109798E9,,,,0,,5,,1.56109798E9
Raw,2065490152,1744291000000,,,-1311985616708789116,0.0,8.442712094191277,,,0,32,0.0,16431,176146913530863,15,29.939350128173828,-650.0446048524318,0.15094562492832841,1,-375517.3768607925,0.002752884989604354,1.56109798E9,,,,0,,5,,1.56109798E9
Raw,2065490152,1744291000000,,,-1311985616708789116,0.0,8.442712094191277,,,0,33,0.0,16431,176146910794793,30,23.852737426757812,42.651697798356906,0.3012312683816658,4,6788.769047612007,3.4028234663852886E38,1.56109798E9,,,,0,,5,,1.56109798E9
Raw,2065490153,1744291000000,,,-1311985616708789116,0.0,8.442712094191277,,,0,36,0.0,16431,176146920869051,17,28.853580474853516,-306.1012903577516,0.17204036894417063,1,-229035.03332221627,0.003119439585134387,1.56109798E9,,,,0,,5,,1.56109798E9
Fix,gps,34.486373,109.463866,357.172211,0.000000,3.000000,1627952143999
Raw,2065491181,1745291000000,,,-1311985616708789503,0.0,8.316949094364967,,,0,1,0.0,16431,176161924974876,10,38.89393615722656,505.5714915066517,0.05386504260434888,4,525807.1570280315,3.4028234663852886E38,1.57542003E9,,,,0,,1,,1.57542003E9
Raw,2065491182,1745291000000,,,-1311985616708789503,0.0,8.316949094364967,,,0,2,0.0,16,1745014758637,1000000000,7.0,-688.3983429915938,2.99792458E8,2,-9.618103760667971,3.4028234663852886E38,1.57542003E9,,,,0,,1,,1.57542003E9
Raw,2065491182,1745291000000,,,-1311985616708789503,0.0,8.316949094364967,,,0,3,0.0,16431,176161926066027,6,45.168128967285156,-157.72679229626192,0.03109113017816495,1,-18621.265953315055,5.282482597976923E-4,1.57542003E9,,,,0,,1,,1.57542003E9
Raw,2065491182,1745291000000,,,-1311985616708789503,0.0,8.316949094364967,,,0,6,0.0,16431,176161924866949,30,29.683115005493164,-631.9394586282106,0.15383358058025343,1,-686364.3049152421,0.00280953012406826,1.57542003E9,,,,0,,1,,1.57542003E9
Raw,2065491182,1745291000000,,,-1311985616708789503,0.0,8.316949094364967,,,0,14,0.0,16431,176161932485840,9,40.251625061035156,-52.429681915099025,0.047550988782938314,1,-251019.87571946235,9.303858387283981E-4,1.57542003E9,,,,0,,1,,1.57542003E9
Raw,2065491183,1745291000000,,,-1311985616708789503,0.0,8.316949094364967,,,0,17,0.0,16431,176161929579216,6,42.71183776855469,-183.7000269798283,0.03585308007954913,1,-111215.56493234563,7.008942193351686E-4,1.57542003E9,,,,0,,1,,1.57542003E9
Raw,2065491183,1745291000000,,,-1311985616708789503,0.0,8.316949094364967,,,0,19,0.0,16431,176161927858735,166,28.243993759155273,-433.2389075125086,0.18193499867074692,1,-694946.46913429,0.0033158105798065662,1.57542003E9,,,,1,,1,,1.57542003E9
Raw,2065491183,1745291000000,,,-1311985616708789503,0.0,8.316949094364967,,,0,21,0.0,16431,176161915436514,39,27.529029846191406,472.24648349760423,0.1987860441620629,1,535642.8916056426,0.003600294003263116,1.57542003E9,,,,0,,1,,1.57542003E9
Raw,2065491184,1745291000000,,,-1311985616708789503,0.0,8.316949094364967,,,0,22,0.0,16431,176161922611431,6,43.662757873535156,169.4892615265012,0.031060511301360796,1,1184.6631436799325,6.282125250436366E-4,1.57542003E9,,,,0,,1,,1.57542003E9
Raw,2065491184,1745291000000,,,-1311985616708789503,0.0,8.316949094364967,,,0,24,0.0,16,1745016756540,1000000000,20.703073501586914,-373.3465223965609,2.99792458E8,2,-524293.963713033,3.4028234663852886E38,1.57542003E9,,,,0,,1,,1.57542003E9
Raw,2065491185,1745291000000,,,-1311985616708789503,0.0,8.316949094364967,,,0,30,0.0,16431,176161920946428,27,30.66750144958496,490.3799181607394,0.14033711085728973,1,181995.67776710453,0.0025085019879043102,1.57542003E9,,,,0,,1,,1.57542003E9
Raw,2065491185,1745291000000,,,-1311985616708789503,0.0,8.316949094364967,,,0,10,0.0,32995,14143922174759,35,34.3935661315918,-840.3600196021093,0.08932156464850638,1,-538580.814226916,0.0017080085817724466,1.59806246E9,,,,0,,3,,1.59806246E9
Raw,2065491185,1745291000000,,,-1311985616708789503,0.0,8.316949094364967,,,0,18,0.0,16,1745007801281,1000000000,26.097591400146484,380.32613233804113,2.99792458E8,2,2.6724798367499205,3.4028234663852886E38,1.60031245E9,,,,0,,3,,1.60031245E9
Raw,2065491186,1745291000000,,,-1311985616708789503,0.0,8.316949094364967,,,0,9,0.0,32995,14143933274826,33,35.55751037597656,-348.47941679821406,0.08016513297194905,1,-639596.7846091072,0.0014911767793819308,1.59862502E9,,,,0,,3,,1.59862502E9
Raw,2065491186,1745291000000,,,-1311985616708789503,0.0,8.316949094364967,,,0,16,0.0,32995,14143932406879,101,25.399869918823242,410.15237169028296,0.25268969579919154,4,38809.37501370948,3.4028234663852886E38,1.60143744E9,,,,0,,3,,1.60143744E9
Raw,2065491186,1745291000000,,,-1311985616708789503,0.0,8.316949094364967,,,0,19,0.0,99,1933180665,51,31.36208724975586,-4.614342842789057,0.1284444470425371,1,-162.1474398967777,0.0022748964838683605,1.60368755E9,,,,0,,3,,1.60368755E9
Raw,2065491186,1745291000000,,,-1311985616708789503,0.0,8.316949094364967,,,0,3,0.0,32995,14143922642956,33,43.66363525390625,-485.59477534739335,0.03106309494461039,1,-809201.7693887446,6.16644334513694E-4,1.60481254E9,,,,0,,3,,1.60481254E9
Raw,2065491187,1745291000000,,,-1311985616708789503,0.0,8.316949094364967,,,0,193,0.0,35,11417207,10,38.806114196777344,-180.34455801147283,0.05556214258056136,1,-6651.9054624490855,0.0010424614883959293,1.57542003E9,,,,0,,4,,1.57542003E9
Raw,2065491187,1745291000000,,,-1311985616708789503,0.0,8.316949094364967,,,0,194,0.0,35,15844410,11,38.46833801269531,-144.46161051670367,0.058480319785731205,1,-87495.01139935905,0.0010837994050234556,1.57542003E9,,,,0,,4,,1.57542003E9
Raw,2065491187,1745291000000,,,-1311985616708789503,0.0,8.316949094364967,,,0,195,0.0,35,7945708,10,39.04973602294922,-124.09131867013406,0.053457775554908216,1,-1981.808857463584,0.0010136289056390524,1.57542003E9,,,,0,,4,,1.57542003E9
Raw,2065491188,1745291000000,,,-1311985616708789503,0.0,8.316949094364967,,,0,7,0.0,16431,176147879775995,17,28.437700271606445,-94.86551847506871,0.18009732520320232,1,-179295.44778809356,0.00327243166975677,1.56109798E9,,,,0,,5,,1.56109798E9
Raw,2065491188,1745291000000,,,-1311985616708789503,0.0,8.316949094364967,,,0,8,0.0,16431,176147878148258,9,34.34273147583008,-198.5444023411427,0.09271678807313649,1,-368624.5280916322,0.0017587140901014209,1.56109798E9,,,,0,,5,,1.56109798E9
Raw,2065491188,1745291000000,,,-1311985616708789503,0.0,8.316949094364967,,,0,10,0.0,16431,176147880399158,8,34.64775085449219,-160.33807082644182,0.09003492477549785,1,-258429.1885787999,0.0016980262007564306,1.56109798E9,,,,0,,5,,1.56109798E9
Raw,2065491189,1745291000000,,,-1311985616708789503,0.0,8.316949094364967,,,0,30,0.0,16431,176147924596868,13,30.832887649536133,-310.3641195248856,0.13482045421600836,1,-185919.73144605284,0.002483769552782178,1.56109798E9,,,,0,,5,,1.56109798E9
Raw,2065491189,1745291000000,,,-1311985616708789503,0.0,8.316949094364967,,,0,32,0.0,16431,176147913533045,13,30.58548355102539,-650.0450820068231,0.14029933391573368,1,-376167.4152248248,0.0025555326137691736,1.56109798E9,,,,0,,5,,1.56109798E9
Raw,2065491189,1745291000000,,,-1311985616708789503,0.0,8.316949094364967,,,0,33,0.0,16431,176147910794623,32,23.361042022705078,42.99828655904443,0.31866231473955065,4,6831.452420183228,3.4028234663852886E38,1.56109798E9,,,,0,,5,,1.56109798E9
Raw,2065491189,1745291000000,,,-1311985616708789503,0.0,8.316949094364967,,,0,36,0.0,16431,176147920870087,19,27.85236358642578,-306.00303063559636,0.19260109345446574,1,-229341.0427187163,0.0035005593672394753,1.56109798E9,,,,0,,5,,1.56109798E9
Fix,gps,34.486373,109.463866,357.142670,0.000000,3.000000,1627952144999
Raw,2065492166,1746291000000,,,-1311985616708789889,0.0,8.188241177230518,,,0,1,0.0,16431,176162924973206,11,38.22212219238281,505.57203682595605,0.05812434699977562,1,526312.7305823233,0.0011149608762934804,1.57542003E9,,,,0,,1,,1.57542003E9
Raw,2065492166,1746291000000,,,-1311985616708789889,0.0,8.188241177230518,,,0,2,0.0,16,1746014760933,1000000000,7.0,-688.3983429915938,2.99792458E8,2,-9.63425386782555,3.4028234663852886E38,1.57542003E9,,,,0,,1,,1.57542003E9
Raw,2065492167,1746291000000,,,-1311985616708789889,0.0,8.188241177230518,,,0,3,0.0,16431,176162926066559,6,44.64356994628906,-157.59175760351854,0.031091225868655675,1,-18778.945108277392,5.611332599073648E-4,1.57542003E9,,,,0,,1,,1.57542003E9
Raw,2065492167,1746291000000,,,-1311985616708789889,0.0,8.188241177230518,,,0,6,0.0,16431,176162924869084,30,29.74851417541504,-631.896787392644,0.15268662603750338,1,-686996.2404679427,0.0027884559240192175,1.57542003E9,,,,0,,1,,1.57542003E9
Raw,2065492167,1746291000000,,,-1311985616708789889,0.0,8.188241177230518,,,0,14,0.0,16431,176162932486023,8,41.139137268066406,-52.330898175174724,0.043150474346393325,1,-251072.27665640588,8.400161750614643E-4,1.57542003E9,,,,0,,1,,1.57542003E9
Raw,2065492168,1746291000000,,,-1311985616708789889,0.0,8.188241177230518,,,0,17,0.0,16431,176162929579839,6,43.13871383666992,-183.67751551729498,0.03421639824708961,1,-111399.2728387098,6.672810413874686E-4,1.57542003E9,,,,0,,1,,1.57542003E9
Raw,2065492168,1746291000000,,,-1311985616708789889,0.0,8.188241177230518,,,0,19,0.0,16431,176162927860236,34,28.627641677856445,-433.3173653274241,0.17413530837625923,1,-695379.734218492,0.0031725422013550997,1.57542003E9,,,,0,,1,,1.57542003E9
Raw,2065492168,1746291000000,,,-1311985616708789889,0.0,8.188241177230518,,,0,21,0.0,16431,176162915434940,43,26.782562255859375,472.22024000608167,0.21637587016725446,1,536115.1567978532,0.003923388663679361,1.57542003E9,,,,0,,1,,1.57542003E9
Raw,2065492169,1746291000000,,,-1311985616708789889,0.0,8.188241177230518,,,0,22,0.0,16431,176162922610857,6,43.39701843261719,169.5632204571557,0.03201078028110842,1,1354.1669502195025,6.477294373326004E-4,1.57542003E9,,,,0,,1,,1.57542003E9
Raw,2065492169,1746291000000,,,-1311985616708789889,0.0,8.188241177230518,,,0,24,0.0,16,1746016757724,1000000000,21.599376678466797,-373.3465223965609,2.99792458E8,2,-524293.9724718952,3.4028234663852886E38,1.57542003E9,,,,0,,1,,1.57542003E9
Raw,2065492169,1746291000000,,,-1311985616708789889,0.0,8.188241177230518,,,0,30,0.0,16431,176162920944736,27,30.77791404724121,490.4471287650024,0.13861177802585706,1,182486.10251552676,0.002476816065609455,1.57542003E9,,,,0,,1,,1.57542003E9
Raw,2065492170,1746291000000,,,-1311985616708789889,0.0,8.188241177230518,,,0,10,0.0,32995,14144922177532,37,33.98100280761719,-840.2975805417595,0.09364800632431747,1,-539421.1618367892,0.0017910930328071117,1.59806246E9,,,,0,,3,,1.59806246E9
Raw,2065492170,1746291000000,,,-1311985616708789889,0.0,8.188241177230518,,,0,18,0.0,16,1746007800012,1000000000,23.843111038208008,380.32613233804113,2.99792458E8,2,2.6665256118300835,3.4028234663852886E38,1.60031245E9,,,,0,,3,,1.60031245E9
Raw,2065492170,1746291000000,,,-1311985616708789889,0.0,8.188241177230518,,,0,9,0.0,32995,14144933275957,33,35.73555374145508,-348.27635352225116,0.07858728830991746,1,-639945.1731410314,0.0014609216013923287,1.59862502E9,,,,0,,3,,1.59862502E9
Raw,2065492171,1746291000000,,,-1311985616708789889,0.0,8.188241177230518,,,0,16,0.0,32995,14144932405631,129,23.288415908813477,410.1074169301294,0.32161141245459324,4,39219.648015284176,3.4028234663852886E38,1.60143744E9,,,,0,,3,,1.60143744E9
Raw,2065492171,1746291000000,,,-1311985616708789889,0.0,8.188241177230518,,,0,19,0.0,99,933180621,51,31.26443099975586,-4.533742625958059,0.12986990251786001,1,-166.71287726507697,0.002300617750734091,1.60368755E9,,,,0,,3,,1.60368755E9
Raw,2065492171,1746291000000,,,-1311985616708789889,0.0,8.188241177230518,,,0,3,0.0,32995,14144922644565,33,43.16913604736328,-485.48032645838975,0.03285531334883224,1,-809687.326268667,6.52769289445132E-4,1.60481254E9,,,,0,,3,,1.60481254E9
Raw,2065492171,1746291000000,,,-1311985616708789889,0.0,8.188241177230518,,,0,193,0.0,35,11417793,11,38.35689163208008,-180.35108480189695,0.05840246517038558,1,-6832.27960943221,0.0010977948550134897,1.57542003E9,,,,0,,4,,1.57542003E9
Raw,2065492172,1746291000000,,,-1311985616708789889,0.0,8.188241177230518,,,0,194,0.0,35,15844899,12,37.88791275024414,-144.46029834212754,0.062324876631616205,1,-87639.48784528069,0.0011586976470425725,1.57542003E9,,,,0,,4,,1.57542003E9
Raw,2065492172,1746291000000,,,-1311985616708789889,0.0,8.188241177230518,,,0,195,0.0,35,7946106,9,39.782310485839844,-124.11648004366202,0.04924966141156359,1,-2105.9285162508263,9.316445793956518E-4,1.57542003E9,,,,0,,4,,1.57542003E9
Raw,2065492172,1746291000000,,,-1311985616708789889,0.0,8.188241177230518,,,0,7,0.0,16431,176148879776303,20,27.361000061035156,-94.83493799095362,0.20339543013758143,1,-179390.3201364982,0.003704295726493001,1.56109798E9,,,,0,,5,,1.56109798E9
Raw,2065492173,1746291000000,,,-1311985616708789889,0.0,8.188241177230518,,,0,8,0.0,16431,176148878148927,9,33.873626708984375,-198.55268437807774,0.09768086957458222,1,-368823.09383418976,0.001856310060247779,1.56109798E9,,,,0,,5,,1.56109798E9
Raw,2065492173,1746291000000,,,-1311985616708789889,0.0,8.188241177230518,,,0,10,0.0,16431,176148880399704,7,35.690799713134766,-160.29804098125578,0.08026229626414066,1,-258589.5245215427,0.0015058856224641204,1.56109798E9,,,,0,,5,,1.56109798E9
Raw,2065492173,1746291000000,,,-1311985616708789889,0.0,8.188241177230518,,,0,30,0.0,16431,176148924597910,12,31.441307067871094,-310.2461942253167,0.12575597694058227,1,-186230.02370510614,0.00231574266217649,1.56109798E9,,,,0,,5,,1.56109798E9
Raw,2065492174,1746291000000,,,-1311985616708789889,0.0,8.188241177230518,,,0,32,0.0,16431,176148913535187,12,31.381668090820312,-650.0189748451266,0.12822430898839465,1,-376817.47489825863,0.0023316973820328712,1.56109798E9,,,,0,,5,,1.56109798E9
Raw,2065492174,1746291000000,,,-1311985616708789889,0.0,8.188241177230518,,,0,33,0.0,16431,176148910794468,67,21.554683685302734,43.3369511485904,4.201941657363561,4,6874.197462276703,3.4028234663852886E38,1.56109798E9,,,,0,,5,,1.56109798E9
Raw,2065492174,1746291000000,,,-1311985616708789889,0.0,8.188241177230518,,,0,36,0.0,16431,176148920871100,20,27.441387176513672,-305.89485291859296,0.20175136765596768,1,-229646.97522299722,0.003670170670375228,1.56109798E9,,,,0,,5,,1.56109798E9
Fix,gps,34.486373,109.463866,357.131042,0.000000,3.000000,1627952145999
Raw,2065493151,1747291000000,,,-1311985616708790276,0.0,8.092081634568148,,,0,1,0.0,16431,176163924971539,12,37.84413528442383,505.5900323630001,0.060669551795289656,1,526818.3222289584,0.001164552173577249,1.57542003E9,,,,0,,1,,1.57542003E9
Raw,2065493151,1747291000000,,,-1311985616708790276,0.0,8.092081634568148,,,0,2,0.0,16,1747014763229,1000000000,7.0,-688.3983429915938,2.99792458E8,2,-9.628870498866748,3.4028234663852886E38,1.57542003E9,,,,0,,1,,1.57542003E9
Raw,2065493151,1747291000000,,,-1311985616708790276,0.0,8.092081634568148,,,0,3,0.0,16431,176163926067082,6,44.315773010253906,-157.51669099302705,0.03109131947891834,1,-18936.50598047455,5.827145650982857E-4,1.57542003E9,,,,0,,1,,1.57542003E9
Raw,2065493152,1747291000000,,,-1311985616708790276,0.0,8.092081634568148,,,0,6,0.0,16431,176163924871209,32,29.27903175354004,-631.7642066367703,0.16111837282551467,1,-687628.0941548954,0.0029433227609843016,1.57542003E9,,,,0,,1,,1.57542003E9
Raw,2065493152,1747291000000,,,-1311985616708790276,0.0,8.092081634568148,,,0,14,0.0,16431,176163932486213,7,41.80997848510742,-52.19761446863521,0.04011021687733812,1,-251124.57303853933,7.775808917358518E-4,1.57542003E9,,,,0,,1,,1.57542003E9
Raw,2065493152,1747291000000,,,-1311985616708790276,0.0,8.092081634568148,,,0,17,0.0,16431,176163929580462,6,43.52079391479492,-183.64426808095698,0.03281815423500979,1,-111582.95120614141,6.385645247064531E-4,1.57542003E9,,,,0,,1,,1.57542003E9
Raw,2065493153,1747291000000,,,-1311985616708790276,0.0,8.092081634568148,,,0,19,0.0,16431,176163927861788,26,31.15497398376465,-433.153599123832,0.1305300337692713,1,-695812.9453963015,0.0023715964052826166,1.57542003E9,,,,0,,1,,1.57542003E9
Raw,2065493153,1747291000000,,,-1311985616708790276,0.0,8.092081634568148,,,0,21,0.0,16431,176163915433422,42,26.888790130615234,472.18418076708053,0.21377919636909837,1,536587.3879451692,0.0038756984286010265,1.57542003E9,,,,0,,1,,1.57542003E9
Raw,2065493154,1747291000000,,,-1311985616708790276,0.0,8.092081634568148,,,0,22,0.0,16431,176163922610295,7,42.123199462890625,169.6296642061469,0.036992699738162244,1,1523.7598319219721,7.500402280129492E-4,1.57542003E9,,,,0,,1,,1.57542003E9
Raw,2065493154,1747291000000,,,-1311985616708790276,0.0,8.092081634568148,,,0,24,0.0,16,1747016759030,1000000000,19.11898422241211,-373.16087525588114,2.99792458E8,2,-524293.9665840444,3.4028234663852886E38,1.57542003E9,,,,0,,1,,1.57542003E9
Raw,2065493155,1747291000000,,,-1311985616708790276,0.0,8.092081634568148,,,0,30,0.0,16431,176163920943100,38,27.771682739257812,490.3757260185871,0.194376509856653,1,182976.51173282607,0.003501106519252062,1.57542003E9,,,,0,,1,,1.57542003E9
Raw,2065493155,1747291000000,,,-1311985616708790276,0.0,8.092081634568148,,,0,10,0.0,32995,14145922180290,40,33.394676208496094,-840.1998320564521,0.10016097571320998,1,-540261.4471041228,0.0019161723321303725,1.59806246E9,,,,0,,3,,1.59806246E9
Raw,2065493155,1747291000000,,,-1311985616708790276,0.0,8.092081634568148,,,0,18,0.0,16,1747007798621,1000000000,24.873567581176758,380.32613233804113,2.99792458E8,2,2.6605713870426078,3.4028234663852886E38,1.60031245E9,,,,0,,3,,1.60031245E9
Raw,2065493155,1747291000000,,,-1311985616708790276,0.0,8.092081634568148,,,0,9,0.0,32995,14145933277129,36,34.18488311767578,-348.1375015943772,0.09348108050393072,1,-640293.407975849,0.0017464676639065146,1.59862502E9,,,,0,,3,,1.59862502E9
Raw,2065493156,1747291000000,,,-1311985616708790276,0.0,8.092081634568148,,,0,16,0.0,32995,14145932404120,81,18.87091827392578,409.9504331353853,4.2022313582440045,4,39630.01554771494,3.4028234663852886E38,1.60143744E9,,,,0,,3,,1.60143744E9
Raw,2065493156,1747291000000,,,-1311985616708790276,0.0,8.092081634568148,,,0,19,0.0,99,1933180657,55,30.696123123168945,-4.416169866798793,0.13849099166382456,1,-171.202876672968,0.0024561784230172634,1.60368755E9,,,,0,,3,,1.60368755E9
Raw,2065493156,1747291000000,,,-1311985616708790276,0.0,8.092081634568148,,,0,3,0.0,32995,14145922646210,33,42.552799224853516,-485.44194961234507,0.035236683542855585,1,-810172.7944706045,7.007715757936239E-4,1.60481254E9,,,,0,,3,,1.60481254E9
Raw,2065493157,1747291000000,,,-1311985616708790276,0.0,8.092081634568148,,,0,193,0.0,35,11418407,11,38.01850128173828,-180.39281876990913,0.06064116084273696,1,-7012.677334316273,0.0011414072941988707,1.57542003E9,,,,0,,4,,1.57542003E9
Raw,2065493157,1747291000000,,,-1311985616708790276,0.0,8.092081634568148,,,0,194,0.0,35,15845372,13,36.717567443847656,-144.45530526224695,0.07090364145748718,1,-87783.94980383951,0.0013258284889161587,1.57542003E9,,,,0,,4,,1.57542003E9
Raw,2065493157,1747291000000,,,-1311985616708790276,0.0,8.092081634568148,,,0,195,0.0,35,7946510,8,41.20180130004883,-124.13256696314079,0.04203988635057515,1,-2230.072119925489,7.911807624623179E-4,1.57542003E9,,,,0,,4,,1.57542003E9
Raw,2065493157,1747291000000,,,-1311985616708790276,0.0,8.092081634568148,,,0,7,0.0,16431,176149879776632,25,25.233013153076172,-94.9736365477732,0.2588731653844105,4,-179485.16349510357,3.4028234663852886E38,1.56109798E9,,,,0,,5,,1.56109798E9
Raw,2065493158,1747291000000,,,-1311985616708790276,0.0,8.092081634568148,,,0,8,0.0,16431,176149878149603,11,32.436241149902344,-198.46296231128144,0.1146726383336506,1,-369021.61254470237,0.002190381521359086,1.56109798E9,,,,0,,5,,1.56109798E9
Raw,2065493158,1747291000000,,,-1311985616708790276,0.0,8.092081634568148,,,0,10,0.0,16431,176149880400236,7,35.94034194946289,-160.30770335768,0.07809320086219579,1,-258749.85355481764,0.001463237451389432,1.56109798E9,,,,0,,5,,1.56109798E9
Raw,2065493158,1747291000000,,,-1311985616708790276,0.0,8.092081634568148,,,0,30,0.0,16431,176149924598954,12,31.559040069580078,-310.18041508422766,0.12407424568927156,1,-186540.26874528304,0.0022845654748380184,1.56109798E9,,,,0,,5,,1.56109798E9
Raw,2065493159,1747291000000,,,-1311985616708790276,0.0,8.092081634568148,,,0,32,0.0,16431,176149913537368,13,31.168270111083984,-650.0439913682144,0.13135344628150952,1,-377467.55281562544,0.0023896931670606136,1.56109798E9,,,,0,,5,,1.56109798E9
Raw,2065493159,1747291000000,,,-1311985616708790276,0.0,8.092081634568148,,,0,33,0.0,16431,176149910794300,166,19.934680938720703,43.252908071112216,4.201941657363561,4,6917.013529467147,3.4028234663852886E38,1.56109798E9,,,,1,,5,,1.56109798E9
Raw,2065493159,1747291000000,,,-1311985616708790276,0.0,8.092081634568148,,,0,36,0.0,16431,176149920872133,20,27.192047119140625,-305.76636205750196,0.20751770991074514,1,-229952.78817471053,0.003777054836973548,1.56109798E9,,,,0,,5,,1.56109798E9
Fix,gps,34.486373,109.463866,357.172913,0.000000,3.000000,1627952146999
Raw,2065494125,1748291000000,,,-1311985616708790659,0.0,7.830479452821519,,,0,1,0.0,16431,176164924969824,11,38.49933624267578,505.38737807651546,0.05632606889121716,1,527323.8090638166,0.0010799381416290998,1.57542003E9,,,,0,,1,,1.57542003E9
Raw,2065494126,1748291000000,,,-1311985616708790659,0.0,7.830479452821519,,,0,2,0.0,16,1748014765525,1000000000,7.0,-688.3983429915938,2.99792458E8,2,-9.623487129766335,3.4028234663852886E38,1.57542003E9,,,,0,,1,,1.57542003E9
Raw,2065494126,1748291000000,,,-1311985616708790659,0.0,7.830479452821519,,,0,3,0.0,16431,176164926067599,7,42.228240966796875,-158.047797913022,0.03717556010548287,1,-19094.169392038628,7.410242687910795E-4,1.57542003E9,,,,0,,1,,1.57542003E9
Raw,2065494126,1748291000000,,,-1311985616708790659,0.0,7.830479452821519,,,0,6,0.0,16431,176164924873282,35,28.487754821777344,-631.2358603957537,0.1764022577061114,1,-688259.7214558584,0.003224050160497427,1.57542003E9,,,,0,,1,,1.57542003E9
Raw,2065494126,1748291000000,,,-1311985616708790659,0.0,7.830479452821519,,,0,14,0.0,16431,176164932486370,7,41.59575653076172,-52.13928234429642,0.041055713813917816,1,-251176.78938752564,7.969971047714353E-4,1.57542003E9,,,,0,,1,,1.57542003E9
Raw,2065494127,1748291000000,,,-1311985616708790659,0.0,7.830479452821519,,,0,17,0.0,16431,176164929581061,7,42.23796463012695,-183.44647054452685,0.03776716448416623,1,-111766.55963593193,7.40195217076689E-4,1.57542003E9,,,,0,,1,,1.57542003E9
Raw,2065494127,1748291000000,,,-1311985616708790659,0.0,7.830479452821519,,,0,19,0.0,16431,176164927863336,23,32.08625793457031,-432.874191145258,0.11740305415419222,1,-696245.9809932746,0.0021304755937308073,1.57542003E9,,,,0,,1,,1.57542003E9
Raw,2065494127,1748291000000,,,-1311985616708790659,0.0,7.830479452821519,,,0,21,0.0,16431,176164915431730,27,30.728532791137695,471.9349016800727,0.1383889190334131,1,537059.4389014054,0.0024909372441470623,1.57542003E9,,,,0,,1,,1.57542003E9
Raw,2065494128,1748291000000,,,-1311985616708790659,0.0,7.830479452821519,,,0,22,0.0,16431,176164922609707,11,38.45602035522461,169.53459119367653,0.05617867225185069,1,1693.3465571574345,0.0010853372514247894,1.57542003E9,,,,0,,1,,1.57542003E9
Raw,2065494128,1748291000000,,,-1311985616708790659,0.0,7.830479452821519,,,0,24,0.0,16,1748016760275,1000000000,20.533905029296875,-373.16087525588114,2.99792458E8,2,-524293.9636658755,3.4028234663852886E38,1.57542003E9,,,,0,,1,,1.57542003E9
Raw,2065494128,1748291000000,,,-1311985616708790659,0.0,7.830479452821519,,,0,30,0.0,16431,176164920941428,49,25.574159622192383,489.9702470333352,0.24924929814202668,4,183466.90354130734,3.4028234663852886E38,1.57542003E9,,,,0,,1,,1.57542003E9
Raw,2065494129,1748291000000,,,-1311985616708790659,0.0,7.830479452821519,,,0,10,0.0,32995,14146922183040,49,31.67222023010254,-840.1226693748845,0.12204415944715824,1,-541101.5762153405,0.0023364543449133635,1.59806246E9,,,,0,,3,,1.59806246E9
Raw,2065494129,1748291000000,,,-1311985616708790659,0.0,7.830479452821519,,,0,18,0.0,16,1748007797475,1000000000,24.29922866821289,380.32613233804113,2.99792458E8,2,2.654617162198313,3.4028234663852886E38,1.60031245E9,,,,0,,3,,1.60031245E9
Raw,2065494129,1748291000000,,,-1311985616708790659,0.0,7.830479452821519,,,0,9,0.0,32995,14146933278257,50,31.432043075561523,-347.3342121765911,0.12745068881498273,1,-640641.2999113335,0.002260613488033414,1.59862502E9,,,,0,,3,,1.59862502E9
Raw,2065494130,1748291000000,,,-1311985616708790659,0.0,7.830479452821519,,,0,16,0.0,32995,14146932402567,76,19.708343505859375,410.33372444144084,4.202230825705621,4,40040.37884785289,3.4028234663852886E38,1.60143744E9,,,,0,,3,,1.60143744E9
Raw,2065494130,1748291000000,,,-1311985616708790659,0.0,7.830479452821519,,,0,19,0.0,99,933180666,66,29.111562728881836,-3.876362867238008,0.16573256828830618,1,-175.52822495168832,0.0029477316420525312,1.60368755E9,,,,0,,3,,1.60368755E9
Raw,2065494131,1748291000000,,,-1311985616708790659,0.0,7.830479452821519,,,0,3,0.0,32995,14146922647839,33,42.47206497192383,-485.8995065911638,0.035561577721605925,1,-810658.4044112386,7.073154556564987E-4,1.60481254E9,,,,0,,3,,1.60481254E9
Raw,2065494131,1748291000000,,,-1311985616708790659,0.0,7.830479452821519,,,0,193,0.0,35,11419015,11,38.16389465332031,-180.9771624869927,0.059668758236438885,1,-7193.266411947073,0.0011224602349102497,1.57542003E9,,,,0,,4,,1.57542003E9
Raw,2065494131,1748291000000,,,-1311985616708790659,0.0,7.830479452821519,,,0,194,0.0,35,15845866,20,33.10137939453125,-144.9915756744051,0.10604547492175304,1,-87928.53692425558,0.0020104660652577877,1.57542003E9,,,,0,,4,,1.57542003E9
Raw,2065494131,1748291000000,,,-1311985616708790659,0.0,7.830479452821519,,,0,195,0.0,35,7946910,6,43.464210510253906,-124.42953592743817,0.03272754782166094,1,-2354.34763844824,6.42737781163305E-4,1.57542003E9,,,,0,,4,,1.57542003E9
Raw,2065494132,1748291000000,,,-1311985616708790659,0.0,7.830479452821519,,,0,7,0.0,16431,176150879776945,14,30.02103042602539,-95.06434700580866,0.15067915603485027,4,-179580.08849756786,3.4028234663852886E38,1.56109798E9,,,,0,,5,,1.56109798E9
Raw,2065494132,1748291000000,,,-1311985616708790659,0.0,7.830479452821519,,,0,8,0.0,16431,176150878150212,14,30.03182029724121,-198.14468329104318,0.15020386552787202,1,-369220.05246478505,0.0027237338945269585,1.56109798E9,,,,0,,5,,1.56109798E9
Raw,2065494132,1748291000000,,,-1311985616708790659,0.0,7.830479452821519,,,0,10,0.0,16431,176150880400785,8,35.15803527832031,-160.2767905696138,0.0851075052133684,1,-258910.15674624307,0.001601142925210297,1.56109798E9,,,,0,,5,,1.56109798E9
Raw,2065494133,1748291000000,,,-1311985616708790659,0.0,7.830479452821519,,,0,30,0.0,16431,176150924599927,9,33.730125427246094,-309.88812393708804,0.09681657642052355,1,-186850.38451899128,0.0018872333457693458,1.56109798E9,,,,0,,5,,1.56109798E9
