# 
# Header Description:
# 
# Version: v2.0.0.1 Platform: 10 Manufacturer: HUAWEI Model: BLA-AL00
# 
# Raw,ElapsedRealtimeMillis,TimeNanos,LeapSecond,TimeUncertaintyNanos,FullBiasNanos,BiasNanos,BiasUncertaintyNanos,DriftNanosPerSecond,DriftUncertaintyNanosPerSecond,HardwareClockDiscontinuityCount,Svid,TimeOffsetNanos,State,ReceivedSvTimeNanos,ReceivedSvTimeUncertaintyNanos,Cn0DbHz,PseudorangeRateMetersPerSecond,PseudorangeRateUncertaintyMetersPerSecond,AccumulatedDeltaRangeState,AccumulatedDeltaRangeMeters,AccumulatedDeltaRangeUncertaintyMeters,CarrierFrequencyHz,CarrierCycles,CarrierPhase,CarrierPhaseUncertainty,MultipathIndicator,SnrInDb,ConstellationType,AgcDb,CarrierFrequencyHz
# 
# Fix,Provider,Latitude,Longitude,Altitude,Speed,Accuracy,(UTC)TimeInMs
# 
# Nav,Svid,Type,Status,MessageId,Sub-messageId,Data(Bytes)
# 
Fix,gps,34.486734,109.464167,357.532806,0.272161,3.000000,1627950976000
Raw,2064323125,577292000000,,,-1311985616708339095,0.0,9.061273564061752,,,0,1,0.0,16431,174993927850128,65,21.8604736328125,454.18772349671053,4.201412047941499,4,250114.02296033912,3.4028234663852886E38,1.57542003E9,,,,0,,1,,1.57542003E9
Raw,2064323125,577292000000,,,-1311985616708339095,0.0,9.061273564061752,,,0,3,0.0,16431,174993926171739,30,29.799251556396484,-298.6379140283866,0.15203672950814362,4,-191135.42967001328,3.4028234663852886E38,1.57542003E9,,,,0,,1,,1.57542003E9
Raw,2064323125,577292000000,,,-1311985616708339095,0.0,9.061273564061752,,,0,6,0.0,16431,174993923259636,63,22.239242553710938,-703.5014382803729,4.200586347178396,4,-412081.48453664815,3.4028234663852886E38,1.57542003E9,,,,0,,1,,1.57542003E9
Raw,2064323126,577292000000,,,-1311985616708339095,0.0,9.061273564061752,,,0,7,0.0,16,577017826832,1000000000,7.0,555.8426377234057,2.99792458E8,2,9.434687662450287,3.4028234663852886E38,1.57542003E9,,,,0,,1,,1.57542003E9
Raw,2064323126,577292000000,,,-1311985616708339095,0.0,9.061273564061752,,,0,14,0.0,16431,174993933039603,10,39.1264533996582,-174.3357186791318,0.05391651576744705,1,-117270.18250790633,0.0010047154501080513,1.57542003E9,,,,0,,1,,1.57542003E9
Raw,2064323126,577292000000,,,-1311985616708339095,0.0,9.061273564061752,,,0,17,0.0,16431,174993929806672,13,37.205345153808594,-212.27934261895484,0.06610102309754459,1,-127153.12865163069,0.0012534252600744367,1.57542003E9,,,,0,,1,,1.57542003E9
Raw,2064323127,577292000000,,,-1311985616708339095,0.0,9.061273564061752,,,0,19,0.0,16431,174993927098648,6,44.44129180908203,-469.47530712264756,0.03127687166134764,1,-275952.52695815184,5.74354431591928E-4,1.57542003E9,,,,0,,1,,1.57542003E9
Raw,2064323127,577292000000,,,-1311985616708339095,0.0,9.061273564061752,,,0,21,0.0,16431,174993918304853,17,34.64521789550781,485.21209752555524,0.08968339951713294,4,278269.08421776886,3.4028234663852886E38,1.57542003E9,,,,0,,1,,1.57542003E9
Raw,2064323127,577292000000,,,-1311985616708339095,0.0,9.061273564061752,,,0,22,0.0,16431,174993924023655,60,22.88910675048828,41.16890218456845,4.200723742081253,4,4282.431516540064,3.4028234663852886E38,1.57542003E9,,,,0,,1,,1.57542003E9
Raw,2064323128,577292000000,,,-1311985616708339095,0.0,9.061273564061752,,,0,24,0.0,16431,174993916077899,22,32.51185607910156,-485.2942362457752,0.11333436937674712,1,-293874.2609628685,0.0021516564302146435,1.57542003E9,,,,0,,1,,1.57542003E9
Raw,2064323128,577292000000,,,-1311985616708339095,0.0,9.061273564061752,,,0,30,0.0,16431,174993923802605,166,13.889774322509766,456.46364769593424,4.200684067971707,4,58290.279198687174,3.4028234663852886E38,1.57542003E9,,,,1,,1,,1.57542003E9
Raw,2064323128,577292000000,,,-1311985616708339095,0.0,9.061273564061752,,,0,10,0.0,32995,12975919783574,42,32.95557403564453,-893.52790196365,0.10850065992823094,1,-350855.5477763576,0.0020155312959104776,1.59806246E9,,,,0,,3,,1.59806246E9
Raw,2064323128,577292000000,,,-1311985616708339095,0.0,9.061273564061752,,,0,2,0.0,32995,12975920744406,55,30.647428512573242,-145.9321151446086,0.14061674343392683,4,-106081.65315114301,3.4028234663852886E38,1.59975002E9,,,,0,,3,,1.59975002E9
Raw,2064323129,577292000000,,,-1311985616708339095,0.0,9.061273564061752,,,0,18,0.0,32995,12975930253985,65,29.200998306274414,363.2477882814826,0.16353268551108435,4,201083.3092243877,3.4028234663852886E38,1.60031245E9,,,,0,,3,,1.60031245E9
Raw,2064323129,577292000000,,,-1311985616708339095,0.0,9.061273564061752,,,0,9,0.0,32995,12975932569638,33,44.34855651855469,-521.7684291550738,0.03226097347025096,1,-320950.82771054376,5.712887505069375E-4,1.59862502E9,,,,0,,3,,1.59862502E9
Raw,2064323129,577292000000,,,-1311985616708339095,0.0,9.061273564061752,,,0,16,0.0,32995,12975934701896,96,15.913875579833984,251.18925532488436,4.202644608029344,4,38920.928942912935,3.4028234663852886E38,1.60143744E9,,,,0,,3,,1.60143744E9
Raw,2064323130,577292000000,,,-1311985616708339095,0.0,9.061273564061752,,,0,19,0.0,32995,12975934004034,49,31.65018081665039,-88.36844795303841,0.1244795073988631,4,-64429.631969513444,3.4028234663852886E38,1.60368755E9,,,,0,,3,,1.60368755E9
Raw,2064323130,577292000000,,,-1311985616708339095,0.0,9.061273564061752,,,0,3,0.0,32995,12975921537771,51,31.2508487701416,-588.0822899044842,0.12797513927145726,4,-343510.23235873744,3.4028234663852886E38,1.60481254E9,,,,0,,3,,1.60481254E9
Raw,2064323130,577292000000,,,-1311985616708339095,0.0,9.061273564061752,,,0,193,0.0,35,11715719,12,37.515132904052734,-178.46116146402233,0.06419022961371723,4,-16801.478793249073,3.4028234663852886E38,1.57542003E9,,,,0,,4,,1.57542003E9
Raw,2064323131,577292000000,,,-1311985616708339095,0.0,9.061273564061752,,,0,194,0.0,35,16235584,10,39.100467681884766,-167.11823023235058,0.05464591445277536,4,-99625.97175093001,3.4028234663852886E38,1.57542003E9,,,,0,,4,,1.57542003E9
Raw,2064323131,577292000000,,,-1311985616708339095,0.0,9.061273564061752,,,0,195,0.0,35,8498673,33,28.9013614654541,-104.76481909580377,0.1688920186647005,4,-58141.41684578875,3.4028234663852886E38,1.57542003E9,,,,0,,4,,1.57542003E9
Raw,2064323131,577292000000,,,-1311985616708339095,0.0,9.061273564061752,,,0,7,0.0,16431,174979880366700,15,29.646631240844727,-113.83131489140396,0.1572654409814631,4,-56609.7325459532,3.4028234663852886E38,1.56109798E9,,,,0,,5,,1.56109798E9
Raw,2064323131,577292000000,,,-1311985616708339095,0.0,9.061273564061752,,,0,8,0.0,16431,174979878304389,14,30.44701385498047,-234.11777888331517,0.14337301232878885,4,-115666.80985924954,3.4028234663852886E38,1.56109798E9,,,,0,,5,,1.56109798E9
Raw,2064323132,577292000000,,,-1311985616708339095,0.0,9.061273564061752,,,0,10,0.0,16431,174979880745812,8,35.037269592285156,-173.61954402021797,0.08630978550158236,1,-62583.78582439571,0.0016235604416579008,1.56109798E9,,,,0,,5,,1.56109798E9
Raw,2064323132,577292000000,,,-1311985616708339095,0.0,9.061273564061752,,,0,13,0.0,16431,174979875820506,167,17.127819061279297,-309.25940486161176,4.20284564126899,4,-71021.82395696551,3.4028234663852886E38,1.56109798E9,,,,1,,5,,1.56109798E9
Fix,gps,34.486734,109.464167,357.454926,0.000000,3.000000,1627950977000
Raw,2064324144,578292000000,,,-1311985616708339480,0.0,8.92199957310718,,,0,1,0.0,16431,174994927848604,66,21.752586364746094,454.8199871476652,4.2014117816723076,4,250568.02089160797,3.4028234663852886E38,1.57542003E9,,,,0,,1,,1.57542003E9
Raw,2064324144,578292000000,,,-1311985616708339480,0.0,8.92199957310718,,,0,3,0.0,16431,174994926172708,28,30.45152473449707,-298.5105819708174,0.14111811167985588,4,-191433.97536950585,3.4028234663852886E38,1.57542003E9,,,,0,,1,,1.57542003E9
Raw,2064324145,578292000000,,,-1311985616708339480,0.0,8.92199957310718,,,0,6,0.0,16431,174994923262000,60,22.84433937072754,-703.2364130984515,4.200586879716779,4,-412784.9347924132,3.4028234663852886E38,1.57542003E9,,,,0,,1,,1.57542003E9
Raw,2064324146,578292000000,,,-1311985616708339480,0.0,8.92199957310718,,,0,7,0.0,16,578017824978,1000000000,7.0,555.8426377234057,2.99792458E8,2,9.44772795781021,3.4028234663852886E38,1.57542003E9,,,,0,,1,,1.57542003E9
Raw,2064324146,578292000000,,,-1311985616708339480,0.0,8.92199957310718,,,0,14,0.0,16431,174994933040194,8,41.181907653808594,-174.21915667782378,0.043049229646749454,1,-117444.44376412481,7.929948042146862E-4,1.57542003E9,,,,0,,1,,1.57542003E9
Raw,2064324147,578292000000,,,-1311985616708339480,0.0,8.92199957310718,,,0,17,0.0,16431,174994929807411,16,34.96010971069336,-212.21796011475726,0.08507905601443005,1,-127365.41330030678,0.0016231557819992304,1.57542003E9,,,,0,,1,,1.57542003E9
Raw,2064324148,578292000000,,,-1311985616708339480,0.0,8.92199957310718,,,0,19,0.0,16431,174994927100209,6,45.48472595214844,-469.4407134292769,0.03127715249213564,1,-276421.9724618575,5.093406070955098E-4,1.57542003E9,,,,0,,1,,1.57542003E9
Raw,2064324148,578292000000,,,-1311985616708339480,0.0,8.92199957310718,,,0,21,0.0,16431,174994918303224,19,33.90385437011719,485.2134949062727,0.09738063441924627,4,278754.3214747027,3.4028234663852886E38,1.57542003E9,,,,0,,1,,1.57542003E9
Raw,2064324149,578292000000,,,-1311985616708339480,0.0,8.92199957310718,,,0,22,0.0,16431,174994924023556,66,21.620450973510742,42.22039709198194,4.200723742081253,4,4323.881919814339,3.4028234663852886E38,1.57542003E9,,,,0,,1,,1.57542003E9
Raw,2064324150,578292000000,,,-1311985616708339480,0.0,8.92199957310718,,,0,24,0.0,16431,174994916079522,166,31.50348663330078,-485.2964856879057,0.1269301075826984,1,-294359.5384554147,0.002416525734588504,1.57542003E9,,,,1,,1,,1.57542003E9
Raw,2064324150,578292000000,,,-1311985616708339480,0.0,8.92199957310718,,,0,30,0.0,16431,174994923801234,108,13.509220123291016,457.76910802812745,4.200683801702516,4,58746.80168402506,3.4028234663852886E38,1.57542003E9,,,,0,,1,,1.57542003E9
Raw,2064324151,578292000000,,,-1311985616708339480,0.0,8.92199957310718,,,0,10,0.0,32995,12976919786572,44,32.60599136352539,-893.6315807963924,0.11281095071338998,1,-351749.0604942708,0.002098305616527796,1.59806246E9,,,,0,,3,,1.59806246E9
Raw,2064324151,578292000000,,,-1311985616708339480,0.0,8.92199957310718,,,0,2,0.0,32995,12976920744805,48,31.72697639465332,-145.77305232001663,0.12461848327504571,4,-106227.53365550579,3.4028234663852886E38,1.59975002E9,,,,0,,3,,1.59975002E9
Raw,2064324152,578292000000,,,-1311985616708339480,0.0,8.92199957310718,,,0,18,0.0,32995,12976930252735,71,28.409372329711914,363.3287341157243,0.1789610547117646,4,201446.57054645178,3.4028234663852886E38,1.60031245E9,,,,0,,3,,1.60031245E9
Raw,2064324153,578292000000,,,-1311985616708339480,0.0,8.92199957310718,,,0,9,0.0,32995,12976932571389,33,43.37290573120117,-521.6063670743079,0.033890116556223746,1,-321472.49824744835,6.392018403857946E-4,1.59862502E9,,,,0,,3,,1.59862502E9
Raw,2064324153,578292000000,,,-1311985616708339480,0.0,8.92199957310718,,,0,16,0.0,32995,12976934701298,166,19.234546661376953,251.29535401203987,4.202644341760152,4,39172.20504093071,3.4028234663852886E38,1.60143744E9,,,,1,,3,,1.60143744E9
Raw,2064324154,578292000000,,,-1311985616708339480,0.0,8.92199957310718,,,0,19,0.0,32995,12976934004456,53,30.932336807250977,-88.34850971597257,0.13498723858088707,4,-64518.01880347848,3.4028234663852886E38,1.60368755E9,,,,0,,3,,1.60368755E9
Raw,2064324154,578292000000,,,-1311985616708339480,0.0,8.92199957310718,,,0,3,0.0,32995,12976921539730,70,28.495872497558594,-587.3043237518946,0.17563869751559402,4,-344098.23944870266,3.4028234663852886E38,1.60481254E9,,,,0,,3,,1.60481254E9
Raw,2064324155,578292000000,,,-1311985616708339480,0.0,8.92199957310718,,,0,193,0.0,35,11716314,13,37.10245132446289,-178.47077271676176,0.06721120336866315,1,-16979.87706725287,0.0012683618115261197,1.57542003E9,,,,0,,4,,1.57542003E9
Raw,2064324155,578292000000,,,-1311985616708339480,0.0,8.92199957310718,,,0,194,0.0,35,16236160,10,39.36275100708008,-167.11995139640499,0.05310743186608097,1,-99793.05386982583,9.777508676052094E-4,1.57542003E9,,,,0,,4,,1.57542003E9
Raw,2064324156,578292000000,,,-1311985616708339480,0.0,8.92199957310718,,,0,195,0.0,35,8499047,34,28.757911682128906,-104.77610890952695,0.17167909157666394,4,-58246.14294739617,3.4028234663852886E38,1.57542003E9,,,,0,,4,,1.57542003E9
Raw,2064324157,578292000000,,,-1311985616708339480,0.0,8.92199957310718,,,0,7,0.0,16431,174980880367087,16,28.981056213378906,-113.85669780089933,0.16949833025576277,1,-56723.60030997119,0.00307399220764637,1.56109798E9,,,,0,,5,,1.56109798E9
Raw,2064324157,578292000000,,,-1311985616708339480,0.0,8.92199957310718,,,0,8,0.0,16431,174980878305181,9,33.80386734008789,-234.0921999996948,0.09847029116033224,1,-115900.91521710384,0.0018712786259129643,1.56109798E9,,,,0,,5,,1.56109798E9
Raw,2064324158,578292000000,,,-1311985616708339480,0.0,8.92199957310718,,,0,10,0.0,16431,174980880746398,7,36.05394744873047,-173.56042799937916,0.0771884181491918,1,-62757.37579543913,0.001444223802536726,1.56109798E9,,,,0,,5,,1.56109798E9
Raw,2064324158,578292000000,,,-1311985616708339480,0.0,8.92199957310718,,,0,13,0.0,16431,174980875821569,103,14.570720672607422,-309.5251457751201,4.202845907538181,4,-71330.38542799672,3.4028234663852886E38,1.56109798E9,,,,0,,5,,1.56109798E9
Fix,gps,34.486734,109.464167,357.443176,0.000000,3.000000,1627950978000
Raw,2064325155,579292000000,,,-1311985616708339864,0.0,8.7870701901068,,,0,1,0.0,16431,174995927847112,55,24.639728546142578,453.49295262049304,0.27477590979172295,4,251023.27280413022,3.4028234663852886E38,1.57542003E9,,,,0,,1,,1.57542003E9
Raw,2064325155,579292000000,,,-1311985616708339864,0.0,8.7870701901068,,,0,3,0.0,16431,174995926173671,25,31.342662811279297,-298.3000887193325,0.12746629884633937,1,-191732.40221700424,0.002320899162441492,1.57542003E9,,,,0,,1,,1.57542003E9
Raw,2064325155,579292000000,,,-1311985616708339864,0.0,8.7870701901068,,,0,6,0.0,16431,174995923264415,61,22.548484802246094,-703.3002154570622,4.2005871459859705,4,-413488.3392599572,3.4028234663852886E38,1.57542003E9,,,,0,,1,,1.57542003E9
Raw,2064325155,579292000000,,,-1311985616708339864,0.0,8.7870701901068,,,0,7,0.0,16,579017823124,1000000000,7.0,555.8426377234057,2.99792458E8,2,9.443381192726589,3.4028234663852886E38,1.57542003E9,,,,0,,1,,1.57542003E9
Raw,2064325156,579292000000,,,-1311985616708339864,0.0,8.7870701901068,,,0,14,0.0,16431,174995933040774,7,41.87877655029297,-174.0906998991893,0.039911255544838875,1,-117618.59869219766,7.714462117291987E-4,1.57542003E9,,,,0,,1,,1.57542003E9
Raw,2064325156,579292000000,,,-1311985616708339864,0.0,8.7870701901068,,,0,17,0.0,16431,174995929808148,19,33.768062591552734,-212.17741903272338,0.0973350524620119,1,-127577.64563559952,0.0018619268666952848,1.57542003E9,,,,0,,1,,1.57542003E9
Raw,2064325156,579292000000,,,-1311985616708339864,0.0,8.7870701901068,,,0,19,0.0,16431,174995927101776,6,45.296077728271484,-469.4048246025584,0.03127743332292364,1,-276891.38332646014,5.205238121561706E-4,1.57542003E9,,,,0,,1,,1.57542003E9
Raw,2064325157,579292000000,,,-1311985616708339864,0.0,8.7870701901068,,,0,21,0.0,16431,174995918301609,20,33.26331329345703,485.33271533918946,0.10458109421898537,1,279239.5874288182,0.0019733314402401447,1.57542003E9,,,,0,,1,,1.57542003E9
Raw,2064325157,579292000000,,,-1311985616708339864,0.0,8.7870701901068,,,0,22,0.0,16431,174995924023478,76,19.736833572387695,41.949275410650046,4.200723742081253,4,4365.721857823558,3.4028234663852886E38,1.57542003E9,,,,0,,1,,1.57542003E9
Raw,2064325157,579292000000,,,-1311985616708339864,0.0,8.7870701901068,,,0,24,0.0,16431,174995916081116,24,31.790374755859375,-485.1080437857911,0.12290043124182043,1,-294844.679176425,0.0022042999044060707,1.57542003E9,,,,0,,1,,1.57542003E9
Raw,2064325158,579292000000,,,-1311985616708339864,0.0,8.7870701901068,,,0,30,0.0,16431,174995923799841,166,12.649015426635742,458.2342994772073,4.200683535433324,4,59204.815543283614,3.4028234663852886E38,1.57542003E9,,,,1,,1,,1.57542003E9
Raw,2064325158,579292000000,,,-1311985616708339864,0.0,8.7870701901068,,,0,10,0.0,32995,12977919789542,34,34.86747741699219,-893.5013858124753,0.08776789223652331,1,-352642.53594551585,0.001617314526811242,1.59806246E9,,,,0,,3,,1.59806246E9
Raw,2064325158,579292000000,,,-1311985616708339864,0.0,8.7870701901068,,,0,2,0.0,32995,12977920745279,44,32.46776580810547,-145.55581074214024,0.1147359438339498,4,-106373.23685941243,3.4028234663852886E38,1.59975002E9,,,,0,,3,,1.59975002E9
Raw,2064325159,579292000000,,,-1311985616708339864,0.0,8.7870701901068,,,0,18,0.0,32995,12977930251315,95,25.92522621154785,363.10505095356507,0.23760231758198413,4,201809.8783409727,3.4028234663852886E38,1.60031245E9,,,,0,,3,,1.60031245E9
Raw,2064325159,579292000000,,,-1311985616708339864,0.0,8.7870701901068,,,0,9,0.0,32995,12977932573153,33,42.974937438964844,-521.4633570867381,0.03537331708224348,1,-321994.03936586704,6.691699381917715E-4,1.59862502E9,,,,0,,3,,1.59862502E9
Raw,2064325160,579292000000,,,-1311985616708339864,0.0,8.7870701901068,,,0,16,0.0,32995,12977934700553,126,23.460567474365234,251.19862800042813,0.3157565190517895,4,39423.68460982288,3.4028234663852886E38,1.60143744E9,,,,0,,3,,1.60143744E9
Raw,2064325160,579292000000,,,-1311985616708339864,0.0,8.7870701901068,,,0,19,0.0,32995,12977934004734,53,30.95138931274414,-88.27835097922036,0.13469703844570896,1,-64606.3237913812,0.0023850449360907078,1.60368755E9,,,,0,,3,,1.60368755E9
Raw,2064325160,579292000000,,,-1311985616708339864,0.0,8.7870701901068,,,0,3,0.0,32995,12977921541733,119,23.953632354736328,-588.0462306654831,0.29611037928911355,4,-344686.1344847301,3.4028234663852886E38,1.60481254E9,,,,0,,3,,1.60481254E9
Raw,2064325161,579292000000,,,-1311985616708339864,0.0,8.7870701901068,,,0,193,0.0,35,11716899,13,36.86153793334961,-178.4003242791291,0.06904229499462827,1,-17158.28388962301,0.0013040336780250072,1.57542003E9,,,,0,,4,,1.57542003E9
Raw,2064325161,579292000000,,,-1311985616708339864,0.0,8.7870701901068,,,0,194,0.0,35,16236720,10,39.358367919921875,-167.01647705840173,0.0531328647343334,1,-99960.11370582439,9.782443521544337E-4,1.57542003E9,,,,0,,4,,1.57542003E9
Raw,2064325161,579292000000,,,-1311985616708339864,0.0,8.7870701901068,,,0,195,0.0,35,8499391,36,28.263044357299805,-104.73148645332446,0.18165475034660428,4,-58350.877742466815,3.4028234663852886E38,1.57542003E9,,,,0,,4,,1.57542003E9
Raw,2064325161,579292000000,,,-1311985616708339864,0.0,8.7870701901068,,,0,7,0.0,16431,174981880367475,16,29.26167869567871,-113.84009964457272,0.1642262335460395,1,-56837.447034696685,0.0029762655030936003,1.56109798E9,,,,0,,5,,1.56109798E9
Raw,2064325162,579292000000,,,-1311985616708339864,0.0,8.7870701901068,,,0,8,0.0,16431,174981878305967,7,36.4315071105957,-234.03945739822575,0.07362481274453347,1,-116134.98159002131,0.0013827908551320434,1.56109798E9,,,,0,,5,,1.56109798E9
Raw,2064325162,579292000000,,,-1311985616708339864,0.0,8.7870701901068,,,0,10,0.0,16431,174981880746976,7,36.4631233215332,-173.58091155574937,0.07380833046392082,1,-62930.95495175122,0.0013777670683339238,1.56109798E9,,,,0,,5,,1.56109798E9
Raw,2064325162,579292000000,,,-1311985616708339864,0.0,8.7870701901068,,,0,13,0.0,16431,174981875822650,97,15.735630989074707,-309.8786490141747,4.202846173807373,4,-71639.41162564694,3.4028234663852886E38,1.56109798E9,,,,0,,5,,1.56109798E9
Fix,gps,34.486734,109.464167,357.432556,0.000000,3.000000,1627950979000
Raw,2064326142,580292000000,,,-1311985616708340249,0.0,8.674912819583108,,,0,1,0.0,16431,174996927845556,49,25.612783432006836,453.23937914396333,0.24580447375955172,4,251476.87902722563,3.4028234663852886E38,1.57542003E9,,,,0,,1,,1.57542003E9
Raw,2064326142,580292000000,,,-1311985616708340249,0.0,8.674912819583108,,,0,3,0.0,16431,174996926174652,24,31.648204803466797,-298.2361500308957,0.12309896820779559,1,-192030.73465193916,0.002240676898509264,1.57542003E9,,,,0,,1,,1.57542003E9
Raw,2064326142,580292000000,,,-1311985616708340249,0.0,8.674912819583108,,,0,6,0.0,16431,174996923266824,66,21.5775203704834,-703.701774959814,4.200587678524354,4,-414191.69078423025,3.4028234663852886E38,1.57542003E9,,,,0,,1,,1.57542003E9
Raw,2064326143,580292000000,,,-1311985616708340249,0.0,8.674912819583108,,,0,7,0.0,16,580017821270,1000000000,7.0,555.8426377234057,2.99792458E8,2,9.43903442756643,3.4028234663852886E38,1.57542003E9,,,,0,,1,,1.57542003E9
Raw,2064326143,580292000000,,,-1311985616708340249,0.0,8.674912819583108,,,0,14,0.0,16431,174996933041362,7,42.273101806640625,-174.0165194325674,0.03824406924811846,1,-117792.65787205946,7.372068357653916E-4,1.57542003E9,,,,0,,1,,1.57542003E9
Raw,2064326143,580292000000,,,-1311985616708340249,0.0,8.674912819583108,,,0,17,0.0,16431,174996929808842,22,32.26089096069336,-212.2408635255406,0.11544431141359907,1,-127789.86585595056,0.002214732114225626,1.57542003E9,,,,0,,1,,1.57542003E9
Raw,2064326143,580292000000,,,-1311985616708340249,0.0,8.674912819583108,,,0,19,0.0,16431,174996927103328,6,45.06071090698242,-469.4172306167327,0.03127771415371164,1,-277360.7651866352,5.348215927369893E-4,1.57542003E9,,,,0,,1,,1.57542003E9
Raw,2064326144,580292000000,,,-1311985616708340249,0.0,8.674912819583108,,,0,21,0.0,16431,174996918299989,18,34.26659393310547,485.2605627787307,0.09353163836668282,1,279724.8382318684,0.0017580693820491433,1.57542003E9,,,,0,,1,,1.57542003E9
Raw,2064326145,580292000000,,,-1311985616708340249,0.0,8.674912819583108,,,0,22,0.0,16431,174996924023374,64,22.114425659179688,41.92350055290467,4.200723742081253,4,4407.482713530661,3.4028234663852886E38,1.57542003E9,,,,0,,1,,1.57542003E9
Raw,2064326145,580292000000,,,-1311985616708340249,0.0,8.674912819583108,,,0,24,0.0,16431,174996916082751,24,31.564626693725586,-485.03776576044106,0.12606064714214055,1,-295329.7286687072,0.0022623413242399693,1.57542003E9,,,,0,,1,,1.57542003E9
Raw,2064326145,580292000000,,,-1311985616708340249,0.0,8.674912819583108,,,0,30,0.0,16431,174996923798568,166,11.788816452026367,458.261531359969,4.2006832691641325,4,59663.23440340675,3.4028234663852886E38,1.57542003E9,,,,1,,1,,1.57542003E9
Raw,2064326145,580292000000,,,-1311985616708340249,0.0,8.674912819583108,,,0,10,0.0,32995,12978919792568,37,34.00245666503906,-893.4552381663434,0.09658645327169668,1,-353535.9897091497,0.0017866746056824923,1.59806246E9,,,,0,,3,,1.59806246E9
Raw,2064326146,580292000000,,,-1311985616708340249,0.0,8.674912819583108,,,0,2,0.0,32995,12978920745881,43,32.82547378540039,-145.52305750142182,0.11025744580791952,1,-106518.81969555585,0.0019269033800810575,1.59975002E9,,,,0,,3,,1.59975002E9
Raw,2064326146,580292000000,,,-1311985616708340249,0.0,8.674912819583108,,,0,18,0.0,32995,12978930250049,110,24.658485412597656,363.52695768286094,0.27461847813219864,4,202173.23150583764,3.4028234663852886E38,1.60031245E9,,,,0,,3,,1.60031245E9
Raw,2064326146,580292000000,,,-1311985616708340249,0.0,8.674912819583108,,,0,9,0.0,32995,12978932574876,33,42.92938995361328,-521.3599849961045,0.035547702600450704,1,-322515.4453367813,6.726881838403642E-4,1.59862502E9,,,,0,,3,,1.59862502E9
Raw,2064326147,580292000000,,,-1311985616708340249,0.0,8.674912819583108,,,0,16,0.0,32995,12978934699787,112,24.46329116821289,251.76622019013075,0.2816182458496932,4,39675.2984708062,3.4028234663852886E38,1.60143744E9,,,,0,,3,,1.60143744E9
Raw,2064326147,580292000000,,,-1311985616708340249,0.0,8.674912819583108,,,0,19,0.0,32995,12978934005013,54,30.80995750427246,-88.25614625879575,0.13686694929705306,1,-64694.5484050486,0.0024241984356194735,1.60368755E9,,,,0,,3,,1.60368755E9
Raw,2064326147,580292000000,,,-1311985616708340249,0.0,8.674912819583108,,,0,3,0.0,32995,12978921543597,121,23.85662841796875,-587.8988581234785,0.2994330859635981,4,-345273.77254655736,3.4028234663852886E38,1.60481254E9,,,,0,,3,,1.60481254E9
Raw,2064326147,580292000000,,,-1311985616708340249,0.0,8.674912819583108,,,0,193,0.0,35,11717503,14,36.46219253540039,-178.36419687521493,0.07219166042539132,1,-17336.692900520953,0.0013653881615027785,1.57542003E9,,,,0,,4,,1.57542003E9
Raw,2064326148,580292000000,,,-1311985616708340249,0.0,8.674912819583108,,,0,194,0.0,35,16237256,10,39.43573760986328,-167.01289840046684,0.05268768344828478,1,-100127.16251822833,9.695693734101951E-4,1.57542003E9,,,,0,,4,,1.57542003E9
Raw,2064326148,580292000000,,,-1311985616708340249,0.0,8.674912819583108,,,0,195,0.0,35,8499782,46,26.219738006591797,-104.71394250882935,0.22942743735472948,1,-58455.6247950968,0.004186032339930534,1.57542003E9,,,,0,,4,,1.57542003E9
Raw,2064326148,580292000000,,,-1311985616708340249,0.0,8.674912819583108,,,0,7,0.0,16431,174982880367828,15,29.682636260986328,-113.81238208680554,0.1566302558249384,1,-56951.25401971476,0.0028354618698358536,1.56109798E9,,,,0,,5,,1.56109798E9
Raw,2064326149,580292000000,,,-1311985616708340249,0.0,8.674912819583108,,,0,8,0.0,16431,174982878306743,6,37.17593002319336,-234.0393040271714,0.06784823576770449,1,-116369.03119621951,0.0012692156014963984,1.56109798E9,,,,0,,5,,1.56109798E9
Raw,2064326149,580292000000,,,-1311985616708340249,0.0,8.674912819583108,,,0,10,0.0,16431,174982880747553,7,36.45481872558594,-173.5741802705861,0.07387548854658577,1,-63104.518157566046,0.001379084773361683,1.56109798E9,,,,0,,5,,1.56109798E9
Raw,2064326150,580292000000,,,-1311985616708340249,0.0,8.674912819583108,,,0,13,0.0,16431,174982875823701,167,18.565872192382812,-309.49757306779316,4.202846440076565,4,-71947.81630836905,3.4028234663852886E38,1.56109798E9,,,,1,,5,,1.56109798E9
Fix,gps,34.486734,109.464167,357.457489,0.000000,3.000000,1627950980000
Raw,2064327197,581292000000,,,-1311985616708340633,0.0,8.573202231063112,,,0,1,0.0,16431,174997927844088,63,22.188796997070312,453.4257760986866,4.201410982864733,4,251929.87567942715,3.4028234663852886E38,1.57542003E9,,,,0,,1,,1.57542003E9
Raw,2064327199,581292000000,,,-1311985616708340633,0.0,8.573202231063112,,,0,3,0.0,16431,174997926175628,27,30.714065551757812,-298.14637684041463,0.1369500419266519,1,-192328.90564084568,0.0024950895458459854,1.57542003E9,,,,0,,1,,1.57542003E9
Raw,2064327200,581292000000,,,-1311985616708340633,0.0,8.573202231063112,,,0,6,0.0,16431,174997923269210,76,19.792367935180664,-702.8473277747871,4.200587944793545,4,-414894.98865198594,3.4028234663852886E38,1.57542003E9,,,,0,,1,,1.57542003E9
Raw,2064327201,581292000000,,,-1311985616708340633,0.0,8.573202231063112,,,0,7,0.0,16,581017819416,1000000000,7.0,555.8426377234057,2.99792458E8,2,9.4346876624246,3.4028234663852886E38,1.57542003E9,,,,0,,1,,1.57542003E9
Raw,2064327202,581292000000,,,-1311985616708340633,0.0,8.573202231063112,,,0,14,0.0,16431,174997933041947,10,39.00297546386719,-173.86623284053007,0.05465530876269095,1,-117966.61308470907,0.0010191001929342747,1.57542003E9,,,,0,,1,,1.57542003E9
Raw,2064327202,581292000000,,,-1311985616708340633,0.0,8.573202231063112,,,0,17,0.0,16431,174997929809549,10,38.817108154296875,-212.15119258242908,0.05520529609882088,1,-128002.08991132038,0.0010411428520455956,1.57542003E9,,,,0,,1,,1.57542003E9
Raw,2064327203,581292000000,,,-1311985616708340633,0.0,8.573202231063112,,,0,19,0.0,16431,174997927104929,6,43.027183532714844,-469.2942611135984,0.03419113595753803,1,-277830.12021813757,6.759045645594597E-4,1.57542003E9,,,,0,,1,,1.57542003E9
Raw,2064327204,581292000000,,,-1311985616708340633,0.0,8.573202231063112,,,0,21,0.0,16431,174997918298385,14,36.07101821899414,485.3076647336452,0.07660384910180484,1,280210.09003017383,0.0014282846823334694,1.57542003E9,,,,0,,1,,1.57542003E9
Raw,2064327204,581292000000,,,-1311985616708340633,0.0,8.573202231063112,,,0,22,0.0,16431,174997924023194,71,20.781505584716797,42.161728403384984,4.200723742081253,4,4449.380376030893,3.4028234663852886E38,1.57542003E9,,,,0,,1,,1.57542003E9
Raw,2064327205,581292000000,,,-1311985616708340633,0.0,8.573202231063112,,,0,24,0.0,16431,174997916084344,19,33.56040954589844,-484.8992887395889,0.1007762905313127,1,-295814.72515282204,0.0019069762201979756,1.57542003E9,,,,0,,1,,1.57542003E9
Raw,2064327205,581292000000,,,-1311985616708340633,0.0,8.573202231063112,,,0,30,0.0,16430,174997923796668,1000000000,11.571207046508789,458.386307233299,2.99792458E8,4,60121.91265617308,3.4028234663852886E38,1.57542003E9,,,,0,,1,,1.57542003E9
Raw,2064327206,581292000000,,,-1311985616708340633,0.0,8.573202231063112,,,0,10,0.0,32995,12979919795539,43,32.74589157104492,-893.2804633292944,0.11106699568037087,1,-354429.4407970243,0.0019466931698843837,1.59806246E9,,,,0,,3,,1.59806246E9
Raw,2064327206,581292000000,,,-1311985616708340633,0.0,8.573202231063112,,,0,2,0.0,32995,12979920746369,39,33.652748107910156,-145.34589689241625,0.10057984211430904,1,-106664.2380362826,0.00185811473056674,1.59975002E9,,,,0,,3,,1.59975002E9
Raw,2064327206,581292000000,,,-1311985616708340633,0.0,8.573202231063112,,,0,18,0.0,32995,12979930249125,45,32.293212890625,363.3800622952476,0.11510126516480368,4,202536.60123113522,3.4028234663852886E38,1.60031245E9,,,,0,,3,,1.60031245E9
Raw,2064327207,581292000000,,,-1311985616708340633,0.0,8.573202231063112,,,0,9,0.0,32995,12979932576620,33,44.0650749206543,-521.1575011219024,0.03226222992799875,1,-323036.72551761544,5.902413395233452E-4,1.59862502E9,,,,0,,3,,1.59862502E9
Raw,2064327207,581292000000,,,-1311985616708340633,0.0,8.573202231063112,,,0,16,0.0,32994,12979934698962,1000000000,20.59410285949707,252.07435967955348,2.99792458E8,4,39927.37322241904,3.4028234663852886E38,1.60143744E9,,,,0,,3,,1.60143744E9
Raw,2064327208,581292000000,,,-1311985616708340633,0.0,8.573202231063112,,,0,19,0.0,32995,12979934005303,48,31.774614334106445,-88.1137071523728,0.12274502156396971,1,-64782.69482544915,0.0021693785674870014,1.60368755E9,,,,0,,3,,1.60368755E9
Raw,2064327208,581292000000,,,-1311985616708340633,0.0,8.573202231063112,,,0,3,0.0,32995,12979921545601,132,23.081249237060547,-587.6927274264285,0.327366987448936,4,-345861.4917868497,3.4028234663852886E38,1.60481254E9,,,,0,,3,,1.60481254E9
Raw,2064327208,581292000000,,,-1311985616708340633,0.0,8.573202231063112,,,0,193,0.0,35,11718101,12,37.80284118652344,-178.4025396388031,0.062167923424545524,1,-17515.067412022323,0.0011701018083840609,1.57542003E9,,,,0,,4,,1.57542003E9
Raw,2064327209,581292000000,,,-1311985616708340633,0.0,8.573202231063112,,,0,194,0.0,35,16237834,11,38.489501953125,-166.9818322413463,0.058415720383579145,1,-100294.17376314731,0.001081161666661501,1.57542003E9,,,,0,,4,,1.57542003E9
Raw,2064327209,581292000000,,,-1311985616708340633,0.0,8.573202231063112,,,0,195,0.0,35,8500067,62,23.596881866455078,-104.17896723001905,0.30976556209208606,4,-58560.406289135906,3.4028234663852886E38,1.57542003E9,,,,0,,4,,1.57542003E9
Raw,2064327210,581292000000,,,-1311985616708340633,0.0,8.573202231063112,,,0,7,0.0,16431,174983880368237,14,30.35568618774414,-113.73171743283018,0.1452248812726098,1,-57065.07370527015,0.002624044893309474,1.56109798E9,,,,0,,5,,1.56109798E9
Raw,2064327210,581292000000,,,-1311985616708340633,0.0,8.573202231063112,,,0,8,0.0,16431,174983878307528,10,33.156707763671875,-234.00063748024627,0.10583300042778088,1,-116603.07279275803,0.0020160279236733913,1.56109798E9,,,,0,,5,,1.56109798E9
Raw,2064327210,581292000000,,,-1311985616708340633,0.0,8.573202231063112,,,0,10,0.0,16431,174983880748141,8,35.377952575683594,-173.45751602190853,0.0831339595699056,1,-63278.06363528244,0.0015611127018928528,1.56109798E9,,,,0,,5,,1.56109798E9
Raw,2064327211,581292000000,,,-1311985616708340633,0.0,8.573202231063112,,,0,13,0.0,16431,174983875824690,167,18.32213020324707,-309.8108590081508,4.202846440076565,4,-72257.1851461715,3.4028234663852886E38,1.56109798E9,,,,1,,5,,1.56109798E9
Fix,gps,34.486734,109.464167,357.467682,0.000000,3.000000,1627950981000
Raw,2064328153,582292000000,,,-1311985616708341016,0.0,8.50431915986563,,,0,1,0.0,16431,174998927842562,71,20.68207359313965,454.5169941091774,4.201410716595541,4,252382.9746650557,3.4028234663852886E38,1.57542003E9,,,,0,,1,,1.57542003E9
Raw,2064328154,582292000000,,,-1311985616708341016,0.0,8.50431915986563,,,0,3,0.0,16431,174998926176639,26,31.00914192199707,-297.92511353266855,0.1324130062830342,1,-192626.93211448015,0.002411750378087163,1.57542003E9,,,,0,,1,,1.57542003E9
Raw,2064328154,582292000000,,,-1311985616708341016,0.0,8.50431915986563,,,0,6,0.0,16431,174998923271519,75,19.841344833374023,-702.796408584742,4.200588477331928,4,-415598.22706646676,3.4028234663852886E38,1.57542003E9,,,,0,,1,,1.57542003E9
Raw,2064328154,582292000000,,,-1311985616708341016,0.0,8.50431915986563,,,0,7,0.0,16,582017817562,1000000000,7.0,555.6569905827259,2.99792458E8,2,9.444573156296073,3.4028234663852886E38,1.57542003E9,,,,0,,1,,1.57542003E9
Raw,2064328154,582292000000,,,-1311985616708341016,0.0,8.50431915986563,,,0,14,0.0,16431,174998933042498,9,39.63801574707031,-173.76403659464643,0.050967447175597286,1,-118140.44055986074,9.472506353631616E-4,1.57542003E9,,,,0,,1,,1.57542003E9
Raw,2064328155,582292000000,,,-1311985616708341016,0.0,8.50431915986563,,,0,17,0.0,16431,174998929810241,10,38.9124755859375,-212.11733166187366,0.05462186701641039,1,-128214.2286110694,0.0010297740809619427,1.57542003E9,,,,0,,1,,1.57542003E9
Raw,2064328156,582292000000,,,-1311985616708341016,0.0,8.50431915986563,,,0,19,0.0,16431,174998927106489,6,43.2568359375,-469.3129382997729,0.0333325946340632,1,-278299.4414128553,6.582679343409836E-4,1.57542003E9,,,,0,,1,,1.57542003E9
Raw,2064328156,582292000000,,,-1311985616708341016,0.0,8.50431915986563,,,0,21,0.0,16431,174998918296731,12,37.53472900390625,485.3570161306902,0.06523410053521903,1,280695.40932289197,0.0012067833449691534,1.57542003E9,,,,0,,1,,1.57542003E9
Raw,2064328157,582292000000,,,-1311985616708341016,0.0,8.50431915986563,,,0,22,0.0,16431,174998924023089,61,22.712156295776367,41.41515219325282,4.200723742081253,4,4491.3942097117015,3.4028234663852886E38,1.57542003E9,,,,0,,1,,1.57542003E9
Raw,2064328157,582292000000,,,-1311985616708341016,0.0,8.50431915986563,,,0,24,0.0,16431,174998916085968,15,35.804161071777344,-484.85665158647885,0.07849321207616577,1,-296299.593202456,0.0014728469541296363,1.57542003E9,,,,0,,1,,1.57542003E9
Raw,2064328157,582292000000,,,-1311985616708341016,0.0,8.50431915986563,,,0,30,0.0,16430,174998923795088,1000000000,11.528860092163086,458.49588233101986,2.99792458E8,4,60580.30653994992,3.4028234663852886E38,1.57542003E9,,,,1,,1,,1.57542003E9
Raw,2064328158,582292000000,,,-1311985616708341016,0.0,8.50431915986563,,,0,10,0.0,32995,12980919798478,33,36.11410903930664,-893.3809384111237,0.07651084626573174,1,-355322.80602471845,0.0014010798186063766,1.59806246E9,,,,0,,3,,1.59806246E9
Raw,2064328158,582292000000,,,-1311985616708341016,0.0,8.50431915986563,,,0,2,0.0,32995,12980920746831,46,32.127925872802734,-145.0425800705915,0.11916543168690408,1,-106809.42508287219,0.002088033128529787,1.59975002E9,,,,0,,3,,1.59975002E9
Raw,2064328158,582292000000,,,-1311985616708341016,0.0,8.50431915986563,,,0,18,0.0,32995,12980930247885,47,32.0562858581543,363.44614817844536,0.1182329320152386,4,202900.04273278185,3.4028234663852886E38,1.60031245E9,,,,0,,3,,1.60031245E9
Raw,2064328159,582292000000,,,-1311985616708341016,0.0,8.50431915986563,,,0,9,0.0,32995,12980932578366,33,44.3719367980957,-521.0370878030074,0.0322625440424357,1,-323557.84101657226,5.697528249584138E-4,1.59862502E9,,,,0,,3,,1.59862502E9
Raw,2064328159,582292000000,,,-1311985616708341016,0.0,8.50431915986563,,,0,16,0.0,32994,12980934698158,1000000000,18.43914794921875,252.03533526683486,2.99792458E8,4,40179.93291993129,3.4028234663852886E38,1.60143744E9,,,,0,,3,,1.60143744E9
Raw,2064328159,582292000000,,,-1311985616708341016,0.0,8.50431915986563,,,0,19,0.0,32995,12980934005561,43,32.816490173339844,-87.96922309855847,0.10915524945209237,1,-64870.739380323335,0.001924161333590746,1.60368755E9,,,,0,,3,,1.60368755E9
Raw,2064328159,582292000000,,,-1311985616708341016,0.0,8.50431915986563,,,0,3,0.0,32995,12980921547792,67,21.556598663330078,-586.998672281798,4.200278539992924,4,-346449.1443074951,3.4028234663852886E38,1.60481254E9,,,,0,,3,,1.60481254E9
Raw,2064328160,582292000000,,,-1311985616708341016,0.0,8.50431915986563,,,0,193,0.0,35,11718679,12,37.49482345581055,-178.3861971009004,0.06433610768660045,1,-17693.467359807473,0.0012123403139412403,1.57542003E9,,,,0,,4,,1.57542003E9
Raw,2064328160,582292000000,,,-1311985616708341016,0.0,8.50431915986563,,,0,194,0.0,35,16238386,12,37.5422477722168,-166.92638008458368,0.06481025406814611,1,-100461.15415857901,0.0012057390995323658,1.57542003E9,,,,0,,4,,1.57542003E9
Raw,2064328160,582292000000,,,-1311985616708341016,0.0,8.50431915986563,,,0,195,0.0,35,8500436,56,24.382022857666016,-104.73725490909095,0.283125462608657,4,-58665.12661094153,3.4028234663852886E38,1.57542003E9,,,,0,,4,,1.57542003E9
Raw,2064328161,582292000000,,,-1311985616708341016,0.0,8.50431915986563,,,0,7,0.0,16431,174984880368601,15,29.674633026123047,-113.73140217010734,0.15677142842195158,1,-57178.82561588241,0.0028380758594721556,1.56109798E9,,,,0,,5,,1.56109798E9
Raw,2064328161,582292000000,,,-1311985616708341016,0.0,8.50431915986563,,,0,8,0.0,16431,174984878308317,13,30.66095542907715,-233.92214558287424,0.1399655488422581,1,-116837.00462563861,0.002533423714339733,1.56109798E9,,,,0,,5,,1.56109798E9
Raw,2064328161,582292000000,,,-1311985616708341016,0.0,8.50431915986563,,,0,10,0.0,16431,174984880748706,7,36.02564239501953,-173.49878987675766,0.07742856799726427,1,-63451.58756521765,0.0014489376917481422,1.56109798E9,,,,0,,5,,1.56109798E9
Raw,2064328162,582292000000,,,-1311985616708341016,0.0,8.50431915986563,,,0,13,0.0,16431,174984875825700,77,19.578140258789062,-309.787205783324,4.202846706345756,4,-72566.54147406999,3.4028234663852886E38,1.56109798E9,,,,0,,5,,1.56109798E9
Fix,gps,34.486734,109.464167,357.477203,0.000000,3.000000,1627950982000
Raw,2064329166,583292000000,,,-1311985616708341398,0.0,8.47732978403894,,,0,1,0.0,16431,174999927841107,80,18.98710060119629,455.11350526323963,4.20141045032635,4,252836.78291499184,3.4028234663852886E38,1.57542003E9,,,,0,,1,,1.57542003E9
Raw,2064329167,583292000000,,,-1311985616708341398,0.0,8.47732978403894,,,0,3,0.0,16431,174999926177643,23,31.937801361083984,-297.7971339084254,0.11909933036009324,1,-192924.81120250045,0.0021672018337994814,1.57542003E9,,,,0,,1,,1.57542003E9
Raw,2064329167,583292000000,,,-1311985616708341398,0.0,8.47732978403894,,,0,6,0.0,16431,174999923273786,75,19.873844146728516,-702.8314453500475,4.200589009870312,4,-416301.41685848904,3.4028234663852886E38,1.57542003E9,,,,0,,1,,1.57542003E9
Raw,2064329168,583292000000,,,-1311985616708341398,0.0,8.47732978403894,,,0,7,0.0,16,583017815709,1000000000,7.0,555.6569905827259,2.99792458E8,2,9.44022784270626,3.4028234663852886E38,1.57542003E9,,,,0,,1,,1.57542003E9
Raw,2064329168,583292000000,,,-1311985616708341398,0.0,8.47732978403894,,,0,14,0.0,16431,174999933043091,7,41.573760986328125,-173.6616528952519,0.04125425910080521,1,-118314.15939674345,7.580146193504333E-4,1.57542003E9,,,,0,,1,,1.57542003E9
Raw,2064329169,583292000000,,,-1311985616708341398,0.0,8.47732978403894,,,0,17,0.0,16431,174999929810939,13,36.886085510253906,-212.14701748150503,0.06851055957949023,1,-128426.36816983458,0.0013003534404560924,1.57542003E9,,,,0,,1,,1.57542003E9
Raw,2064329169,583292000000,,,-1311985616708341398,0.0,8.47732978403894,,,0,19,0.0,16431,174999927108040,6,44.570682525634766,-469.31811883316436,0.031278560806531755,1,-278768.74672090344,5.658616428263485E-4,1.57542003E9,,,,0,,1,,1.57542003E9
Raw,2064329170,583292000000,,,-1311985616708341398,0.0,8.47732978403894,,,0,21,0.0,16431,174999918295133,12,37.45716094970703,485.31339058634103,0.0657894465388296,1,281180.7476480575,0.0012176084564998746,1.57542003E9,,,,0,,1,,1.57542003E9
Raw,2064329171,583292000000,,,-1311985616708341398,0.0,8.47732978403894,,,0,22,0.0,16431,174999924022954,62,22.346712112426758,42.03905286143819,4.200723742081253,4,4533.800620398271,3.4028234663852886E38,1.57542003E9,,,,0,,1,,1.57542003E9
Raw,2064329171,583292000000,,,-1311985616708341398,0.0,8.47732978403894,,,0,24,0.0,16431,174999916087545,14,36.1342887878418,-484.73354575351846,0.07567406204752863,1,-296784.3717831571,0.0014179187128320336,1.57542003E9,,,,0,,1,,1.57542003E9
Raw,2064329172,583292000000,,,-1311985616708341398,0.0,8.47732978403894,,,0,30,0.0,16431,174999923793480,166,12.75943374633789,458.11184121092083,4.200682470356558,4,61038.57350651862,3.4028234663852886E38,1.57542003E9,,,,1,,1,,1.57542003E9
Raw,2064329172,583292000000,,,-1311985616708341398,0.0,8.47732978403894,,,0,10,0.0,32995,12981919801465,33,38.443138122558594,-893.3723496320799,0.05935373682005776,1,-356216.1742423269,0.0010715473908931017,1.59806246E9,,,,0,,3,,1.59806246E9
Raw,2064329173,583292000000,,,-1311985616708341398,0.0,8.47732978403894,,,0,2,0.0,32995,12981920747233,44,32.5243034362793,-144.97499455930677,0.11401611003723794,1,-106954.49403917305,0.0021158980671316385,1.59975002E9,,,,0,,3,,1.59975002E9
Raw,2064329174,583292000000,,,-1311985616708341398,0.0,8.47732978403894,,,0,18,0.0,32995,12981930246780,37,33.9884147644043,363.49965763518617,0.09501991672939519,4,203263.53902569346,3.4028234663852886E38,1.60031245E9,,,,0,,3,,1.60031245E9
Raw,2064329174,583292000000,,,-1311985616708341398,0.0,8.47732978403894,,,0,9,0.0,32995,12981932580094,33,43.46609115600586,-520.9601636986354,0.03355417012579459,1,-324078.82535626675,6.323810666799545E-4,1.59862502E9,,,,0,,3,,1.59862502E9
Raw,2064329175,583292000000,,,-1311985616708341398,0.0,8.47732978403894,,,0,16,0.0,32995,12981934697088,82,18.635025024414062,252.09416158679323,4.202643809221769,4,40431.96126992941,3.4028234663852886E38,1.60143744E9,,,,0,,3,,1.60143744E9
Raw,2064329176,583292000000,,,-1311985616708341398,0.0,8.47732978403894,,,0,19,0.0,32995,12981934005875,50,31.52008819580078,-87.98205514343931,0.12632026792484763,1,-64958.722586307944,0.0022338894195854664,1.60368755E9,,,,0,,3,,1.60368755E9
Raw,2064329177,583292000000,,,-1311985616708341398,0.0,8.47732978403894,,,0,3,0.0,32995,12981921549575,84,26.940256118774414,-587.4405854130728,0.21003528511717617,4,-347036.7168358494,3.4028234663852886E38,1.60481254E9,,,,0,,3,,1.60481254E9
Raw,2064329177,583292000000,,,-1311985616708341398,0.0,8.47732978403894,,,0,193,0.0,35,11719299,15,35.5557746887207,-178.2834555357124,0.079900844157477,1,-17871.811241282816,0.0015155734727159142,1.57542003E9,,,,0,,4,,1.57542003E9
Raw,2064329178,583292000000,,,-1311985616708341398,0.0,8.47732978403894,,,0,194,0.0,35,16238945,11,38.128849029541016,-166.85720973907064,0.06076867050185697,1,-100628.07994720008,0.0011269984534010291,1.57542003E9,,,,0,,4,,1.57542003E9
Raw,2064329178,583292000000,,,-1311985616708341398,0.0,8.47732978403894,,,0,195,0.0,35,8500744,33,29.003971099853516,-104.6879546357307,0.16692691874715826,4,-58769.86006343853,3.4028234663852886E38,1.57542003E9,,,,0,,4,,1.57542003E9
Raw,2064329179,583292000000,,,-1311985616708341398,0.0,8.47732978403894,,,0,7,0.0,16431,174985880368983,15,29.678882598876953,-113.67687876028498,0.1566965734954674,1,-57292.523163675745,0.002836687257513404,1.56109798E9,,,,0,,5,,1.56109798E9
Raw,2064329180,583292000000,,,-1311985616708341398,0.0,8.47732978403894,,,0,8,0.0,16431,174985878309077,10,33.2746467590332,-233.91710137930886,0.10445037268774188,1,-117070.93368164785,0.001988838892430067,1.56109798E9,,,,0,,5,,1.56109798E9
Raw,2064329180,583292000000,,,-1311985616708341398,0.0,8.47732978403894,,,0,10,0.0,16431,174985880749294,7,36.269981384277344,-173.498551299562,0.07538445269711935,1,-63625.084647989686,0.0014087463496252894,1.56109798E9,,,,0,,5,,1.56109798E9
Raw,2064329181,583292000000,,,-1311985616708341398,0.0,8.47732978403894,,,0,13,0.0,16431,174985875826766,63,22.279027938842773,-309.8500879156086,4.202846972614948,4,-72875.89192334344,3.4028234663852886E38,1.56109798E9,,,,0,,5,,1.56109798E9
Fix,gps,34.486734,109.464167,357.478607,0.000000,3.000000,1627950983000
Raw,2064330134,584292000000,,,-1311985616708341780,0.0,8.55227128895324,,,0,1,0.0,16431,175000927839525,166,22.18131446838379,454.7263285571405,4.201410184057158,4,253290.85611362368,3.4028234663852886E38,1.57542003E9,,,,1,,1,,1.57542003E9
Raw,2064330134,584292000000,,,-1311985616708341780,0.0,8.55227128895324,,,0,3,0.0,16431,175000926178636,29,29.995412826538086,-297.24721347242985,0.1486676919943234,4,-193222.36911461435,3.4028234663852886E38,1.57542003E9,,,,0,,1,,1.57542003E9
Raw,2064330135,584292000000,,,-1311985616708341780,0.0,8.55227128895324,,,0,6,0.0,16431,175000923276114,90,17.09296989440918,-702.6302225267368,4.200589276139503,4,-417004.881489386,3.4028234663852886E38,1.57542003E9,,,,0,,1,,1.57542003E9
Raw,2064330135,584292000000,,,-1311985616708341780,0.0,8.55227128895324,,,0,7,0.0,16,584017813855,1000000000,7.0,555.6569905827259,2.99792458E8,2,9.43588252899507,3.4028234663852886E38,1.57542003E9,,,,0,,1,,1.57542003E9
Raw,2064330135,584292000000,,,-1311985616708341780,0.0,8.55227128895324,,,0,14,0.0,16431,175000933043678,9,39.71247863769531,-173.62762156241388,0.050552595614652585,1,-118487.78121876928,9.391646599397063E-4,1.57542003E9,,,,0,,1,,1.57542003E9
Raw,2064330136,584292000000,,,-1311985616708341780,0.0,8.55227128895324,,,0,17,0.0,16431,175000929811652,12,37.303775787353516,-212.26332386438912,0.0653769581169602,1,-128638.63091999675,0.0012393012875691056,1.57542003E9,,,,0,,1,,1.57542003E9
Raw,2064330136,584292000000,,,-1311985616708341780,0.0,8.55227128895324,,,0,19,0.0,16431,175000927109604,6,45.318016052246094,-469.6431632210224,0.031278841637319754,1,-279238.3150635604,5.192107055336237E-4,1.57542003E9,,,,0,,1,,1.57542003E9
Raw,2064330136,584292000000,,,-1311985616708341780,0.0,8.55227128895324,,,0,21,0.0,16431,175000918293476,16,34.882755279541016,485.78406931092104,0.0873507898688185,1,281666.24313395034,0.0016376757994294167,1.57542003E9,,,,0,,1,,1.57542003E9
Raw,2064330137,584292000000,,,-1311985616708341780,0.0,8.55227128895324,,,0,22,0.0,16431,175000924022812,35,28.555238723754883,42.75540219294169,0.17489081392373118,4,4576.360702462681,3.4028234663852886E38,1.57542003E9,,,,0,,1,,1.57542003E9
Raw,2064330137,584292000000,,,-1311985616708341780,0.0,8.55227128895324,,,0,24,0.0,16431,175000916089202,14,36.288536071777344,-484.89298348513216,0.07439331555691964,1,-297269.38752832526,0.0013929610140621662,1.57542003E9,,,,0,,1,,1.57542003E9
Raw,2064330138,584292000000,,,-1311985616708341780,0.0,8.55227128895324,,,0,30,0.0,16431,175000923791977,166,12.520233154296875,458.4412822356703,4.200682204087366,4,61497.31667254996,3.4028234663852886E38,1.57542003E9,,,,1,,1,,1.57542003E9
Raw,2064330138,584292000000,,,-1311985616708341780,0.0,8.55227128895324,,,0,10,0.0,32995,12982919804426,33,36.647216796875,-893.439696566169,0.07216916899961467,1,-357109.5764284709,0.0013176724314689636,1.59806246E9,,,,0,,3,,1.59806246E9
Raw,2064330138,584292000000,,,-1311985616708341780,0.0,8.55227128895324,,,0,2,0.0,32995,12982920747808,47,31.966489791870117,-144.51757391031413,0.12133109055209507,1,-107099.25341338167,0.0022562406957149506,1.59975002E9,,,,0,,3,,1.59975002E9
Raw,2064330138,584292000000,,,-1311985616708341780,0.0,8.55227128895324,,,0,18,0.0,32995,12982930245473,50,31.51864242553711,363.66713882653926,0.1256644885105363,4,203626.9402211416,3.4028234663852886E38,1.60031245E9,,,,0,,3,,1.60031245E9
Raw,2064330139,584292000000,,,-1311985616708341780,0.0,8.55227128895324,,,0,9,0.0,32995,12982932581869,33,39.14313507080078,-520.989474611245,0.05373525717573205,1,-324599.83729601797,9.868425549939275E-4,1.59862502E9,,,,0,,3,,1.59862502E9
Raw,2064330139,584292000000,,,-1311985616708341780,0.0,8.55227128895324,,,0,16,0.0,32995,12982934696237,166,20.789308547973633,252.440831293315,4.202643542952577,4,40685.146340035346,3.4028234663852886E38,1.60143744E9,,,,1,,3,,1.60143744E9
Raw,2064330139,584292000000,,,-1311985616708341780,0.0,8.55227128895324,,,0,19,0.0,32995,12982934006146,75,28.0100154876709,-88.31444430067802,0.1879696737033436,4,-65046.631313681166,3.4028234663852886E38,1.60368755E9,,,,0,,3,,1.60368755E9
Raw,2064330140,584292000000,,,-1311985616708341780,0.0,8.55227128895324,,,0,3,0.0,32995,12982921551587,97,25.740182876586914,-586.9936280782326,0.24111387568059994,4,-347623.78286894644,3.4028234663852886E38,1.60481254E9,,,,0,,3,,1.60481254E9
Raw,2064330140,584292000000,,,-1311985616708341780,0.0,8.55227128895324,,,0,193,0.0,35,11719889,20,33.1688117980957,-178.08390275277134,0.10450525742485722,1,-18049.841999558044,0.001994918566197157,1.57542003E9,,,,0,,4,,1.57542003E9
Raw,2064330140,584292000000,,,-1311985616708341780,0.0,8.55227128895324,,,0,194,0.0,35,16239485,7,42.0839729309082,-166.63216327865052,0.03960956839031757,1,-100794.75116343216,7.534350734204054E-4,1.57542003E9,,,,0,,4,,1.57542003E9
Raw,2064330141,584292000000,,,-1311985616708341780,0.0,8.55227128895324,,,0,195,0.0,35,8501098,35,28.529319763183594,-104.70021579946479,0.17621685113964625,4,-58874.506254829015,3.4028234663852886E38,1.57542003E9,,,,0,,4,,1.57542003E9
Raw,2064330141,584292000000,,,-1311985616708341780,0.0,8.55227128895324,,,0,7,0.0,16431,174986880369370,11,32.100276947021484,-113.49010689853998,0.11946557531220542,1,-57406.075213492004,0.002146553946658969,1.56109798E9,,,,0,,5,,1.56109798E9
Raw,2064330141,584292000000,,,-1311985616708341780,0.0,8.55227128895324,,,0,8,0.0,16431,174986878309870,6,37.10772705078125,-233.94235647959226,0.06835769610078404,1,-117304.79770742396,0.0012792207999154925,1.56109798E9,,,,0,,5,,1.56109798E9
Raw,2064330141,584292000000,,,-1311985616708341780,0.0,8.55227128895324,,,0,10,0.0,16431,174986880749873,11,32.496185302734375,-173.41581613635287,0.11437415889079666,1,-63798.54696912959,0.0021753173787146807,1.56109798E9,,,,0,,5,,1.56109798E9
Raw,2064330142,584292000000,,,-1311985616708341780,0.0,8.55227128895324,,,0,13,0.0,16431,174986875827789,80,18.959070205688477,-310.2426496498383,4.202846972614948,4,-73185.4449474686,3.4028234663852886E38,1.56109798E9,,,,0,,5,,1.56109798E9
Fix,gps,34.486735,109.464169,357.391022,0.360811,3.000000,1627950984000
Raw,2064331116,585292000000,,,-1311985616708342164,0.0,8.56814743916181,,,0,1,0.0,16431,175001927838039,45,26.240108489990234,454.10016566590343,0.22877451201331545,4,253745.0018992571,3.4028234663852886E38,1.57542003E9,,,,0,,1,,1.57542003E9
Raw,2064331116,585292000000,,,-1311985616708342164,0.0,8.56814743916181,,,0,3,0.0,16431,175001926179654,30,29.880550384521484,-296.6936802960429,0.15063212623888667,4,-193519.50029098068,3.4028234663852886E38,1.57542003E9,,,,0,,1,,1.57542003E9
Raw,2064331117,585292000000,,,-1311985616708342164,0.0,8.56814743916181,,,0,6,0.0,16431,175001923278492,63,23.391170501708984,-703.8510561193839,0.31621353683549525,1,-417708.5180599836,0.005797368939965963,1.57542003E9,,,,0,,1,,1.57542003E9
Raw,2064331117,585292000000,,,-1311985616708342164,0.0,8.56814743916181,,,0,7,0.0,16,585017812001,1000000000,7.0,555.8426377234057,2.99792458E8,2,9.434687662417037,3.4028234663852886E38,1.57542003E9,,,,0,,1,,1.57542003E9
Raw,2064331118,585292000000,,,-1311985616708342164,0.0,8.56814743916181,,,0,14,0.0,16431,175001933044242,11,38.595458984375,-173.6416976169578,0.05716840315788235,1,-118661.36682979623,0.0010680528357625008,1.57542003E9,,,,0,,1,,1.57542003E9
Raw,2064331118,585292000000,,,-1311985616708342164,0.0,8.56814743916181,,,0,17,0.0,16431,175001929812368,11,38.2003059387207,-212.49153999326586,0.05913873692922167,1,-128851.03450007433,0.0011177646229043603,1.57542003E9,,,,0,,1,,1.57542003E9
Raw,2064331118,585292000000,,,-1311985616708342164,0.0,8.56814743916181,,,0,19,0.0,16431,175001927111180,6,44.907127380371094,-469.9116307310526,0.03127912454833581,1,-279708.1871705464,5.443624104373157E-4,1.57542003E9,,,,0,,1,,1.57542003E9
Raw,2064331119,585292000000,,,-1311985616708342164,0.0,8.56814743916181,,,0,21,0.0,16431,175001918291878,18,34.11051559448242,485.62677877406827,0.09516637310567888,4,282152.07005547977,3.4028234663852886E38,1.57542003E9,,,,0,,1,,1.57542003E9
Raw,2064331119,585292000000,,,-1311985616708342164,0.0,8.56814743916181,,,0,22,0.0,16431,175001924022674,37,28.113821029663086,43.63856810789608,0.18397077641683035,4,4619.085348025069,3.4028234663852886E38,1.57542003E9,,,,0,,1,,1.57542003E9
Raw,2064331119,585292000000,,,-1311985616708342164,0.0,8.56814743916181,,,0,24,0.0,16431,175001916090832,12,37.346378326416016,-485.2536099576,0.06619518670087476,1,-297754.55790765956,0.0012332379119470716,1.57542003E9,,,,0,,1,,1.57542003E9
Raw,2064331120,585292000000,,,-1311985616708342164,0.0,8.56814743916181,,,0,30,0.0,16431,175001923790432,166,12.551252365112305,458.25948641257764,4.200681937818175,4,61955.887743476706,3.4028234663852886E38,1.57542003E9,,,,1,,1,,1.57542003E9
Raw,2064331120,585292000000,,,-1311985616708342164,0.0,8.56814743916181,,,0,10,0.0,32995,12983919807422,36,34.25547790527344,-893.6118811365222,0.09391834444198582,1,-358003.3774924786,0.0016361312009394169,1.59806246E9,,,,0,,3,,1.59806246E9
Raw,2064331120,585292000000,,,-1311985616708342164,0.0,8.56814743916181,,,0,2,0.0,32995,12983920748226,41,33.20126724243164,-144.27874109623053,0.10574733663630081,1,-107243.54115697063,0.001957251224666834,1.59975002E9,,,,0,,3,,1.59975002E9
Raw,2064331121,585292000000,,,-1311985616708342164,0.0,8.56814743916181,,,0,18,0.0,32995,12983930244303,60,29.85710906982422,364.02814020602887,0.15176731501173357,4,203990.5768551316,3.4028234663852886E38,1.60031245E9,,,,0,,3,,1.60031245E9
Raw,2064331121,585292000000,,,-1311985616708342164,0.0,8.56814743916181,,,0,9,0.0,32995,12983932583586,33,38.19732666015625,-521.4060985597798,0.0596568926155889,1,-325121.03001182305,0.001100368914194405,1.59862502E9,,,,0,,3,,1.59862502E9
Raw,2064331121,585292000000,,,-1311985616708342164,0.0,8.56814743916181,,,0,16,0.0,32995,12983934695522,117,24.090356826782227,252.12768168278342,0.29385627744775533,4,40937.465518047386,3.4028234663852886E38,1.60143744E9,,,,0,,3,,1.60143744E9
Raw,2064331121,585292000000,,,-1311985616708342164,0.0,8.56814743916181,,,0,19,0.0,32995,12983934006489,95,25.87459373474121,-88.48958552413461,0.23965606849849952,4,-65134.87175250707,3.4028234663852886E38,1.60368755E9,,,,0,,3,,1.60368755E9
Raw,2064331122,585292000000,,,-1311985616708342164,0.0,8.56814743916181,,,0,3,0.0,32995,12983921553501,77,27.74048614501953,-586.9187148387955,0.1915746590045566,4,-348210.4926617243,3.4028234663852886E38,1.60481254E9,,,,0,,3,,1.60481254E9
Raw,2064331122,585292000000,,,-1311985616708342164,0.0,8.56814743916181,,,0,193,0.0,35,11720476,20,33.43804168701172,-177.63967201445303,0.10138009752779165,1,-18227.61219924946,0.00193403207231313,1.57542003E9,,,,0,,4,,1.57542003E9
Raw,2064331122,585292000000,,,-1311985616708342164,0.0,8.56814743916181,,,0,194,0.0,35,16240052,7,42.470680236816406,-166.40916176562177,0.03801206973358215,1,-100961.3269761009,7.206269656307995E-4,1.57542003E9,,,,0,,4,,1.57542003E9
Raw,2064331123,585292000000,,,-1311985616708342164,0.0,8.56814743916181,,,0,195,0.0,35,8501446,37,28.08531951904297,-104.62646136354942,0.18537869140915764,4,-58979.050674588965,3.4028234663852886E38,1.57542003E9,,,,0,,4,,1.57542003E9
Raw,2064331123,585292000000,,,-1311985616708342164,0.0,8.56814743916181,,,0,7,0.0,16431,174987880369742,10,32.73807144165039,-113.39879999751537,0.11126714690332001,1,-57519.560961006886,0.0019945830572396517,1.56109798E9,,,,0,,5,,1.56109798E9
Raw,2064331123,585292000000,,,-1311985616708342164,0.0,8.56814743916181,,,0,8,0.0,16431,174987878310648,7,35.574893951416016,-233.87955955344898,0.08091543794927286,1,-117538.69688855759,0.0015261146472766995,1.56109798E9,,,,0,,5,,1.56109798E9
Raw,2064331124,585292000000,,,-1311985616708342164,0.0,8.56814743916181,,,0,10,0.0,16431,174987880750441,12,31.816701889038086,-173.5598826800748,0.12337715294570345,1,-63972.11752426364,0.0022177905775606632,1.56109798E9,,,,0,,5,,1.56109798E9
Raw,2064331124,585292000000,,,-1311985616708342164,0.0,8.56814743916181,,,0,13,0.0,16431,174987875828789,89,17.258464813232422,-309.98883759611294,4.202847238884139,4,-73495.49935061998,3.4028234663852886E38,1.56109798E9,,,,0,,5,,1.56109798E9
Fix,gps,34.486737,109.464168,357.393280,0.672467,3.000000,1627950985000
Raw,2064332183,586292000000,,,-1311985616708342545,0.0,8.509984725867026,,,0,1,0.0,16431,175002927836508,46,26.22121238708496,453.8878319617663,0.2292694065895241,4,254198.99770340874,3.4028234663852886E38,1.57542003E9,,,,0,,1,,1.57542003E9
Raw,2064332183,586292000000,,,-1311985616708342545,0.0,8.509984725867026,,,0,3,0.0,16431,175002926180623,24,31.796218872070312,-296.8122190798292,0.12103886843524336,4,-193816.44302096032,3.4028234663852886E38,1.57542003E9,,,,0,,1,,1.57542003E9
Raw,2064332184,586292000000,,,-1311985616708342545,0.0,8.509984725867026,,,0,6,0.0,16431,175002923280723,66,21.689006805419922,-703.2791524989311,4.200590074947078,4,-418412.1086185956,3.4028234663852886E38,1.57542003E9,,,,0,,1,,1.57542003E9
Raw,2064332184,586292000000,,,-1311985616708342545,0.0,8.509984725867026,,,0,7,0.0,16,586017810147,1000000000,7.0,555.8426377234057,2.99792458E8,2,9.447727957835168,3.4028234663852886E38,1.57542003E9,,,,0,,1,,1.57542003E9
Raw,2064332185,586292000000,,,-1311985616708342545,0.0,8.509984725867026,,,0,14,0.0,16431,175002933044823,9,40.17059326171875,-173.3255487502522,0.04807617980060194,1,-118834.82457403741,8.909146417863667E-4,1.57542003E9,,,,0,,1,,1.57542003E9
Raw,2064332186,586292000000,,,-1311985616708342545,0.0,8.509984725867026,,,0,17,0.0,16431,175002929813051,15,35.88907241821289,-212.18406511174533,0.07662941926510919,4,-129063.31577704764,3.4028234663852886E38,1.57542003E9,,,,0,,1,,1.57542003E9
Raw,2064332187,586292000000,,,-1311985616708342545,0.0,8.509984725867026,,,0,19,0.0,16431,175002927112741,6,44.90034103393555,-469.7313345360469,0.03127940537912381,1,-280177.9865719753,5.447878502309322E-4,1.57542003E9,,,,0,,1,,1.57542003E9
Raw,2064332188,586292000000,,,-1311985616708342545,0.0,8.509984725867026,,,0,21,0.0,16431,175002918290266,15,35.96760177612305,485.959559879557,0.0774804572059743,4,282637.8195588704,3.4028234663852886E38,1.57542003E9,,,,0,,1,,1.57542003E9
Raw,2064332189,586292000000,,,-1311985616708342545,0.0,8.509984725867026,,,0,22,0.0,16431,175002924022472,49,25.618724822998047,43.40711840595674,0.2449496331617943,4,4662.168444878048,3.4028234663852886E38,1.57542003E9,,,,0,,1,,1.57542003E9
Raw,2064332189,586292000000,,,-1311985616708342545,0.0,8.509984725867026,,,0,24,0.0,16431,175002916092422,14,36.3518180847168,-484.9695326824824,0.07387488111999246,1,-298239.5917946162,0.0013828490627929568,1.57542003E9,,,,0,,1,,1.57542003E9
Raw,2064332190,586292000000,,,-1311985616708342545,0.0,8.509984725867026,,,0,30,0.0,16431,175002923788864,166,12.86880874633789,458.4624815236275,4.200681671548983,4,62414.54484553931,3.4028234663852886E38,1.57542003E9,,,,1,,1,,1.57542003E9
Raw,2064332190,586292000000,,,-1311985616708342545,0.0,8.509984725867026,,,0,10,0.0,32995,12984919810386,44,32.62710952758789,-893.9015138520531,0.11254994865925155,1,-358897.02411656367,0.002093209885060787,1.59806246E9,,,,0,,3,,1.59806246E9
Raw,2064332191,586292000000,,,-1311985616708342545,0.0,8.509984725867026,,,0,2,0.0,32995,12984920748717,43,32.77904510498047,-143.5716323707518,0.11082890941853318,4,-107387.76023377434,3.4028234663852886E38,1.59975002E9,,,,0,,3,,1.59975002E9
Raw,2064332191,586292000000,,,-1311985616708342545,0.0,8.509984725867026,,,0,18,0.0,32995,12984930242927,83,27.13620376586914,364.22278511523064,0.2069200853520583,4,204353.8541610745,3.4028234663852886E38,1.60031245E9,,,,0,,3,,1.60031245E9
Raw,2064332192,586292000000,,,-1311985616708342545,0.0,8.509984725867026,,,0,9,0.0,32995,12984932585287,33,39.54801940917969,-520.778061133434,0.05139159735596685,1,-325642.0037821799,9.418975096195936E-4,1.59862502E9,,,,0,,3,,1.59862502E9
Raw,2064332193,586292000000,,,-1311985616708342545,0.0,8.509984725867026,,,0,16,0.0,32995,12984934694536,64,22.045059204101562,251.90393035571117,4.202643276683386,4,41190.457691077245,3.4028234663852886E38,1.60143744E9,,,,0,,3,,1.60143744E9
Raw,2064332194,586292000000,,,-1311985616708342545,0.0,8.509984725867026,,,0,19,0.0,32995,12984934006648,99,25.60092544555664,-88.2201637053218,0.24724658770117314,4,-65222.96249177519,3.4028234663852886E38,1.60368755E9,,,,0,,3,,1.60368755E9
