# 
# Header Description:
# 
# Version: v2.0.0.1 Platform: 10 Manufacturer: HUAWEI Model: BLA-AL00
# 
# Raw,ElapsedRealtimeMillis,TimeNanos,LeapSecond,TimeUncertaintyNanos,FullBiasNanos,BiasNanos,BiasUncertaintyNanos,DriftNanosPerSecond,DriftUncertaintyNanosPerSecond,HardwareClockDiscontinuityCount,Svid,TimeOffsetNanos,State,ReceivedSvTimeNanos,ReceivedSvTimeUncertaintyNanos,Cn0DbHz,PseudorangeRateMetersPerSecond,PseudorangeRateUncertaintyMetersPerSecond,AccumulatedDeltaRangeState,AccumulatedDeltaRangeMeters,AccumulatedDeltaRangeUncertaintyMeters,CarrierFrequencyHz,CarrierCycles,CarrierPhase,CarrierPhaseUncertainty,MultipathIndicator,SnrInDb,ConstellationType,AgcDb,CarrierFrequencyHz
# 
# Fix,Provider,Latitude,Longitude,Altitude,Speed,Accuracy,(UTC)TimeInMs
# 
# Nav,Svid,Type,Status,MessageId,Sub-messageId,Data(Bytes)
# 
Fix,gps,34.486285,109.463903,358.500305,0.488202,3.000000,1627820639999
Raw,1933986502,1987824000000,,,-1311853870175954602,0.0,10.769921266584467,,,0,10,0.0,16431,44657931953353,8,40.951377868652344,-313.0493058620352,0.04394848727402806,1,-783043.3153215485,8.583722519688308E-4,1.57542003E9,,,,0,,1,,1.57542003E9
Raw,1933986503,1987824000000,,,-1311853870175954602,0.0,10.769921266584467,,,0,12,0.0,16431,44657924187138,6,45.94639587402344,-441.4240821061137,0.03075316384629026,1,-989116.3829758319,4.829749232158065E-4,1.57542003E9,,,,0,,1,,1.57542003E9
Raw,1933986503,1987824000000,,,-1311853870175954602,0.0,10.769921266584467,,,0,15,0.0,16431,44657915818608,13,36.69578552246094,415.4033535193828,0.07106969358208903,4,528032.9284744225,3.4028234663852886E38,1.57542003E9,,,,0,,1,,1.57542003E9
Raw,1933986503,1987824000000,,,-1311853870175954602,0.0,10.769921266584467,,,0,18,0.0,16431,44657920446125,99,15.265955924987793,567.0236943278223,4.203677732492691,4,1082024.966580379,3.4028234663852886E38,1.57542003E9,,,,0,,1,,1.57542003E9
Raw,1933986504,1987824000000,,,-1311853870175954602,0.0,10.769921266584467,,,0,23,0.0,16431,44657931172617,13,36.97088623046875,149.6071582665502,0.06810701613827563,1,106413.34714978545,0.0012877198169007897,1.57542003E9,,,,0,,1,,1.57542003E9
Raw,1933986504,1987824000000,,,-1311853870175954602,0.0,10.769921266584467,,,0,24,0.0,51,5471010,10,39.18562698364258,479.0866961919062,0.05220497900850335,4,524769.473540392,3.4028234663852886E38,1.57542003E9,,,,0,,1,,1.57542003E9
Raw,1933986504,1987824000000,,,-1311853870175954602,0.0,10.769921266584467,,,0,25,0.0,16431,44657923730169,15,35.72834777832031,-689.9732251425999,0.07693344875642522,1,-1181223.2897218242,0.0014857589267194271,1.57542003E9,,,,0,,1,,1.57542003E9
Raw,1933986505,1987824000000,,,-1311853870175954602,0.0,10.769921266584467,,,0,31,0.0,16,1987018972447,1000000000,7.0,-819.0974746056149,2.99792458E8,2,-15.539682260491695,3.4028234663852886E38,1.57542003E9,,,,0,,1,,1.57542003E9
Raw,1933986505,1987824000000,,,-1311853870175954602,0.0,10.769921266584467,,,0,32,0.0,16431,44657927495431,11,38.61993408203125,-388.91712674146333,0.05601605666400272,4,-571556.6177935712,3.4028234663852886E38,1.57542003E9,,,,0,,1,,1.57542003E9
Raw,1933986505,1987824000000,,,-1311853870175954602,0.0,10.769921266584467,,,0,10,0.0,32995,55439931336079,67,28.907136917114258,-740.1246737720458,0.16929118946653454,1,-1495847.182299254,0.0030285529792308807,1.59806246E9,,,,0,,3,,1.59806246E9
Raw,1933986505,1987824000000,,,-1311853870175954602,0.0,10.769921266584467,,,0,9,0.0,32995,55439933736800,33,38.71947479248047,-43.079407065875785,0.05651580233204556,1,-412606.4424169748,0.0010361697059124708,1.59862502E9,,,,0,,3,,1.59862502E9
Raw,1933986506,1987824000000,,,-1311853870175954602,0.0,10.769921266584467,,,0,16,0.0,99,1924206161,51,31.216054916381836,567.7048322214307,0.12896770760856174,4,525992.9311976035,3.4028234663852886E38,1.60143744E9,,,,0,,3,,1.60143744E9
Raw,1933986506,1987824000000,,,-1311853870175954602,0.0,10.769921266584467,,,0,23,0.0,32961,55439924481026,53,30.889814376831055,48.558234377137666,0.13392430028899416,4,-338.34422105253657,3.4028234663852886E38,1.60368755E9,,,,0,,3,,1.60368755E9
Raw,1933986506,1987824000000,,,-1311853870175954602,0.0,10.769921266584467,,,0,7,0.0,32961,55439933008227,33,46.5187873840332,-153.52096603766233,0.032339864039170094,4,-556035.7299735376,3.4028234663852886E38,1.60481254E9,,,,0,,3,,1.60481254E9
Raw,1933986507,1987824000000,,,-1311853870175954602,0.0,10.769921266584467,,,0,8,0.0,65,1928106635,33,39.63902282714844,-558.8110492742599,0.05007396010095505,4,-547776.7524860332,3.4028234663852886E38,1.60537498E9,,,,0,,3,,1.60537498E9
Raw,1933986507,1987824000000,,,-1311853870175954602,0.0,10.769921266584467,,,0,193,0.0,35,9622275,9,40.09885787963867,-257.8852992280948,0.04783978268394837,4,-492560.0512326185,3.4028234663852886E38,1.57542003E9,,,,0,,4,,1.57542003E9
Raw,1933986507,1987824000000,,,-1311853870175954602,0.0,10.769921266584467,,,0,194,0.0,35,12492099,10,39.30028533935547,-98.64122413235043,0.05279618814385545,1,-98946.41599818434,0.001038078567944467,1.57542003E9,,,,0,,4,,1.57542003E9
Raw,1933986507,1987824000000,,,-1311853870175954602,0.0,10.769921266584467,,,0,6,0.0,16431,44643878672076,6,38.52935028076172,-80.75062697194028,0.05859958342082433,4,-134094.64114871295,3.4028234663852886E38,1.56109798E9,,,,0,,5,,1.56109798E9
Raw,1933986508,1987824000000,,,-1311853870175954602,0.0,10.769921266584467,,,0,14,0.0,16431,44643924263437,6,39.152610778808594,147.81927780350486,0.05218285370286513,4,192605.5972342625,3.4028234663852886E38,1.56109798E9,,,,0,,5,,1.56109798E9
Raw,1933986508,1987824000000,,,-1311853870175954602,0.0,10.769921266584467,,,0,16,0.0,16431,44643878028230,6,38.52943420410156,-78.5692901101815,0.05848322378410192,4,-132344.36069698117,3.4028234663852886E38,1.56109798E9,,,,0,,5,,1.56109798E9
Raw,1933986508,1987824000000,,,-1311853870175954602,0.0,10.769921266584467,,,0,24,0.0,16431,44643924118522,6,40.97079849243164,61.2385100790797,0.04244585949816296,1,-64958.12541418158,8.19958804640919E-4,1.56109798E9,,,,0,,5,,1.56109798E9
Raw,1933986508,1987824000000,,,-1311853870175954602,0.0,10.769921266584467,,,0,25,0.0,16431,44643923550840,10,32.767181396484375,-556.2441972261574,0.107881792080603,1,-889980.0704322774,0.0021084961481392384,1.56109798E9,,,,0,,5,,1.56109798E9
Raw,1933986508,1987824000000,,,-1311853870175954602,0.0,10.769921266584467,,,0,26,0.0,16431,44643914734491,6,37.64925765991211,444.73355679939164,0.06378194741298365,4,745740.5418581071,3.4028234663852886E38,1.56109798E9,,,,0,,5,,1.56109798E9
Raw,1933986509,1987824000000,,,-1311853870175954602,0.0,10.769921266584467,,,0,27,0.0,16431,44643913003382,30,23.79570198059082,144.37793808594017,0.3036002653791927,4,132920.9190319899,3.4028234663852886E38,1.56109798E9,,,,0,,5,,1.56109798E9
Raw,1933986509,1987824000000,,,-1311853870175954602,0.0,10.769921266584467,,,0,33,0.0,16431,44643926125531,6,44.980621337890625,-95.79627628025014,0.031101837111985928,4,-267950.1164356991,3.4028234663852886E38,1.56109798E9,,,,0,,5,,1.56109798E9
Raw,1933987453,1988824000000,,,-1311853870175954992,0.0,11.05851202887901,,,0,10,0.0,16431,44658931954404,8,40.64828109741211,-312.95772630135843,0.04543300042395318,1,-783356.3519722719,8.8885409059003E-4,1.57542003E9,,,,0,,1,,1.57542003E9
Raw,1933987453,1988824000000,,,-1311853870175954992,0.0,11.05851202887901,,,0,12,0.0,16431,44658924188617,6,45.68516540527344,-441.38529627059074,0.030753430115481845,1,-989557.7899455979,4.977211356163025E-4,1.57542003E9,,,,0,,1,,1.57542003E9
Raw,1933987453,1988824000000,,,-1311853870175954992,0.0,11.05851202887901,,,0,15,0.0,16431,44658915817266,13,37.05329132080078,415.4422416022753,0.06831837563000803,4,528448.3618195157,3.4028234663852886E38,1.57542003E9,,,,0,,1,,1.57542003E9
Raw,1933987453,1988824000000,,,-1311853870175954992,0.0,11.05851202887901,,,0,18,0.0,16431,44658920444428,85,18.075851440429688,566.8743790857959,4.2036774662235,4,1082591.8173616915,3.4028234663852886E38,1.57542003E9,,,,0,,1,,1.57542003E9
Raw,1933987453,1988824000000,,,-1311853870175954992,0.0,11.05851202887901,,,0,23,0.0,16431,44658931172101,12,37.33414077758789,149.66065068206274,0.06539967420736725,1,106563.00017182375,0.0012349763419479132,1.57542003E9,,,,0,,1,,1.57542003E9
Raw,1933987453,1988824000000,,,-1311853870175954992,0.0,11.05851202887901,,,0,24,0.0,39,925469409,9,39.718074798583984,479.2471563972156,0.04915913404688099,4,525248.6152017862,3.4028234663852886E38,1.57542003E9,,,,0,,1,,1.57542003E9
Raw,1933987454,1988824000000,,,-1311853870175954992,0.0,11.05851202887901,,,0,25,0.0,16431,44658923732472,13,36.81700134277344,-689.9911525147309,0.06795017110306403,1,-1181913.300409242,0.0013107371050864458,1.57542003E9,,,,0,,1,,1.57542003E9
Raw,1933987454,1988824000000,,,-1311853870175954992,0.0,11.05851202887901,,,0,31,0.0,16,1988018975179,1000000000,10.755167007446289,-819.0974746056149,2.99792458E8,2,-15.50765498879316,3.4028234663852886E38,1.57542003E9,,,,0,,1,,1.57542003E9
Raw,1933987454,1988824000000,,,-1311853870175954992,0.0,11.05851202887901,,,0,32,0.0,16431,44658927496711,11,38.369815826416016,-388.85557382498314,0.05761336810021281,4,-571945.52727027,3.4028234663852886E38,1.57542003E9,,,,0,,1,,1.57542003E9
Raw,1933987454,1988824000000,,,-1311853870175954992,0.0,11.05851202887901,,,0,10,0.0,32995,55440931338531,56,30.464540481567383,-740.0858879365228,0.14183765424463946,1,-1495106.7855133412,0.0025314250960946083,1.59806246E9,,,,0,,3,,1.59806246E9
Raw,1933987454,1988824000000,,,-1311853870175954992,0.0,11.05851202887901,,,0,9,0.0,32995,55440933736973,33,37.842933654785156,-42.921528606647996,0.06225449835591554,1,-412649.43042552273,0.0011461934773251414,1.59862502E9,,,,0,,3,,1.59862502E9
Raw,1933987454,1988824000000,,,-1311853870175954992,0.0,11.05851202887901,,,0,16,0.0,99,924204233,51,31.274539947509766,567.8153275454777,0.12810695916311604,1,526560.6694995902,0.002301170490682125,1.60143744E9,,,,0,,3,,1.60143744E9
Raw,1933987454,1988824000000,,,-1311853870175954992,0.0,11.05851202887901,,,0,23,0.0,32961,55440924480807,49,31.550844192504883,48.66908756697811,0.12416934539522839,4,-289.7238772704878,3.4028234663852886E38,1.60368755E9,,,,0,,3,,1.60368755E9
Raw,1933987454,1988824000000,,,-1311853870175954992,0.0,11.05851202887901,,,0,7,0.0,32961,55440933008742,33,46.532249450683594,-153.45341460883412,0.03233995764943276,1,-556189.2226028888,4.4320436427369714E-4,1.60481254E9,,,,0,,3,,1.60481254E9
Raw,1933987455,1988824000000,,,-1311853870175954992,0.0,11.05851202887901,,,0,8,0.0,65,928108514,33,38.91796112060547,-558.7559379420625,0.054282415401701395,4,-548335.5665614194,3.4028234663852886E38,1.60537498E9,,,,0,,3,,1.60537498E9
Raw,1933987455,1988824000000,,,-1311853870175954992,0.0,11.05851202887901,,,0,193,0.0,35,9623137,9,40.16207504272461,-257.92498824871564,0.04750557324394869,1,-492817.96603754535,8.917885133996606E-4,1.57542003E9,,,,0,,4,,1.57542003E9
Raw,1933987455,1988824000000,,,-1311853870175954992,0.0,11.05851202887901,,,0,194,0.0,35,12492421,10,39.37187576293945,-98.64957433419852,0.05238133658291075,1,-99045.06504581247,9.767240844666958E-4,1.57542003E9,,,,0,,4,,1.57542003E9
Raw,1933987455,1988824000000,,,-1311853870175954992,0.0,11.05851202887901,,,0,6,0.0,16431,44644878672343,6,38.71715545654297,-80.7353154283474,0.05741802220408054,1,-134175.38574178598,0.0010628552408888936,1.56109798E9,,,,0,,5,,1.56109798E9
Raw,1933987455,1988824000000,,,-1311853870175954992,0.0,11.05851202887901,,,0,14,0.0,16431,44644924262947,6,39.467124938964844,147.87375861025657,0.050354283313307824,1,192753.45458917358,9.749349555931985E-4,1.56109798E9,,,,0,,5,,1.56109798E9
Raw,1933987455,1988824000000,,,-1311853870175954992,0.0,11.05851202887901,,,0,16,0.0,16431,44644878028497,6,38.44707489013672,-78.5083762397611,0.05900956308765426,4,-132422.88050229274,3.4028234663852886E38,1.56109798E9,,,,0,,5,,1.56109798E9
Raw,1933987455,1988824000000,,,-1311853870175954992,0.0,11.05851202887901,,,0,24,0.0,16431,44644924118314,6,40.78712463378906,61.33097152331902,0.0433370999265012,1,-64896.84155562173,8.374822791665792E-4,1.56109798E9,,,,0,,5,,1.56109798E9
Raw,1933987455,1988824000000,,,-1311853870175954992,0.0,11.05851202887901,,,0,25,0.0,16431,44644923552687,10,32.68229675292969,-556.2252132978742,0.1089353527044048,1,-890536.3188997398,0.0021292029414325953,1.56109798E9,,,,0,,5,,1.56109798E9
Raw,1933987455,1988824000000,,,-1311853870175954992,0.0,11.05851202887901,,,0,26,0.0,16431,44644914733008,6,38.53107452392578,444.78331718591494,0.05788007413968971,1,746185.3126513887,0.001085870899260044,1.56109798E9,,,,0,,5,,1.56109798E9
Raw,1933987455,1988824000000,,,-1311853870175954992,0.0,11.05851202887901,,,0,27,0.0,16430,44644913002951,1000000000,20.019710540771484,144.5767069723812,2.99792458E8,4,133066.3124647617,3.4028234663852886E38,1.56109798E9,,,,0,,5,,1.56109798E9
Raw,1933987456,1988824000000,,,-1311853870175954992,0.0,11.05851202887901,,,0,33,0.0,16431,44644926125846,6,44.88077163696289,-95.71200740649749,0.031101893278143528,1,-268045.87821571203,5.510259652510285E-4,1.56109798E9,,,,0,,5,,1.56109798E9
Fix,gps,34.486285,109.463904,358.452728,0.337865,3.000000,1627820640999
Fix,gps,34.486285,109.463904,358.381226,0.000000,3.000000,1627820641999
Raw,1933988494,1989824000000,,,-1311853870175955380,0.0,10.95493810218646,,,0,10,0.0,16431,44659931955446,7,41.60884094238281,-312.91948578513984,0.040901797739813645,1,-783669.2849351201,7.957973866723478E-4,1.57542003E9,,,,0,,1,,1.57542003E9
Raw,1933988495,1989824000000,,,-1311853870175955380,0.0,10.95493810218646,,,0,12,0.0,16431,44659924190079,6,44.437957763671875,-441.2970567906532,0.03075369222421731,1,-989999.0597978726,5.745748640038073E-4,1.57542003E9,,,,0,,1,,1.57542003E9
Raw,1933988495,1989824000000,,,-1311853870175955380,0.0,10.95493810218646,,,0,15,0.0,16431,44659915815890,16,35.22759246826172,415.39803665616523,0.0836332226250387,1,528863.828439032,0.0015739324735477567,1.57542003E9,,,,0,,1,,1.57542003E9
Raw,1933988495,1989824000000,,,-1311853870175955380,0.0,10.95493810218646,,,0,18,0.0,16431,44659920442496,167,17.691665649414062,566.8475221100559,4.203677199954308,4,1083158.7292943113,3.4028234663852886E38,1.57542003E9,,,,1,,1,,1.57542003E9
Raw,1933988496,1989824000000,,,-1311853870175955380,0.0,10.95493810218646,,,0,23,0.0,16431,44659931171600,10,38.932071685791016,149.69200654206372,0.054747629283960625,1,106712.83106242672,0.0010274535743519664,1.57542003E9,,,,0,,1,,1.57542003E9
Raw,1933988496,1989824000000,,,-1311853870175955380,0.0,10.95493810218646,,,0,24,0.0,39,1925467835,9,40.214054107666016,479.1948739089096,0.046485034160359484,4,525727.8670229418,3.4028234663852886E38,1.57542003E9,,,,0,,1,,1.57542003E9
Raw,1933988496,1989824000000,,,-1311853870175955380,0.0,10.95493810218646,,,0,25,0.0,16431,44659923734782,16,34.925025939941406,-690.0786762630814,0.08432394154983325,1,-1182603.1990382033,0.0016297252150252461,1.57542003E9,,,,0,,1,,1.57542003E9
Raw,1933988497,1989824000000,,,-1311853870175955380,0.0,10.95493810218646,,,0,31,0.0,16,1989018977973,1000000000,19.168994903564453,-819.0974746056149,2.99792458E8,2,-15.501249534389764,3.4028234663852886E38,1.57542003E9,,,,0,,1,,1.57542003E9
Raw,1933988497,1989824000000,,,-1311853870175955380,0.0,10.95493810218646,,,0,32,0.0,16431,44659927498023,13,36.633216857910156,-388.8265014895692,0.07006624981269077,4,-572334.385051892,3.4028234663852886E38,1.57542003E9,,,,0,,1,,1.57542003E9
Raw,1933988497,1989824000000,,,-1311853870175955380,0.0,10.95493810218646,,,0,10,0.0,32995,55441931340877,35,34.56401824951172,-740.0216084235208,0.08924214154120408,1,-1494365.8627651134,0.0016748171765357256,1.59806246E9,,,,0,,3,,1.59806246E9
Raw,1933988498,1989824000000,,,-1311853870175955380,0.0,10.95493810218646,,,0,9,0.0,32995,55441933737124,33,41.91429901123047,-42.807403500981366,0.039883193268319544,1,-412692.19886782346,7.560811354778707E-4,1.59862502E9,,,,0,,3,,1.59862502E9
Raw,1933988498,1989824000000,,,-1311853870175955380,0.0,10.95493810218646,,,0,16,0.0,32995,55441924202322,54,30.81389045715332,567.7665555501935,0.13504288052101598,1,527128.4876994392,0.002426506020128727,1.60143744E9,,,,0,,3,,1.60143744E9
Raw,1933988498,1989824000000,,,-1311853870175955380,0.0,10.95493810218646,,,0,23,0.0,32961,55441924480802,41,33.21831512451172,48.83901417458671,0.1026211782297668,4,-240.95148380725036,3.4028234663852886E38,1.60368755E9,,,,0,,3,,1.60368755E9
Raw,1933988499,1989824000000,,,-1311853870175955380,0.0,10.95493810218646,,,0,7,0.0,32961,55441933009230,33,44.744720458984375,-153.5582522450983,0.03234004501901125,1,-556342.5952702124,5.444781854748726E-4,1.60481254E9,,,,0,,3,,1.60481254E9
Raw,1933988500,1989824000000,,,-1311853870175955380,0.0,10.95493810218646,,,0,8,0.0,32961,55441928110351,33,37.06759262084961,-558.7632997526714,0.06682438496104495,1,-548894.3910789428,0.0012497006682679057,1.60537498E9,,,,0,,3,,1.60537498E9
Raw,1933988500,1989824000000,,,-1311853870175955380,0.0,10.95493810218646,,,0,193,0.0,35,9624012,9,39.619937896728516,-257.98546756781536,0.050453830546855344,1,-493075.8328759126,9.492243407294154E-4,1.57542003E9,,,,0,,4,,1.57542003E9
Raw,1933988500,1989824000000,,,-1311853870175955380,0.0,10.95493810218646,,,0,194,0.0,35,12492740,9,40.297149658203125,-98.700715060211,0.0473154154365962,1,-99143.66964513635,8.780276984907687E-4,1.57542003E9,,,,0,,4,,1.57542003E9
Raw,1933988501,1989824000000,,,-1311853870175955380,0.0,10.95493810218646,,,0,6,0.0,16431,44645878672606,6,36.78209686279297,-80.8156562989858,0.07090846758658464,1,-134256.09048556956,0.0013280885759741068,1.56109798E9,,,,0,,5,,1.56109798E9
Raw,1933988501,1989824000000,,,-1311853870175955380,0.0,10.95493810218646,,,0,14,0.0,16431,44645924262448,6,37.21534729003906,147.62834788206408,0.0650297264493096,4,192901.43604734886,3.4028234663852886E38,1.56109798E9,,,,0,,5,,1.56109798E9
Raw,1933988501,1989824000000,,,-1311853870175955380,0.0,10.95493810218646,,,0,16,0.0,16431,44645878028763,7,36.44546890258789,-78.60440356101412,0.07346199745479182,1,-132501.37092663633,0.001380569883622229,1.56109798E9,,,,0,,5,,1.56109798E9
Raw,1933988502,1989824000000,,,-1311853870175955380,0.0,10.95493810218646,,,0,24,0.0,16431,44645924118111,6,40.07658004760742,61.42889468121612,0.046968133843472176,4,-64835.36406895671,3.4028234663852886E38,1.56109798E9,,,,0,,5,,1.56109798E9
Raw,1933988502,1989824000000,,,-1311853870175955380,0.0,10.95493810218646,,,0,25,0.0,16431,44645923554522,7,35.659149169921875,-556.141949856589,0.07751186032875679,1,-891092.4535960712,0.0015113827539607882,1.56109798E9,,,,0,,5,,1.56109798E9
Raw,1933988502,1989824000000,,,-1311853870175955380,0.0,10.95493810218646,,,0,26,0.0,16431,44645914731529,6,37.93415069580078,444.76617371028397,0.06180885109878165,1,746630.1624311295,0.001163119450211525,1.56109798E9,,,,0,,5,,1.56109798E9
Raw,1933988502,1989824000000,,,-1311853870175955380,0.0,10.95493810218646,,,0,27,0.0,16431,44645913002462,166,23.93993377685547,144.5881927602294,0.2986388382487506,4,133211.2973587932,3.4028234663852886E38,1.56109798E9,,,,1,,5,,1.56109798E9
Raw,1933988502,1989824000000,,,-1311853870175955380,0.0,10.95493810218646,,,0,33,0.0,16431,44645926126171,6,43.26332092285156,-95.84270510664834,0.03313235604153557,4,-268141.5200839541,3.4028234663852886E38,1.56109798E9,,,,0,,5,,1.56109798E9
Fix,gps,34.486285,109.463904,358.326416,0.000000,3.000000,1627820642999
Raw,1933989523,1990824000000,,,-1311853870175955767,0.0,10.982211392536241,,,0,10,0.0,16431,44660931956484,7,42.14421081542969,-312.7656716588524,0.038585592769974475,1,-783982.1491848314,7.482278160750866E-4,1.57542003E9,,,,0,,1,,1.57542003E9
Raw,1933989524,1990824000000,,,-1311853870175955767,0.0,10.982211392536241,,,0,12,0.0,16431,44660924191548,9,40.218055725097656,-441.1694861558883,0.04623447485107851,1,-990440.2649536575,8.860594825819135E-4,1.57542003E9,,,,0,,1,,1.57542003E9
Raw,1933989524,1990824000000,,,-1311853870175955767,0.0,10.982211392536241,,,0,15,0.0,16431,44660915814508,17,34.575355529785156,415.36964596988173,0.08993308513062903,1,529279.2644727258,0.0016966724069789052,1.57542003E9,,,,0,,1,,1.57542003E9
Raw,1933989524,1990824000000,,,-1311853870175955767,0.0,10.982211392536241,,,0,18,0.0,16431,44660920440557,167,17.43612289428711,566.9271728109497,4.203676667415925,4,1083725.556151272,3.4028234663852886E38,1.57542003E9,,,,1,,1,,1.57542003E9
Raw,1933989525,1990824000000,,,-1311853870175955767,0.0,10.982211392536241,,,0,23,0.0,16431,44660931171115,6,42.60084915161133,149.86972951160192,0.03657833079012729,1,106862.68647563162,7.099077920429409E-4,1.57542003E9,,,,0,,1,,1.57542003E9
Raw,1933989526,1990824000000,,,-1311853870175955767,0.0,10.982211392536241,,,0,24,0.0,39,2925466217,6,43.35560989379883,479.2440208112155,0.03267511567342746,4,526207.1087972483,3.4028234663852886E38,1.57542003E9,,,,0,,1,,1.57542003E9
Raw,1933989527,1990824000000,,,-1311853870175955767,0.0,10.982211392536241,,,0,25,0.0,16431,44660923737066,20,33.18050765991211,-690.0610215506026,0.10293153993529519,1,-1183293.1147619598,0.0018782960250973701,1.57542003E9,,,,0,,1,,1.57542003E9
Raw,1933989527,1990824000000,,,-1311853870175955767,0.0,10.982211392536241,,,0,31,0.0,16,1990018980706,1000000000,25.303096771240234,-819.2830876638382,2.99792458E8,2,-15.549610466205424,3.4028234663852886E38,1.57542003E9,,,,0,,1,,1.57542003E9
Raw,1933989527,1990824000000,,,-1311853870175955767,0.0,10.982211392536241,,,0,32,0.0,16431,44660927499317,15,35.503501892089844,-388.64030902958507,0.07961137626257575,1,-572723.2215644764,0.0015247217379510403,1.57542003E9,,,,0,,1,,1.57542003E9
Raw,1933989528,1990824000000,,,-1311853870175955767,0.0,10.982211392536241,,,0,10,0.0,32995,55442931343383,33,38.49494934082031,-739.8865055658644,0.05750052404891054,4,-1493625.6321003472,3.4028234663852886E38,1.59806246E9,,,,0,,3,,1.59806246E9
Raw,1933989528,1990824000000,,,-1311853870175955767,0.0,10.982211392536241,,,0,9,0.0,32995,55442933737247,33,44.746646881103516,-42.57570244092517,0.03247100161602544,1,-412734.845667413,5.456963554024696E-4,1.59862502E9,,,,0,,3,,1.59862502E9
Raw,1933989528,1990824000000,,,-1311853870175955767,0.0,10.982211392536241,,,0,16,0.0,32995,55442924200408,68,28.746780395507812,568.0207765933972,0.17112410337227957,1,527696.4005036405,0.0030784830451011658,1.60143744E9,,,,0,,3,,1.60143744E9
Raw,1933989529,1990824000000,,,-1311853870175955767,0.0,10.982211392536241,,,0,23,0.0,32961,55442924480696,33,35.832767486572266,49.12950747214475,0.07615714924927297,1,-192.02793026379285,0.0014421283267438412,1.60368755E9,,,,0,,3,,1.60368755E9
Raw,1933989529,1990824000000,,,-1311853870175955767,0.0,10.982211392536241,,,0,7,0.0,32961,55442933009780,33,43.459449768066406,-153.27500999016547,0.03365539818361399,1,-556495.953704097,6.313120247796178E-4,1.60481254E9,,,,0,,3,,1.60481254E9
Raw,1933989529,1990824000000,,,-1311853870175955767,0.0,10.982211392536241,,,0,8,0.0,32961,55442928112181,36,34.374122619628906,-558.7196401258657,0.09058884790311589,1,-549453.1977606274,0.0017040387028828263,1.60537498E9,,,,0,,3,,1.60537498E9
Raw,1933989530,1990824000000,,,-1311853870175955767,0.0,10.982211392536241,,,0,193,0.0,35,9624873,14,36.426517486572266,-257.8749892849967,0.07210370838304608,1,-493333.7289348849,0.0013710075290873647,1.57542003E9,,,,0,,4,,1.57542003E9
Raw,1933989530,1990824000000,,,-1311853870175955767,0.0,10.982211392536241,,,0,194,0.0,35,12493086,12,37.625362396240234,-98.73959462248939,0.06354717703467241,1,-99242.26568245223,0.001194256474263966,1.57542003E9,,,,0,,4,,1.57542003E9
Raw,1933989530,1990824000000,,,-1311853870175955767,0.0,10.982211392536241,,,0,6,0.0,16431,44646878672851,10,32.681087493896484,-80.49754769103015,0.11167017860843204,4,-134336.83461530405,3.4028234663852886E38,1.56109798E9,,,,0,,5,,1.56109798E9
Raw,1933989531,1990824000000,,,-1311853870175955767,0.0,10.982211392536241,,,0,14,0.0,16431,44646924261941,7,36.040252685546875,147.94654169616103,0.07433914641825667,1,193049.4285218911,0.0014465026324614882,1.56109798E9,,,,0,,5,,1.56109798E9
Raw,1933989531,1990824000000,,,-1311853870175955767,0.0,10.982211392536241,,,0,16,0.0,16431,44646878029028,9,34.272457122802734,-78.4143768246712,0.09342199370613569,1,-132579.8749468266,0.001773001393303275,1.56109798E9,,,,0,,5,,1.56109798E9
Raw,1933989531,1990824000000,,,-1311853870175955767,0.0,10.982211392536241,,,0,24,0.0,16431,44646924117911,6,42.880340576171875,61.554509835038004,0.034215008654746026,4,-64773.85970680718,3.4028234663852886E38,1.56109798E9,,,,0,,5,,1.56109798E9
Raw,1933989532,1990824000000,,,-1311853870175955767,0.0,10.982211392536241,,,0,25,0.0,16431,44646923556360,7,35.89464569091797,-556.0460418239338,0.07545596261688425,1,-891648.5575160705,0.001470955670811236,1.56109798E9,,,,0,,5,,1.56109798E9
Raw,1933989533,1990824000000,,,-1311853870175955767,0.0,10.982211392536241,,,0,26,0.0,16431,44646914730042,6,38.07615661621094,444.9286788629847,0.06084927101824081,1,747075.032285843,0.0011442581890150905,1.56109798E9,,,,0,,5,,1.56109798E9
Raw,1933989533,1990824000000,,,-1311853870175955767,0.0,10.982211392536241,,,0,27,0.0,16431,44646913001969,24,25.83091163635254,144.9110899533265,0.2406710034476971,4,133356.14950856476,3.4028234663852886E38,1.56109798E9,,,,0,,5,,1.56109798E9
Raw,1933989533,1990824000000,,,-1311853870175955767,0.0,10.982211392536241,,,0,33,0.0,16431,44646926126490,6,37.97215270996094,-95.57417795231925,0.06000274301180816,1,-268237.16454373475,0.0011580418795347214,1.56109798E9,,,,0,,5,,1.56109798E9
Fix,gps,34.486285,109.463904,358.431213,0.000000,3.000000,1627820643999
Raw,1933990552,1991824000000,,,-1311853870175956155,0.0,11.00306439732605,,,0,10,0.0,16431,44661931957527,7,41.43589782714844,-312.7725903975265,0.04168146305596576,1,-784294.9274592827,8.118008263409138E-4,1.57542003E9,,,,0,,1,,1.57542003E9
Raw,1933990553,1991824000000,,,-1311853870175956155,0.0,11.00306439732605,,,0,12,0.0,16431,44661924193037,9,39.91167068481445,-441.05449194758035,0.047867657739942365,1,-990881.4035817178,9.178721811622381E-4,1.57542003E9,,,,0,,1,,1.57542003E9
Raw,1933990553,1991824000000,,,-1311853870175956155,0.0,11.00306439732605,,,0,15,0.0,16431,44661915813084,20,33.17933654785156,415.34813993981584,0.10511749350543226,1,529694.6653556164,0.001992502948269248,1.57542003E9,,,,0,,1,,1.57542003E9
Raw,1933990553,1991824000000,,,-1311853870175956155,0.0,11.00306439732605,,,0,18,0.0,16,1991020438699,1000000000,17.341270446777344,566.6104445424833,2.99792458E8,2,1048587.316734469,3.4028234663852886E38,1.57542003E9,,,,0,,1,,1.57542003E9
Raw,1933990554,1991824000000,,,-1311853870175956155,0.0,11.00306439732605,,,0,21,0.0,17,997860,27,31.327852249145508,-495.50568104457443,5.806481669735835,6,-265.0958992867986,3.4028234663852886E38,1.57542003E9,,,,0,,1,,1.57542003E9
Raw,1933990554,1991824000000,,,-1311853870175956155,0.0,11.00306439732605,,,0,23,0.0,16431,44661931170600,6,43.25946044921875,149.96159877315915,0.03405394699725832,1,107012.61093004145,6.580691551789641E-4,1.57542003E9,,,,0,,1,,1.57542003E9
Raw,1933990554,1991824000000,,,-1311853870175956155,0.0,11.00306439732605,,,0,24,0.0,39,3925464630,6,44.02349090576172,479.272411497499,0.030982956238855705,4,526686.3710294678,3.4028234663852886E38,1.57542003E9,,,,0,,1,,1.57542003E9
Raw,1933990555,1991824000000,,,-1311853870175956155,0.0,11.00306439732605,,,0,25,0.0,16431,44661923739406,19,33.6043815612793,-689.8824294784231,0.0980615013839522,1,-1183983.0241988513,0.001897346694022417,1.57542003E9,,,,0,,1,,1.57542003E9
Raw,1933990555,1991824000000,,,-1311853870175956155,0.0,11.00306439732605,,,0,31,0.0,16,18983291,1000000000,20.37375259399414,-819.5809683338475,2.99792458E8,4,-670.9364520858536,3.4028234663852886E38,1.57542003E9,,,,0,,1,,1.57542003E9
Raw,1933990555,1991824000000,,,-1311853870175956155,0.0,11.00306439732605,,,0,32,0.0,16431,44661927500618,15,35.552974700927734,-388.6826735230429,0.07916712275824156,4,-573112.0553340818,3.4028234663852886E38,1.57542003E9,,,,0,,1,,1.57542003E9
Raw,1933990555,1991824000000,,,-1311853870175956155,0.0,11.00306439732605,,,0,10,0.0,32995,55443931345837,33,39.164581298828125,-739.7957099016876,0.053385986884583375,4,-1492886.0601127786,3.4028234663852886E38,1.59806246E9,,,,0,,3,,1.59806246E9
Raw,1933990556,1991824000000,,,-1311853870175956155,0.0,11.00306439732605,,,0,9,0.0,32995,55443933737392,33,44.504493713378906,-42.49101605708012,0.03247102657876215,1,-412777.36788062565,5.61123772058636E-4,1.59862502E9,,,,0,,3,,1.59862502E9
Raw,1933990556,1991824000000,,,-1311853870175956155,0.0,11.00306439732605,,,0,16,0.0,32995,55443924198484,69,28.634313583374023,568.0525755253329,0.17334405618981708,1,528264.3621077685,0.0031186030246317387,1.60143744E9,,,,0,,3,,1.60143744E9
Raw,1933990556,1991824000000,,,-1311853870175956155,0.0,11.00306439732605,,,0,23,0.0,32961,55443924480473,35,34.430419921875,49.51524419445579,0.08935979091932322,1,-142.92262871828135,0.0016948109259828925,1.60368755E9,,,,0,,3,,1.60368755E9
Raw,1933990557,1991824000000,,,-1311853870175956155,0.0,11.00306439732605,,,0,7,0.0,32961,55443933010276,33,44.38276672363281,-153.26703469533913,0.03234023223953658,1,-556649.2950186934,5.676466971635818E-4,1.60481254E9,,,,0,,3,,1.60481254E9
Raw,1933990557,1991824000000,,,-1311853870175956155,0.0,11.00306439732605,,,0,8,0.0,32961,55443928114077,39,33.51298141479492,-558.762618103541,0.09987859723553466,1,-550011.9993219693,0.0017740273615345359,1.60537498E9,,,,0,,3,,1.60537498E9
Raw,1933990558,1991824000000,,,-1311853870175956155,0.0,11.00306439732605,,,0,193,0.0,35,9625742,15,35.93062210083008,-257.98004845722824,0.07623845288274084,1,-493591.6866741444,0.0014515588991343975,1.57542003E9,,,,0,,4,,1.57542003E9
Raw,1933990558,1991824000000,,,-1311853870175956155,0.0,11.00306439732605,,,0,194,0.0,35,12493400,13,37.102806091308594,-98.57865726278868,0.06734831120004856,1,-99340.90226289311,0.001268309890292585,1.57542003E9,,,,0,,4,,1.57542003E9
Raw,1933990558,1991824000000,,,-1311853870175956155,0.0,11.00306439732605,,,0,6,0.0,16431,44647878673152,12,31.194726943969727,-80.73827208145076,0.1318851442525425,4,-134417.6107420057,3.4028234663852886E38,1.56109798E9,,,,0,,5,,1.56109798E9
Raw,1933990558,1991824000000,,,-1311853870175956155,0.0,11.00306439732605,,,0,14,0.0,16431,44647924261461,6,36.8299446105957,148.0214378943699,0.06794517855572182,1,193197.4223741803,0.0013207929441705346,1.56109798E9,,,,0,,5,,1.56109798E9
Raw,1933990559,1991824000000,,,-1311853870175956155,0.0,11.00306439732605,,,0,16,0.0,16431,44647878029287,8,35.40082550048828,-78.58033282609489,0.08243607633967498,1,-132658.4213712292,0.0015570074319839478,1.56109798E9,,,,0,,5,,1.56109798E9
Raw,1933990559,1991824000000,,,-1311853870175956155,0.0,11.00306439732605,,,0,24,0.0,16431,44647924117703,6,44.241336822509766,61.62700748036909,0.03074067831747862,4,-64712.29497562415,3.4028234663852886E38,1.56109798E9,,,,0,,5,,1.56109798E9
Raw,1933990559,1991824000000,,,-1311853870175956155,0.0,11.00306439732605,,,0,25,0.0,16431,44647923558238,7,35.67296600341797,-556.0356466746944,0.07739035004735967,1,-892204.5844052486,0.0015089806402102113,1.56109798E9,,,,0,,5,,1.56109798E9
Raw,1933990560,1991824000000,,,-1311853870175956155,0.0,11.00306439732605,,,0,26,0.0,16431,44647914728542,6,39.36891555786133,444.8612637639826,0.052800660634182844,1,747519.8989275274,9.86020895652473E-4,1.56109798E9,,,,0,,5,,1.56109798E9
Raw,1933990560,1991824000000,,,-1311853870175956155,0.0,11.00306439732605,,,0,27,0.0,16431,44647913001490,23,26.037818908691406,145.45104127078912,0.23506066165553918,4,133501.26911385675,3.4028234663852886E38,1.56109798E9,,,,0,,5,,1.56109798E9
Raw,1933990560,1991824000000,,,-1311853870175956155,0.0,11.00306439732605,,,0,33,0.0,16431,44647926126816,6,38.58112335205078,-95.57531971461276,0.0560146795530275,1,-268332.79246606585,0.001079631969332695,1.56109798E9,,,,0,,5,,1.56109798E9
Fix,gps,34.486285,109.463904,358.280762,0.000000,3.000000,1627820644999
Raw,1933991504,1992824000000,,,-1311853870175956541,0.0,11.015080264355117,,,0,10,0.0,16431,44662931958550,9,39.52149963378906,-312.68687301937166,0.05142907890513848,1,-784607.5129042658,9.60043165832758E-4,1.57542003E9,,,,0,,1,,1.57542003E9
Raw,1933991504,1992824000000,,,-1311853870175956541,0.0,11.015080264355117,,,0,12,0.0,16431,44662924194491,11,38.192626953125,-441.7975917471472,0.058178977949067734,1,-991322.6443309442,0.0011187533382326365,1.57542003E9,,,,0,,1,,1.57542003E9
Raw,1933991504,1992824000000,,,-1311853870175956541,0.0,11.015080264355117,,,0,15,0.0,16431,44662915811700,15,35.62581253051758,414.5457025834428,0.08001223620959391,1,530109.7812850846,0.001503401785157621,1.57542003E9,,,,0,,1,,1.57542003E9
Raw,1933991504,1992824000000,,,-1311853870175956541,0.0,11.015080264355117,,,0,18,0.0,16,1992020436809,1000000000,9.339618682861328,566.6104445424833,2.99792458E8,2,1048587.330027382,3.4028234663852886E38,1.57542003E9,,,,0,,1,,1.57542003E9
Raw,1933991504,1992824000000,,,-1311853870175956541,0.0,11.015080264355117,,,0,23,0.0,16431,44662931170123,7,41.54448318481445,149.5132781400581,0.04104872840809484,1,107162.55991024128,8.0171535955742E-4,1.57542003E9,,,,0,,1,,1.57542003E9
Raw,1933991505,1992824000000,,,-1311853870175956541,0.0,11.015080264355117,,,0,24,0.0,39,4925463035,6,43.63475036621094,478.8035732255712,0.03167223980628937,4,527165.5070381676,3.4028234663852886E38,1.57542003E9,,,,0,,1,,1.57542003E9
Raw,1933991505,1992824000000,,,-1311853870175956541,0.0,11.015080264355117,,,0,25,0.0,16431,44662923741688,16,35.01475524902344,-690.430611709136,0.08346545639251601,1,-1184673.0129653397,0.001612975960597396,1.57542003E9,,,,0,,1,,1.57542003E9
Raw,1933991505,1992824000000,,,-1311853870175956541,0.0,11.015080264355117,,,0,31,0.0,16,18986030,1000000000,19.841064453125,-819.3532293593621,2.99792458E8,4,-15.51310876406194,3.4028234663852886E38,1.57542003E9,,,,0,,1,,1.57542003E9
Raw,1933991506,1992824000000,,,-1311853870175956541,0.0,11.015080264355117,,,0,32,0.0,16431,44662927501913,12,37.4322624206543,-388.5575909076042,0.06402742264488781,4,-573500.6706646347,3.4028234663852886E38,1.57542003E9,,,,0,,1,,1.57542003E9
Raw,1933991506,1992824000000,,,-1311853870175956541,0.0,11.015080264355117,,,0,10,0.0,32995,55444931348342,33,37.42429733276367,-739.972597851041,0.06477680816140943,4,-1492146.3988151238,3.4028234663852886E38,1.59806246E9,,,,0,,3,,1.59806246E9
Raw,1933991506,1992824000000,,,-1311853870175956541,0.0,11.015080264355117,,,0,9,0.0,32995,55444933737526,33,41.88076400756836,-42.860346336882486,0.04002798546215583,1,-412819.7943995836,7.590058958157897E-4,1.59862502E9,,,,0,,3,,1.59862502E9
Raw,1933991506,1992824000000,,,-1311853870175956541,0.0,11.015080264355117,,,0,16,0.0,32995,55444924196500,78,27.58481788635254,568.160207923032,0.19550936877407354,1,528832.3452343502,0.003519127145409584,1.60143744E9,,,,0,,3,,1.60143744E9
Raw,1933991506,1992824000000,,,-1311853870175956541,0.0,11.015080264355117,,,0,23,0.0,32961,55444924480289,34,34.75014877319336,49.8224762384736,0.0861593101246882,4,-92.49171433079614,3.4028234663852886E38,1.60368755E9,,,,0,,3,,1.60368755E9
Raw,1933991506,1992824000000,,,-1311853870175956541,0.0,11.015080264355117,,,0,7,0.0,32961,55444933010777,33,46.69252014160156,-153.58374592257735,0.03234032376957119,1,-556802.6694744575,4.3510147952474654E-4,1.60481254E9,,,,0,,3,,1.60481254E9
Raw,1933991507,1992824000000,,,-1311853870175956541,0.0,11.015080264355117,,,0,8,0.0,32961,55444928115910,38,33.7919807434082,-558.335428593484,0.09676784915846359,1,-550570.6098609042,0.0018221602076664567,1.60537498E9,,,,0,,3,,1.60537498E9
Raw,1933991507,1992824000000,,,-1311853870175956541,0.0,11.015080264355117,,,0,193,0.0,35,9626585,9,39.85955810546875,-258.47831693036346,0.049128550533953846,1,-493849.75266839116,9.733445476740599E-4,1.57542003E9,,,,0,,4,,1.57542003E9
Raw,1933991507,1992824000000,,,-1311853870175956541,0.0,11.015080264355117,,,0,194,0.0,35,12493742,16,35.27711486816406,-98.40644713059305,0.08257636691999104,1,-99439.47924257416,0.0015649845590814948,1.57542003E9,,,,0,,4,,1.57542003E9
Raw,1933991507,1992824000000,,,-1311853870175956541,0.0,11.015080264355117,,,0,6,0.0,16431,44648878673423,8,34.549373626708984,-80.73153227567337,0.09070826131462928,4,-134498.3572453774,3.4028234663852886E38,1.56109798E9,,,,0,,5,,1.56109798E9
Raw,1933991507,1992824000000,,,-1311853870175956541,0.0,11.015080264355117,,,0,14,0.0,16431,44648924260959,6,38.5076904296875,147.4514088090259,0.05614527211013132,1,193345.27051159518,0.0010887981625273824,1.56109798E9,,,,0,,5,,1.56109798E9
Raw,1933991507,1992824000000,,,-1311853870175956541,0.0,11.015080264355117,,,0,16,0.0,16431,44648878029536,7,36.188209533691406,-78.5143406696526,0.07557297960567338,1,-132736.9162049325,0.001422071480192244,1.56109798E9,,,,0,,5,,1.56109798E9
Raw,1933991507,1992824000000,,,-1311853870175956541,0.0,11.015080264355117,,,0,24,0.0,16431,44648924117493,6,44.35026168823242,61.21213451803811,0.030740640873373554,4,-64650.77736573397,3.4028234663852886E38,1.56109798E9,,,,0,,5,,1.56109798E9
Raw,1933991508,1992824000000,,,-1311853870175956541,0.0,11.015080264355117,,,0,25,0.0,16431,44648923560099,8,34.717498779296875,-556.2354380348311,0.08631524402000984,1,-892760.5038953291,0.0016844456549733877,1.56109798E9,,,,0,,5,,1.56109798E9
Raw,1933991508,1992824000000,,,-1311853870175956541,0.0,11.015080264355117,,,0,26,0.0,16431,44648914727061,6,39.800376892089844,444.3977423552724,0.0503700597629092,1,747964.6326910765,9.382380521856248E-4,1.56109798E9,,,,0,,5,,1.56109798E9
Raw,1933991508,1992824000000,,,-1311853870175956541,0.0,11.015080264355117,,,0,27,0.0,16431,44648913001016,19,27.769506454467773,146.02354133423103,0.1929957043963939,4,133646.9938012499,3.4028234663852886E38,1.56109798E9,,,,0,,5,,1.56109798E9
Raw,1933991508,1992824000000,,,-1311853870175956541,0.0,11.015080264355117,,,0,33,0.0,16431,44648926127119,6,42.16437530517578,-95.84942787119746,0.037452559113396955,1,-268428.41996916814,7.533416501246393E-4,1.56109798E9,,,,0,,5,,1.56109798E9
Fix,gps,34.486285,109.463904,357.979736,0.000000,3.000000,1627820645999
Raw,1933992536,1993824000000,,,-1311853870175956929,0.0,11.402691187069895,,,0,10,0.0,16431,44663931959610,13,36.743873596191406,-312.18644031024724,0.0699988587444832,4,-784920.105799037,3.4028234663852886E38,1.57542003E9,,,,0,,1,,1.57542003E9
Raw,1933992537,1993824000000,,,-1311853870175956929,0.0,11.402691187069895,,,0,12,0.0,16431,44663924195948,15,35.447303771972656,-441.2326750302816,0.07952515496997581,4,-991764.0983040795,3.4028234663852886E38,1.57542003E9,,,,0,,1,,1.57542003E9
Raw,1933992537,1993824000000,,,-1311853870175956929,0.0,11.402691187069895,,,0,15,0.0,16431,44663915810329,19,33.58427429199219,414.9302890228462,0.10045847328841995,1,530524.6277546125,0.0019017435843124986,1.57542003E9,,,,0,,1,,1.57542003E9
Raw,1933992538,1993824000000,,,-1311853870175956929,0.0,11.402691187069895,,,0,18,0.0,16,1993020434919,1000000000,28.612693786621094,566.796091683163,2.99792458E8,2,1048587.3293076232,3.4028234663852886E38,1.57542003E9,,,,0,,1,,1.57542003E9
Raw,1933992538,1993824000000,,,-1311853870175956929,0.0,11.402691187069895,,,0,23,0.0,16431,44663931169607,9,40.088687896728516,149.98864320241,0.04817214072097531,1,107312.47081314687,8.993555093184114E-4,1.57542003E9,,,,0,,1,,1.57542003E9
Raw,1933992538,1993824000000,,,-1311853870175956929,0.0,11.402691187069895,,,0,24,0.0,39,5925461446,6,43.87297821044922,479.07187032331876,0.03098238209591135,4,527644.4943349487,3.4028234663852886E38,1.57542003E9,,,,0,,1,,1.57542003E9
Raw,1933992539,1993824000000,,,-1311853870175956929,0.0,11.402691187069895,,,0,25,0.0,16431,44663923743974,18,34.20449447631836,-690.0345053994279,0.09156084694517047,1,-1185363.1053868544,0.0017706837970763445,1.57542003E9,,,,0,,1,,1.57542003E9
Raw,1933992539,1993824000000,,,-1311853870175956929,0.0,11.402691187069895,,,0,31,0.0,51,18988739,77,19.558990478515625,-819.1331930200508,4.203415723608172,4,-834.1228661507488,3.4028234663852886E38,1.57542003E9,,,,0,,1,,1.57542003E9
Raw,1933992539,1993824000000,,,-1311853870175956929,0.0,11.402691187069895,,,0,32,0.0,16431,44663927503182,12,37.25975799560547,-388.67585703173836,0.06528489138351376,4,-573889.1200195622,3.4028234663852886E38,1.57542003E9,,,,0,,1,,1.57542003E9
Raw,1933992540,1993824000000,,,-1311853870175956929,0.0,11.402691187069895,,,0,10,0.0,32995,55445931350776,33,37.91996765136719,-739.5595184779845,0.06129742286995804,4,-1491407.02029769,3.4028234663852886E38,1.59806246E9,,,,0,,3,,1.59806246E9
Raw,1933992540,1993824000000,,,-1311853870175956929,0.0,11.402691187069895,,,0,9,0.0,32995,55445933737682,33,39.359683990478516,-42.31719126850672,0.052675751260136905,1,-412862.3047242307,9.625437087379396E-4,1.59862502E9,,,,0,,3,,1.59862502E9
Raw,1933992540,1993824000000,,,-1311853870175956929,0.0,11.402691187069895,,,0,16,0.0,32995,55445924194730,81,27.32818031311035,567.9739132156783,0.2013492013257283,4,529400.1474380025,3.4028234663852886E38,1.60143744E9,,,,0,,3,,1.60143744E9
Raw,1933992540,1993824000000,,,-1311853870175956929,0.0,11.402691187069895,,,0,23,0.0,32961,55445924480118,38,33.747406005859375,49.970219427192916,0.09660423506114718,4,-42.66240278189053,3.4028234663852886E38,1.60368755E9,,,,0,,3,,1.60368755E9
Raw,1933992543,1993824000000,,,-1311853870175956929,0.0,11.402691187069895,,,0,7,0.0,32961,55445933011308,33,46.944488525390625,-153.4516082386384,0.032340419460061914,1,-556956.1043962813,4.22660872573033E-4,1.60481254E9,,,,0,,3,,1.60481254E9
Raw,1933992543,1993824000000,,,-1311853870175956929,0.0,11.402691187069895,,,0,8,0.0,32961,55445928117760,37,33.95002365112305,-558.5824582383614,0.0950497055952037,1,-551129.1631946382,0.0017893051262944937,1.60537498E9,,,,0,,3,,1.60537498E9
Raw,1933992544,1993824000000,,,-1311853870175956929,0.0,11.402691187069895,,,0,193,0.0,35,9627465,11,38.22563552856445,-258.27101038856347,0.058938398485747195,1,-494108.0400411222,0.0011145098833367229,1.57542003E9,,,,0,,4,,1.57542003E9
Raw,1933992544,1993824000000,,,-1311853870175956929,0.0,11.402691187069895,,,0,194,0.0,35,12494079,18,34.235557556152344,-98.80871384431765,0.09281031512668053,4,-99538.33258735568,3.4028234663852886E38,1.57542003E9,,,,0,,4,,1.57542003E9
Raw,1933992544,1993824000000,,,-1311853870175956929,0.0,11.402691187069895,,,0,6,0.0,16431,44649878673695,9,34.1568717956543,-80.83677890141581,0.0947460172612894,4,-134579.1441099813,3.4028234663852886E38,1.56109798E9,,,,0,,5,,1.56109798E9
Raw,1933992545,1993824000000,,,-1311853870175956929,0.0,11.402691187069895,,,0,14,0.0,16431,44649924260468,6,39.0887565612793,147.79605060938457,0.052561688195191913,1,193492.9782582016,0.0010183429112657905,1.56109798E9,,,,0,,5,,1.56109798E9
Raw,1933992545,1993824000000,,,-1311853870175956929,0.0,11.402691187069895,,,0,16,0.0,16431,44649878029800,7,36.06357192993164,-78.67457081838046,0.07661840237730738,1,-132815.41890782752,0.0014426246052607894,1.56109798E9,,,,0,,5,,1.56109798E9
Raw,1933992545,1993824000000,,,-1311853870175956929,0.0,11.402691187069895,,,0,24,0.0,16431,44649924117287,6,45.72884750366211,61.4968678804438,0.030740603429268487,4,-64589.324488511586,3.4028234663852886E38,1.56109798E9,,,,0,,5,,1.56109798E9
Raw,1933992546,1993824000000,,,-1311853870175956929,0.0,11.402691187069895,,,0,25,0.0,16431,44649923561945,9,33.62249755859375,-555.7724960278817,0.09782666027788695,1,-893316.3420865395,0.0018014851957559586,1.56109798E9,,,,0,,5,,1.56109798E9
Raw,1933992546,1993824000000,,,-1311853870175956929,0.0,11.402691187069895,,,0,26,0.0,16431,44649914725569,6,42.38306427001953,444.5225523110589,0.03809542863237256,1,748409.1715099423,7.346109487116337E-4,1.56109798E9,,,,0,,5,,1.56109798E9
Raw,1933992546,1993824000000,,,-1311853870175956929,0.0,11.402691187069895,,,0,27,0.0,16431,44649913000534,19,27.73061752319336,145.86417176753037,0.19385112745800792,4,133792.84058189855,3.4028234663852886E38,1.56109798E9,,,,0,,5,,1.56109798E9
Raw,1933992547,1993824000000,,,-1311853870175956929,0.0,11.402691187069895,,,0,33,0.0,16431,44649926127437,6,42.60443115234375,-95.63553489467444,0.035656856327175857,1,-268524.0916873446,7.161253015510738E-4,1.56109798E9,,,,0,,5,,1.56109798E9
Fix,gps,34.486283,109.463910,357.936676,0.424619,3.000000,1627820646999
Raw,1933993493,1994824000000,,,-1311853870175957317,0.0,11.709801606224977,,,0,10,0.0,16431,44664931960649,12,37.53849792480469,-312.6468602154139,0.06406750447913351,4,-785232.467920509,3.4028234663852886E38,1.57542003E9,,,,0,,1,,1.57542003E9
Raw,1933993494,1994824000000,,,-1311853870175957317,0.0,11.709801606224977,,,0,12,0.0,16431,44664924197425,20,33.178314208984375,-441.80679401040834,0.10304016944454941,4,-992205.407129899,3.4028234663852886E38,1.57542003E9,,,,0,,1,,1.57542003E9
Raw,1933993494,1994824000000,,,-1311853870175957317,0.0,11.709801606224977,,,0,15,0.0,16431,44664915808932,14,36.10667419433594,414.4524870648529,0.07585573252439937,1,530939.2389564943,0.0014224336482584476,1.57542003E9,,,,0,,1,,1.57542003E9
Raw,1933993494,1994824000000,,,-1311853870175957317,0.0,11.709801606224977,,,0,18,0.0,17,432837,46,26.09709358215332,566.8418985047297,0.23481461228069067,4,1049040.7298894974,3.4028234663852886E38,1.57542003E9,,,,0,,1,,1.57542003E9
Raw,1933993494,1994824000000,,,-1311853870175957317,0.0,11.709801606224977,,,0,23,0.0,16431,44664931169108,9,40.006797790527344,149.94389293699555,0.0486093131289958,1,107462.40536998339,9.07874433323741E-4,1.57542003E9,,,,0,,1,,1.57542003E9
Raw,1933993494,1994824000000,,,-1311853870175957317,0.0,11.709801606224977,,,0,24,0.0,39,925459837,6,44.233760833740234,478.71414085965534,0.030982092944211115,1,528123.4365917074,5.882425466552377E-4,1.57542003E9,,,,0,,1,,1.57542003E9
Raw,1933993494,1994824000000,,,-1311853870175957317,0.0,11.709801606224977,,,0,25,0.0,16431,44664923746283,14,36.20037841796875,-690.2432945280866,0.07290249931597498,1,-1186053.3385518112,0.0014071707846596837,1.57542003E9,,,,0,,1,,1.57542003E9
Raw,1933993495,1994824000000,,,-1311853870175957317,0.0,11.709801606224977,,,0,31,0.0,16,1994018991606,1000000000,25.413707733154297,-818.9117933824787,2.99792458E8,2,-15.542562646364672,3.4028234663852886E38,1.57542003E9,,,,0,,1,,1.57542003E9
Raw,1933993495,1994824000000,,,-1311853870175957317,0.0,11.709801606224977,,,0,32,0.0,16431,44664927504497,15,35.51934814453125,-388.06353161784955,0.0794696711271794,4,-574277.3396118837,3.4028234663852886E38,1.57542003E9,,,,0,,1,,1.57542003E9
Raw,1933993495,1994824000000,,,-1311853870175957317,0.0,11.709801606224977,,,0,10,0.0,32995,55446931353271,33,38.16521072387695,-739.4839235894169,0.059648188941388985,4,-1490667.2613154387,3.4028234663852886E38,1.59806246E9,,,,0,,3,,1.59806246E9
Raw,1933993495,1994824000000,,,-1311853870175957317,0.0,11.709801606224977,,,0,9,0.0,32995,55446933737829,33,38.51913070678711,-42.236858918482454,0.057777048764827116,4,-412904.6414000786,3.4028234663852886E38,1.59862502E9,,,,0,,3,,1.59862502E9
Raw,1933993495,1994824000000,,,-1311853870175957317,0.0,11.709801606224977,,,0,16,0.0,32995,55446924192821,55,30.683557510375977,567.5973361535578,0.13707136082706756,4,529968.100941317,3.4028234663852886E38,1.60143744E9,,,,0,,3,,1.60143744E9
Raw,1933993495,1994824000000,,,-1311853870175957317,0.0,11.709801606224977,,,0,23,0.0,32961,55446924479930,38,33.884464263916016,50.1246683392331,0.09510440727224984,4,7.441396826360297,3.4028234663852886E38,1.60368755E9,,,,0,,3,,1.60368755E9
Raw,1933993496,1994824000000,,,-1311853870175957317,0.0,11.709801606224977,,,0,7,0.0,32961,55446933011822,33,47.12726974487305,-153.52953777547782,0.03234051099009652,1,-557109.5075848603,4.1385958320461214E-4,1.60481254E9,,,,0,,3,,1.60481254E9
Raw,1933993496,1994824000000,,,-1311853870175957317,0.0,11.709801606224977,,,0,8,0.0,32961,55446928119602,35,34.45904541015625,-558.2493703907639,0.08972297377573218,1,-551687.4856026424,0.0016874592984095216,1.60537498E9,,,,0,,3,,1.60537498E9
Raw,1933993496,1994824000000,,,-1311853870175957317,0.0,11.709801606224977,,,0,193,0.0,35,9628317,8,40.76812744140625,-258.5395460635067,0.0444214812092289,1,-494366.4303119491,8.766739629209042E-4,1.57542003E9,,,,0,,4,,1.57542003E9
Raw,1933993496,1994824000000,,,-1311853870175957317,0.0,11.709801606224977,,,0,194,0.0,35,12494422,19,33.88246154785156,-99.43515791582104,0.09656778114463682,4,-99637.33685780772,3.4028234663852886E38,1.57542003E9,,,,0,,4,,1.57542003E9
Raw,1933993496,1994824000000,,,-1311853870175957317,0.0,11.709801606224977,,,0,6,0.0,16431,44650878673965,9,34.15647888183594,-80.79759259702871,0.09475018603832014,4,-134659.83236203084,3.4028234663852886E38,1.56109798E9,,,,0,,5,,1.56109798E9
Raw,1933993496,1994824000000,,,-1311853870175957317,0.0,11.709801606224977,,,0,14,0.0,16431,44650924259980,6,40.189002990722656,147.40171658741565,0.04639919146926633,1,193640.56216484643,8.97184363566339E-4,1.56109798E9,,,,0,,5,,1.56109798E9
Raw,1933993497,1994824000000,,,-1311853870175957317,0.0,11.709801606224977,,,0,16,0.0,16431,44650878030062,7,35.83803939819336,-78.49106235184752,0.07854862935166429,1,-132893.82731915236,0.00148057343903929,1.56109798E9,,,,0,,5,,1.56109798E9
Raw,1933993497,1994824000000,,,-1311853870175957317,0.0,11.709801606224977,,,0,24,0.0,16431,44650924117085,6,45.062255859375,61.33820126440892,0.03074056806539148,1,-64527.878591300214,5.396321648731828E-4,1.56109798E9,,,,0,,5,,1.56109798E9
Raw,1933993497,1994824000000,,,-1311853870175957317,0.0,11.709801606224977,,,0,25,0.0,16431,44650923563799,11,32.233768463134766,-555.7671450822077,0.11467649923692858,1,-893872.1631918113,0.0022420408204197884,1.56109798E9,,,,0,,5,,1.56109798E9
Raw,1933993500,1994824000000,,,-1311853870175957317,0.0,11.709801606224977,,,0,26,0.0,16431,44650914724095,6,42.66413879394531,444.30462908405207,0.03696648054370341,1,748853.6982218174,7.112197345122695E-4,1.56109798E9,,,,0,,5,,1.56109798E9
Raw,1933993500,1994824000000,,,-1311853870175957317,0.0,11.709801606224977,,,0,27,0.0,16431,44650913000039,23,25.987693786621094,146.1975152335517,0.23640728480832862,4,133939.07651509877,3.4028234663852886E38,1.56109798E9,,,,0,,5,,1.56109798E9
Raw,1933993500,1994824000000,,,-1311853870175957317,0.0,11.709801606224977,,,0,33,0.0,16431,44650926127769,6,42.961021423339844,-95.72742971807406,0.03426703099805184,1,-268619.76464793284,6.873210077174008E-4,1.56109798E9,,,,0,,5,,1.56109798E9
Fix,gps,34.486285,109.463913,357.801270,0.657092,4.000000,1627820647999
Raw,1933994504,1995824000000,,,-1311853870175957707,0.0,11.931679613102192,,,0,10,0.0,16431,44665931961673,10,39.429962158203125,-312.4271306182113,0.051951719563201465,4,-785544.8434312359,3.4028234663852886E38,1.57542003E9,,,,0,,1,,1.57542003E9
Raw,1933994504,1995824000000,,,-1311853870175957707,0.0,11.931679613102192,,,0,12,0.0,16431,44665924198905,19,33.644412994384766,-442.10818517343955,0.09769632150860635,4,-992647.3427844514,3.4028234663852886E38,1.57542003E9,,,,0,,1,,1.57542003E9
Raw,1933994504,1995824000000,,,-1311853870175957707,0.0,11.931679613102192,,,0,15,0.0,16431,44665915807567,14,36.560550689697266,414.5962127840096,0.07213822352700522,1,531353.6329824202,0.0013500138884410262,1.57542003E9,,,,0,,1,,1.57542003E9
Raw,1933994505,1995824000000,,,-1311853870175957707,0.0,11.931679613102192,,,0,18,0.0,5,1920430940,47,25.940807342529297,566.649673449941,0.239010815038168,4,1049607.460599156,3.4028234663852886E38,1.57542003E9,,,,0,,1,,1.57542003E9
Raw,1933994505,1995824000000,,,-1311853870175957707,0.0,11.931679613102192,,,0,23,0.0,16431,44665931168613,7,42.14823913574219,150.10924397481597,0.03842697954091251,1,107612.33426034839,7.478811894543469E-4,1.57542003E9,,,,0,,1,,1.57542003E9
Raw,1933994505,1995824000000,,,-1311853870175957707,0.0,11.931679613102192,,,0,24,0.0,16431,44665925458231,6,43.52194595336914,478.9611705045327,0.032072546412643774,1,528602.2719696835,6.384797161445022E-4,1.57542003E9,,,,0,,1,,1.57542003E9
Raw,1933994505,1995824000000,,,-1311853870175957707,0.0,11.931679613102192,,,0,25,0.0,16431,44665923748555,12,37.569149017333984,-690.1167804494739,0.06237224342452541,1,-1186743.6481733634,0.0012020105496048927,1.57542003E9,,,,0,,1,,1.57542003E9
Raw,1933994505,1995824000000,,,-1311853870175957707,0.0,11.931679613102192,,,0,31,0.0,16,1995018994338,1000000000,21.787071228027344,-819.0974746056149,2.99792458E8,2,-15.539682260465815,3.4028234663852886E38,1.57542003E9,,,,0,,1,,1.57542003E9
Raw,1933994505,1995824000000,,,-1311853870175957707,0.0,11.931679613102192,,,0,32,0.0,16431,44665927505780,15,35.5609130859375,-387.8705226665609,0.07909691922169787,4,-574665.4430487753,3.4028234663852886E38,1.57542003E9,,,,0,,1,,1.57542003E9
Raw,1933994506,1995824000000,,,-1311853870175957707,0.0,11.931679613102192,,,0,10,0.0,32995,55447931355776,33,37.60359191894531,-739.475062150721,0.06349643195139498,1,-1489927.787655238,0.001180289895273745,1.59806246E9,,,,0,,3,,1.59806246E9
Raw,1933994506,1995824000000,,,-1311853870175957707,0.0,11.931679613102192,,,0,9,0.0,32995,55447933737957,33,40.633453369140625,-42.27772804416037,0.04582776946321385,4,-412947.05044495355,3.4028234663852886E38,1.59862502E9,,,,0,,3,,1.59862502E9
Raw,1933994506,1995824000000,,,-1311853870175957707,0.0,11.931679613102192,,,0,16,0.0,32995,55447924190989,37,34.0250358581543,568.0149825757883,0.09353862793296192,4,530535.9229862867,3.4028234663852886E38,1.60143744E9,,,,0,,3,,1.60143744E9
Raw,1933994506,1995824000000,,,-1311853870175957707,0.0,11.931679613102192,,,0,23,0.0,32961,55447924479786,37,34.08357238769531,50.64335646413255,0.09296736402424194,4,57.922143425934784,3.4028234663852886E38,1.60368755E9,,,,0,,3,,1.60368755E9
Raw,1933994506,1995824000000,,,-1311853870175957707,0.0,11.931679613102192,,,0,7,0.0,32961,55447933012321,33,46.912559509277344,-153.38175624399491,0.03234060043990307,1,-557262.9451229571,4.2421740363352E-4,1.60481254E9,,,,0,,3,,1.60481254E9
Raw,1933994506,1995824000000,,,-1311853870175957707,0.0,11.931679613102192,,,0,8,0.0,32961,55447928121491,41,33.06721115112305,-558.4891063899454,0.1050628084702106,1,-552245.7617942954,0.001980728702619672,1.60537498E9,,,,0,,3,,1.60537498E9
Raw,1933994507,1995824000000,,,-1311853870175957707,0.0,11.931679613102192,,,0,193,0.0,35,9629173,10,39.32862091064453,-258.41071437785047,0.052116594278721784,1,-494624.98265579215,9.816003730520606E-4,1.57542003E9,,,,0,,4,,1.57542003E9
Raw,1933994507,1995824000000,,,-1311853870175957707,0.0,11.931679613102192,,,0,194,0.0,35,12494747,14,36.08674621582031,-99.08453464434263,0.07542725546966655,4,-99736.58874094894,3.4028234663852886E38,1.57542003E9,,,,0,,4,,1.57542003E9
Raw,1933994507,1995824000000,,,-1311853870175957707,0.0,11.931679613102192,,,0,6,0.0,16431,44651878674233,10,33.27969741821289,-80.90114362055914,0.10445723744033741,1,-134740.59987477376,0.0019876824226230383,1.56109798E9,,,,0,,5,,1.56109798E9
Raw,1933994507,1995824000000,,,-1311853870175957707,0.0,11.931679613102192,,,0,14,0.0,16431,44651924259485,6,40.21186828613281,147.68800922220726,0.0462791415079668,1,193788.05831790128,8.948256727308035E-4,1.56109798E9,,,,0,,5,,1.56109798E9
Raw,1933994507,1995824000000,,,-1311853870175957707,0.0,11.931679613102192,,,0,16,0.0,16431,44651878030334,8,35.35858154296875,-78.44066291926441,0.0828223830111906,1,-132972.27032368653,0.0015645981766283512,1.56109798E9,,,,0,,5,,1.56109798E9
Raw,1933994507,1995824000000,,,-1311853870175957707,0.0,11.931679613102192,,,0,24,0.0,16431,44651924116883,6,45.33312225341797,61.55980113641317,0.030740530621286413,1,-64466.461647062984,5.230635870248079E-4,1.56109798E9,,,,0,,5,,1.56109798E9
Raw,1933994507,1995824000000,,,-1311853870175957707,0.0,11.931679613102192,,,0,25,0.0,16431,44651923565668,10,32.815147399902344,-555.8312541829271,0.10729385306376005,4,-894427.8884843239,3.4028234663852886E38,1.56109798E9,,,,0,,5,,1.56109798E9
Raw,1933994508,1995824000000,,,-1311853870175957707,0.0,11.931679613102192,,,0,26,0.0,16431,44651914722613,6,41.79914474487305,444.4894923282318,0.04055975832139894,1,749298.0862394184,7.856939337216318E-4,1.56109798E9,,,,0,,5,,1.56109798E9
Raw,1933994508,1995824000000,,,-1311853870175957707,0.0,11.931679613102192,,,0,27,0.0,16431,44651912999520,24,25.785297393798828,145.76107233654886,0.24192543089290042,4,134083.85023617555,3.4028234663852886E38,1.56109798E9,,,,0,,5,,1.56109798E9
Raw,1933994508,1995824000000,,,-1311853870175957707,0.0,11.931679613102192,,,0,33,0.0,16431,44651926128080,6,42.47174072265625,-95.62762776476114,0.036188903776522785,1,-268715.47217741044,7.271491340361536E-4,1.56109798E9,,,,0,,5,,1.56109798E9
Fix,gps,34.486285,109.463915,357.726685,0.856883,4.000000,1627820648999
Raw,1933995532,1996824000000,,,-1311853870175958095,0.0,11.821014185562587,,,0,10,0.0,16431,44666931962724,10,39.414466857910156,-312.2110819263132,0.05204082821234765,4,-785857.0434986823,3.4028234663852886E38,1.57542003E9,,,,0,,1,,1.57542003E9
Raw,1933995533,1996824000000,,,-1311853870175958095,0.0,11.821014185562587,,,0,12,0.0,16431,44666924200372,19,33.896156311035156,-441.3232661997192,0.0949272550507238,4,-993088.9282608805,3.4028234663852886E38,1.57542003E9,,,,0,,1,,1.57542003E9
Raw,1933995533,1996824000000,,,-1311853870175958095,0.0,11.821014185562587,,,0,15,0.0,16431,44666915806197,12,37.819828033447266,414.2776781453474,0.06278594253912528,4,531767.9720711963,3.4028234663852886E38,1.57542003E9,,,,0,,1,,1.57542003E9
Raw,1933995533,1996824000000,,,-1311853870175958095,0.0,11.821014185562587,,,0,18,0.0,39,2920429124,62,23.523880004882812,566.7806182479017,0.3145129087924943,4,1050174.3860868388,3.4028234663852886E38,1.57542003E9,,,,0,,1,,1.57542003E9
Raw,1933995533,1996824000000,,,-1311853870175958095,0.0,11.821014185562587,,,0,23,0.0,16431,44666931168108,7,41.80970764160156,149.76339224725075,0.039874298213138176,1,107762.37116847423,7.776051643304527E-4,1.57542003E9,,,,0,,1,,1.57542003E9
Raw,1933995534,1996824000000,,,-1311853870175958095,0.0,11.821014185562587,,,0,24,0.0,16431,44666925456649,6,43.76226806640625,478.93005322172735,0.031223825845836675,1,529081.1135989734,6.21056358795613E-4,1.57542003E9,,,,0,,1,,1.57542003E9
Raw,1933995534,1996824000000,,,-1311853870175958095,0.0,11.821014185562587,,,0,25,0.0,16431,44666923750863,16,34.95594787597656,-690.3886221226999,0.08402956431671216,1,-1187433.984794515,0.0016239337855949998,1.57542003E9,,,,0,,1,,1.57542003E9
Raw,1933995534,1996824000000,,,-1311853870175958095,0.0,11.821014185562587,,,0,31,0.0,16,1996018997070,1000000000,27.470008850097656,-819.0974746056149,2.99792458E8,2,-15.558898623324142,3.4028234663852886E38,1.57542003E9,,,,0,,1,,1.57542003E9
Raw,1933995534,1996824000000,,,-1311853870175958095,0.0,11.821014185562587,,,0,32,0.0,16431,44666927507085,16,35.023841857910156,-388.16032579437433,0.0840561912358706,4,-575053.4700864804,3.4028234663852886E38,1.57542003E9,,,,0,,1,,1.57542003E9
Raw,1933995534,1996824000000,,,-1311853870175958095,0.0,11.821014185562587,,,0,10,0.0,32995,55448931358184,33,38.05519104003906,-739.6659239072487,0.0603833873025465,1,-1489188.5565764927,0.0011204920010641217,1.59806246E9,,,,0,,3,,1.59806246E9
Raw,1933995535,1996824000000,,,-1311853870175958095,0.0,11.821014185562587,,,0,9,0.0,32995,55448933738158,33,41.13775634765625,-41.982608053129354,0.043382199270825816,4,-412989.17298532266,3.4028234663852886E38,1.59862502E9,,,,0,,3,,1.59862502E9
Raw,1933995535,1996824000000,,,-1311853870175958095,0.0,11.821014185562587,,,0,16,0.0,32995,55448924189043,33,37.55472183227539,567.935434122264,0.06255405951736029,4,531103.7508584838,3.4028234663852886E38,1.60143744E9,,,,0,,3,,1.60143744E9
Raw,1933995535,1996824000000,,,-1311853870175958095,0.0,11.821014185562587,,,0,23,0.0,32961,55448924479648,38,33.879234313964844,50.58222105774476,0.09516115589370627,4,108.66304731562546,3.4028234663852886E38,1.60368755E9,,,,0,,3,,1.60368755E9
Raw,1933995535,1996824000000,,,-1311853870175958095,0.0,11.821014185562587,,,0,7,0.0,32961,55448933012829,33,46.815513610839844,-153.48485567497642,0.03234069196993768,1,-557416.3536277305,4.2898367973975837E-4,1.60481254E9,,,,0,,3,,1.60481254E9
Raw,1933995535,1996824000000,,,-1311853870175958095,0.0,11.821014185562587,,,0,8,0.0,32961,55448928123415,40,33.40049362182617,-558.7226393820397,0.10116315470394821,4,-552804.4570557907,3.4028234663852886E38,1.60537498E9,,,,0,,3,,1.60537498E9
