# 
# Header Description:
# 
# Version: v2.0.0.1 Platform: 10 Manufacturer: HUAWEI Model: BLA-AL00
# 
# Raw,ElapsedRealtimeMillis,TimeNanos,LeapSecond,TimeUncertaintyNanos,FullBiasNanos,BiasNanos,BiasUncertaintyNanos,DriftNanosPerSecond,DriftUncertaintyNanosPerSecond,HardwareClockDiscontinuityCount,Svid,TimeOffsetNanos,State,ReceivedSvTimeNanos,ReceivedSvTimeUncertaintyNanos,Cn0DbHz,PseudorangeRateMetersPerSecond,PseudorangeRateUncertaintyMetersPerSecond,AccumulatedDeltaRangeState,AccumulatedDeltaRangeMeters,AccumulatedDeltaRangeUncertaintyMeters,CarrierFrequencyHz,CarrierCycles,CarrierPhase,CarrierPhaseUncertainty,MultipathIndicator,SnrInDb,ConstellationType,AgcDb,CarrierFrequencyHz
# 
# Fix,Provider,Latitude,Longitude,Altitude,Speed,Accuracy,(UTC)TimeInMs
# 
# Nav,Svid,Type,Status,MessageId,Sub-messageId,Data(Bytes)
# 
Fix,gps,34.486343,109.463950,358.882813,0.000000,3.000000,1627820481999
Raw,1933828548,1829824000000,,,-1311853870175893445,0.0,10.139532410754873,,,0,10,0.0,16431,44499931784628,6,46.377464294433594,-327.32535626083177,0.03211976342913271,1,-732464.8845133462,4.5959075214341283E-4,1.57542003E9,,,,0,,1,,1.57542003E9
Raw,1933828548,1829824000000,,,-1311853870175893445,0.0,10.139532410754873,,,0,12,0.0,16431,44499923950594,32,29.168468475341797,-455.97176968339704,0.16300553907904503,4,-918196.6985067342,3.4028234663852886E38,1.57542003E9,,,,0,,1,,1.57542003E9
Raw,1933828548,1829824000000,,,-1311853870175893445,0.0,10.139532410754873,,,0,15,0.0,16431,44499916037613,28,30.297391891479492,415.5589399334094,0.14539918774215077,4,525125.7168882502,3.4028234663852886E38,1.57542003E9,,,,0,,1,,1.57542003E9
Raw,1933828549,1829824000000,,,-1311853870175893445,0.0,10.139532410754873,,,0,18,0.0,16431,44499920744649,33,29.113609313964844,565.9589243035932,0.16705467803364538,1,1119247.6797655106,0.0029999148100614548,1.57542003E9,,,,0,,1,,1.57542003E9
Raw,1933828549,1829824000000,,,-1311853870175893445,0.0,10.139532410754873,,,0,23,0.0,16431,44499931247443,21,33.03456115722656,134.2316163409419,0.1060152533685082,1,83969.8173723906,0.0020259919110685587,1.57542003E9,,,,0,,1,,1.57542003E9
Raw,1933828549,1829824000000,,,-1311853870175893445,0.0,10.139532410754873,,,0,24,0.0,16431,44499925721612,15,35.59029006958008,471.564766202235,0.07851351510202409,1,560451.553433733,0.001509562716819346,1.57542003E9,,,,0,,1,,1.57542003E9
Raw,1933828549,1829824000000,,,-1311853870175893445,0.0,10.139532410754873,,,0,25,0.0,16431,44499923364643,28,30.429256439208984,-696.9419968629059,0.14097237922293682,1,-1071660.211433893,0.002578259678557515,1.57542003E9,,,,0,,1,,1.57542003E9
Raw,1933828550,1829824000000,,,-1311853870175893445,0.0,10.139532410754873,,,0,31,0.0,16,1829018539457,1000000000,25.92807388305664,-824.1100496513377,2.99792458E8,2,-14.822753040463873,3.4028234663852886E38,1.57542003E9,,,,0,,1,,1.57542003E9
Raw,1933828550,1829824000000,,,-1311853870175893445,0.0,10.139532410754873,,,0,32,0.0,16431,44499927289313,19,33.67389678955078,-393.2418155671862,0.09792372371913172,1,-767673.2984249259,0.001774576143361628,1.57542003E9,,,,0,,1,,1.57542003E9
Raw,1933828550,1829824000000,,,-1311853870175893445,0.0,10.139532410754873,,,0,10,0.0,32995,55281930941427,38,33.89152145385742,-757.1758541107556,0.09619011990093546,4,-1528328.7833365777,3.4028234663852886E38,1.59806246E9,,,,0,,3,,1.59806246E9
Raw,1933828550,1829824000000,,,-1311853870175893445,0.0,10.139532410754873,,,0,9,0.0,32995,55281933707273,33,37.6467170715332,-69.31050961549374,0.06361505071578974,1,-403746.26479401044,0.0011723808711394668,1.59862502E9,,,,0,,3,,1.59862502E9
Raw,1933828550,1829824000000,,,-1311853870175893445,0.0,10.139532410754873,,,0,16,0.0,17,501845,60,22.851118087768555,554.3410669363802,4.200809747030135,4,525952.8899866294,3.4028234663852886E38,1.60143744E9,,,,0,,3,,1.60143744E9
Raw,1933828551,1829824000000,,,-1311853870175893445,0.0,10.139532410754873,,,0,23,0.0,32961,55281924500666,33,35.558799743652344,25.38007852131811,0.07857532283812063,4,-6201.570952484247,3.4028234663852886E38,1.60368755E9,,,,0,,3,,1.60368755E9
Raw,1933828551,1829824000000,,,-1311853870175893445,0.0,10.139532410754873,,,0,7,0.0,65,1932925142,35,34.611572265625,-161.88037014901204,0.0890510185080321,1,-531126.5386676103,0.001658666762523353,1.60481254E9,,,,0,,3,,1.60481254E9
Raw,1933828551,1829824000000,,,-1311853870175893445,0.0,10.139532410754873,,,0,8,0.0,32961,55281927811829,33,36.466270446777344,-560.017022915863,0.07145624156005953,1,-549511.8411858577,0.001339282258413732,1.60537498E9,,,,0,,3,,1.60537498E9
Raw,1933828551,1829824000000,,,-1311853870175893445,0.0,10.139532410754873,,,0,193,0.0,35,9486780,16,34.94286346435547,-256.5211148233128,0.08518694496249518,1,-451942.50908573525,0.0016263822326436639,1.57542003E9,,,,0,,4,,1.57542003E9
Raw,1933828552,1829824000000,,,-1311853870175893445,0.0,10.139532410754873,,,0,194,0.0,35,12439626,34,28.774988174438477,-100.7326429531879,0.17205369904557433,1,-83204.5671399616,0.003119177184998989,1.57542003E9,,,,0,,4,,1.57542003E9
Raw,1933828552,1829824000000,,,-1311853870175893445,0.0,10.139532410754873,,,0,6,0.0,16431,44485878629836,6,37.276309967041016,-79.82850906948738,0.06716460209967975,1,-121429.45292831714,0.0012546319048851728,1.56109798E9,,,,0,,5,,1.56109798E9
Raw,1933828552,1829824000000,,,-1311853870175893445,0.0,10.139532410754873,,,0,14,0.0,16431,44485924339335,33,23.015033721923828,139.56180579900075,0.33037256751624344,4,169855.79158533382,3.4028234663852886E38,1.56109798E9,,,,0,,5,,1.56109798E9
Raw,1933828552,1829824000000,,,-1311853870175893445,0.0,10.139532410754873,,,0,16,0.0,16431,44485877987076,6,39.578163146972656,-77.82711905755491,0.05219305098081159,1,-120006.24462481712,9.625509264878929E-4,1.56109798E9,,,,0,,5,,1.56109798E9
Raw,1933828552,1829824000000,,,-1311853870175893445,0.0,10.139532410754873,,,0,24,0.0,16431,44485924146777,13,30.636289596557617,45.62246103871115,0.1378069045060829,1,-73407.7941991646,0.002540628658607602,1.56109798E9,,,,0,,5,,1.56109798E9
Raw,1933828553,1829824000000,,,-1311853870175893445,0.0,10.139532410754873,,,0,25,0.0,16431,44485923254585,8,34.979122161865234,-567.9455225293948,0.08371821242262756,4,-801173.2989565348,3.4028234663852886E38,1.56109798E9,,,,0,,5,,1.56109798E9
Raw,1933828553,1829824000000,,,-1311853870175893445,0.0,10.139532410754873,,,0,26,0.0,16431,44485914967330,6,38.20290756225586,438.62052739746036,0.060048807581952274,1,675931.286896466,0.0011276815785095096,1.56109798E9,,,,0,,5,,1.56109798E9
Raw,1933828553,1829824000000,,,-1311853870175893445,0.0,10.139532410754873,,,0,27,0.0,16431,44485913077036,14,30.382587432861328,134.285338813036,0.1434756258184957,1,110877.26203621837,0.0026159307453781366,1.56109798E9,,,,0,,5,,1.56109798E9
Raw,1933828553,1829824000000,,,-1311853870175893445,0.0,10.139532410754873,,,0,33,0.0,16431,44485926072868,6,37.94886016845703,-104.18254588795395,0.060151279616151104,1,-252164.97683302,0.0011611514491960406,1.56109798E9,,,,0,,5,,1.56109798E9
Fix,gps,34.486343,109.463950,358.726593,0.000000,3.000000,1627820482999
Raw,1933829503,1830824000000,,,-1311853870175893833,0.0,10.044430588864804,,,0,10,0.0,16431,44500931785713,6,45.199005126953125,-327.2557598846122,0.03211995897057028,1,-732792.1485734127,5.263738567009568E-4,1.57542003E9,,,,0,,1,,1.57542003E9
Raw,1933829503,1830824000000,,,-1311853870175893833,0.0,10.044430588864804,,,0,12,0.0,16431,44500923952059,42,26.88776206970215,-456.4961964419135,0.21173894197223142,4,-918652.9550275675,3.4028234663852886E38,1.57542003E9,,,,0,,1,,1.57542003E9
Raw,1933829503,1830824000000,,,-1311853870175893833,0.0,10.044430588864804,,,0,15,0.0,16431,44500916036188,35,28.523582458496094,415.39718459475216,0.17768767222848536,4,525541.2349470373,3.4028234663852886E38,1.57542003E9,,,,0,,1,,1.57542003E9
Raw,1933829504,1830824000000,,,-1311853870175893833,0.0,10.044430588864804,,,0,18,0.0,16431,44500920742903,33,28.874765396118164,566.0159783358124,0.17160774807514378,1,1119813.6999255572,0.003083552001044154,1.57542003E9,,,,0,,1,,1.57542003E9
Raw,1933829504,1830824000000,,,-1311853870175893833,0.0,10.044430588864804,,,0,23,0.0,16431,44500931247018,10,39.350128173828125,134.3854730703,0.052283000042093714,1,84104.19202600639,9.791727643460035E-4,1.57542003E9,,,,0,,1,,1.57542003E9
Raw,1933829506,1830824000000,,,-1311853870175893833,0.0,10.044430588864804,,,0,24,0.0,16431,44500925720020,15,35.68189239501953,471.6492225294985,0.07770036227457411,1,560923.0865708374,0.001493726740591228,1.57542003E9,,,,0,,1,,1.57542003E9
Raw,1933829506,1830824000000,,,-1311853870175893833,0.0,10.044430588864804,,,0,25,0.0,16431,44500923367030,12,37.46002960205078,-696.8059396964668,0.06308361485349223,1,-1072357.0681678024,0.0012172064743936062,1.57542003E9,,,,0,,1,,1.57542003E9
Raw,1933829507,1830824000000,,,-1311853870175893833,0.0,10.044430588864804,,,0,31,0.0,16,1830018542206,1000000000,21.69076156616211,-824.1100496513377,2.99792458E8,2,-14.816308387062774,3.4028234663852886E38,1.57542003E9,,,,0,,1,,1.57542003E9
Raw,1933829507,1830824000000,,,-1311853870175893833,0.0,10.044430588864804,,,0,32,0.0,16431,44500927290672,12,37.8148193359375,-393.2458032145994,0.061288773281687664,1,-768066.5765447916,0.001168489339761436,1.57542003E9,,,,0,,1,,1.57542003E9
Raw,1933829507,1830824000000,,,-1311853870175893833,0.0,10.044430588864804,,,0,10,0.0,32995,55282930943986,36,34.266639709472656,-757.0711528043175,0.09220802253622873,4,-1529085.8993481193,3.4028234663852886E38,1.59806246E9,,,,0,,3,,1.59806246E9
Raw,1933829508,1830824000000,,,-1311853870175893833,0.0,10.044430588864804,,,0,9,0.0,32995,55282933707531,33,37.346126556396484,-69.19258857623188,0.06576832390311593,1,-403815.4893106383,0.0012136634904891253,1.59862502E9,,,,0,,3,,1.59862502E9
Raw,1933829508,1830824000000,,,-1311853870175893833,0.0,10.044430588864804,,,0,16,0.0,17,500230,60,22.91754722595215,554.0056614817393,4.2008094807609435,4,526507.3138811203,3.4028234663852886E38,1.60143744E9,,,,0,,3,,1.60143744E9
Raw,1933829508,1830824000000,,,-1311853870175893833,0.0,10.044430588864804,,,0,23,0.0,32961,55282924500548,40,33.43544006347656,25.657492676185527,0.10011118337438368,4,-6176.1490509213545,3.4028234663852886E38,1.60368755E9,,,,0,,3,,1.60368755E9
Raw,1933829509,1830824000000,,,-1311853870175893833,0.0,10.044430588864804,,,0,7,0.0,65,932925682,33,40.54430389404297,-161.83613112044543,0.04612895736300093,1,-531288.325374533,8.830825099721551E-4,1.60481254E9,,,,0,,3,,1.60481254E9
Raw,1933829509,1830824000000,,,-1311853870175893833,0.0,10.044430588864804,,,0,8,0.0,32961,55282927813709,33,37.67560577392578,-559.9851217365576,0.06235190295456203,1,-550071.8235539823,0.0011652130633592606,1.60537498E9,,,,0,,3,,1.60537498E9
Raw,1933829509,1830824000000,,,-1311853870175893833,0.0,10.044430588864804,,,0,193,0.0,35,9487674,20,33.35249328613281,-256.3853132752977,0.10196106362017998,1,-452198.91736912803,0.0018414704827591777,1.57542003E9,,,,0,,4,,1.57542003E9
Raw,1933829510,1830824000000,,,-1311853870175893833,0.0,10.044430588864804,,,0,194,0.0,35,12439928,31,29.426353454589844,-100.75621097187343,0.1597848301467618,1,-83305.23562729104,0.0028938220348209143,1.57542003E9,,,,0,,4,,1.57542003E9
Raw,1933829510,1830824000000,,,-1311853870175893833,0.0,10.044430588864804,,,0,6,0.0,16431,44486878630084,9,33.830596923828125,-79.78841958000243,0.09823631542913963,1,-121509.17452418021,0.0018655291059985757,1.56109798E9,,,,0,,5,,1.56109798E9
Raw,1933829510,1830824000000,,,-1311853870175893833,0.0,10.044430588864804,,,0,14,0.0,16431,44486924338858,13,30.745702743530273,140.08230455440298,0.13612577236045326,4,169995.86412577456,3.4028234663852886E38,1.56109798E9,,,,0,,5,,1.56109798E9
Raw,1933829511,1830824000000,,,-1311853870175893833,0.0,10.044430588864804,,,0,16,0.0,16431,44486877987338,7,36.122989654541016,-77.89257441530697,0.07611054381983345,1,-120084.0344811178,0.0014327896060422063,1.56109798E9,,,,0,,5,,1.56109798E9
Raw,1933829511,1830824000000,,,-1311853870175893833,0.0,10.044430588864804,,,0,24,0.0,16431,44486924146587,6,37.73636245727539,45.701519556922875,0.061267450944080315,1,-73362.1199174668,0.0011899089440703392,1.56109798E9,,,,0,,5,,1.56109798E9
Raw,1933829511,1830824000000,,,-1311853870175893833,0.0,10.044430588864804,,,0,25,0.0,16431,44486923256488,8,35.284385681152344,-567.9251071379376,0.08084759755180448,4,-801741.2123482737,3.4028234663852886E38,1.56109798E9,,,,0,,5,,1.56109798E9
Raw,1933829512,1830824000000,,,-1311853870175893833,0.0,10.044430588864804,,,0,26,0.0,16431,44486914965883,6,38.7442512512207,438.65055404165696,0.056582956254254385,1,676369.9271159992,0.001059544738382101,1.56109798E9,,,,0,,5,,1.56109798E9
Raw,1933829512,1830824000000,,,-1311853870175893833,0.0,10.044430588864804,,,0,27,0.0,16431,44486913076521,21,26.93397331237793,133.78108034816688,0.21226051339307195,4,111011.45002854752,3.4028234663852886E38,1.56109798E9,,,,0,,5,,1.56109798E9
Raw,1933829512,1830824000000,,,-1311853870175893833,0.0,10.044430588864804,,,0,33,0.0,16431,44486926073224,7,36.046722412109375,-104.20781802946561,0.07461020013437741,1,-252269.08887986696,0.001445425790734589,1.56109798E9,,,,0,,5,,1.56109798E9
Fix,gps,34.486343,109.463950,358.697723,0.000000,3.000000,1627820483999
Raw,1933830534,1831824000000,,,-1311853870175894220,0.0,10.099391509806752,,,0,10,0.0,16431,44501931786828,9,40.370941162109375,-327.22150701580676,0.04680717411715937,1,-733119.343114083,9.176929015666246E-4,1.57542003E9,,,,0,,1,,1.57542003E9
Raw,1933830534,1831824000000,,,-1311853870175894220,0.0,10.099391509806752,,,0,12,0.0,16431,44501923953597,37,27.900135040283203,-456.2483147356231,0.18852238197777504,4,-919109.2711553542,3.4028234663852886E38,1.57542003E9,,,,0,,1,,1.57542003E9
Raw,1933830534,1831824000000,,,-1311853870175894220,0.0,10.099391509806752,,,0,15,0.0,16431,44501916034876,31,29.501306533813477,415.47352929736326,0.1590778022339827,1,525956.7288473678,0.0028689575847238302,1.57542003E9,,,,0,,1,,1.57542003E9
Raw,1933830534,1831824000000,,,-1311853870175894220,0.0,10.099391509806752,,,0,18,0.0,16431,44501920740999,27,30.685468673706055,565.9777719020503,0.14001797058935128,1,1120379.6526972859,0.002503318479284644,1.57542003E9,,,,0,,1,,1.57542003E9
Raw,1933830534,1831824000000,,,-1311853870175894220,0.0,10.099391509806752,,,0,23,0.0,16431,44501931246579,6,43.894134521484375,134.4856243687923,0.03202298497913206,1,84238.6188967783,6.116990116424859E-4,1.57542003E9,,,,0,,1,,1.57542003E9
Raw,1933830534,1831824000000,,,-1311853870175894220,0.0,10.099391509806752,,,0,24,0.0,16431,44501925718480,15,35.90174865722656,471.7650006343065,0.07578372334990024,1,561394.726980964,0.0014563919976353645,1.57542003E9,,,,0,,1,,1.57542003E9
Raw,1933830535,1831824000000,,,-1311853870175894220,0.0,10.099391509806752,,,0,25,0.0,16431,44501923369344,7,41.59227752685547,-696.6620435650275,0.03943134277111296,1,-1073053.843213115,7.56400462705642E-4,1.57542003E9,,,,0,,1,,1.57542003E9
Raw,1933830535,1831824000000,,,-1311853870175894220,0.0,10.099391509806752,,,0,31,0.0,16,1831018544954,1000000000,20.45140838623047,-823.9243684282014,2.99792458E8,2,-14.806526029456439,3.4028234663852886E38,1.57542003E9,,,,0,,1,,1.57542003E9
Raw,1933830535,1831824000000,,,-1311853870175894220,0.0,10.099391509806752,,,0,32,0.0,16431,44501927291953,10,39.07026290893555,-393.41699939371347,0.0532173677585564,4,-768459.7350575263,3.4028234663852886E38,1.57542003E9,,,,0,,1,,1.57542003E9
Raw,1933830535,1831824000000,,,-1311853870175894220,0.0,10.099391509806752,,,0,10,0.0,32995,55283930946558,34,34.87102127075195,-756.8454587772235,0.08614288464393233,4,-1529842.8700080288,3.4028234663852886E38,1.59806246E9,,,,0,,3,,1.59806246E9
Raw,1933830535,1831824000000,,,-1311853870175894220,0.0,10.099391509806752,,,0,9,0.0,32995,55283933707773,33,39.26581573486328,-68.96632792829814,0.053215878315265974,1,-403884.5588851309,9.730021702125669E-4,1.59862502E9,,,,0,,3,,1.59862502E9
Raw,1933830535,1831824000000,,,-1311853870175894220,0.0,10.099391509806752,,,0,16,0.0,65,1924498180,124,23.645416259765625,554.6603513890859,0.3073282337632688,4,527061.8032784569,3.4028234663852886E38,1.60143744E9,,,,0,,3,,1.60143744E9
Raw,1933830536,1831824000000,,,-1311853870175894220,0.0,10.099391509806752,,,0,23,0.0,32961,55283924500488,33,35.76572036743164,26.09928864901599,0.07674458069046947,4,-6150.0921461665985,3.4028234663852886E38,1.60368755E9,,,,0,,3,,1.60368755E9
Raw,1933830536,1831824000000,,,-1311853870175894220,0.0,10.099391509806752,,,0,7,0.0,65,1932926246,33,44.225135803222656,-161.73238412279,0.032325117302458045,1,-531450.1511399779,5.780425271950662E-4,1.60481254E9,,,,0,,3,,1.60481254E9
Raw,1933830537,1831824000000,,,-1311853870175894220,0.0,10.099391509806752,,,0,8,0.0,32961,55283927815542,33,36.09433364868164,-560.0317465370808,0.07452169891182453,1,-550631.8734538427,0.0013978767674416304,1.60537498E9,,,,0,,3,,1.60537498E9
Raw,1933830537,1831824000000,,,-1311853870175894220,0.0,10.099391509806752,,,0,193,0.0,35,9488490,25,31.232099533081055,-256.6260376657183,0.12968123415379795,4,-452455.2205504469,3.4028234663852886E38,1.57542003E9,,,,0,,4,,1.57542003E9
Raw,1933830537,1831824000000,,,-1311853870175894220,0.0,10.099391509806752,,,0,194,0.0,35,12440292,38,27.806011199951172,-100.20327423847561,0.19209521527410423,4,-83406.02020138143,3.4028234663852886E38,1.57542003E9,,,,0,,4,,1.57542003E9
Raw,1933830537,1831824000000,,,-1311853870175894220,0.0,10.099391509806752,,,0,6,0.0,16431,44487878630384,12,31.410364151000977,-79.65954529127555,0.12872595182442753,1,-121588.9987431569,0.0023240067530423403,1.56109798E9,,,,0,,5,,1.56109798E9
Raw,1933830538,1831824000000,,,-1311853870175894220,0.0,10.099391509806752,,,0,14,0.0,16431,44487924338367,13,30.914270401000977,140.29802094234998,0.13352434732140983,4,170135.97936517993,3.4028234663852886E38,1.56109798E9,,,,0,,5,,1.56109798E9
Raw,1933830543,1831824000000,,,-1311853870175894220,0.0,10.099391509806752,,,0,16,0.0,16431,44487877987587,10,33.309730529785156,-78.2020175586917,0.10398478436443198,4,-120161.93564205922,3.4028234663852886E38,1.56109798E9,,,,0,,5,,1.56109798E9
Raw,1933830543,1831824000000,,,-1311853870175894220,0.0,10.099391509806752,,,0,24,0.0,16431,44487924146437,6,40.979061126708984,45.86304057869154,0.042411223700976386,1,-73316.36611936074,8.191790548153222E-4,1.56109798E9,,,,0,,5,,1.56109798E9
Raw,1933830544,1831824000000,,,-1311853870175894220,0.0,10.099391509806752,,,0,25,0.0,16431,44487923258381,8,35.152626037597656,-567.82108748063,0.08207476568851935,4,-802309.0730865374,3.4028234663852886E38,1.56109798E9,,,,0,,5,,1.56109798E9
Raw,1933830544,1831824000000,,,-1311853870175894220,0.0,10.099391509806752,,,0,26,0.0,16431,44487914964410,6,40.658477783203125,438.7236949933549,0.045923643014008725,1,676808.5641736997,8.499785326421261E-4,1.56109798E9,,,,0,,5,,1.56109798E9
Raw,1933830544,1831824000000,,,-1311853870175894220,0.0,10.099391509806752,,,0,27,0.0,16431,44487913076116,166,27.204986572265625,134.60660856883413,0.20581207267857748,4,111145.91069446714,3.4028234663852886E38,1.56109798E9,,,,1,,5,,1.56109798E9
Raw,1933830544,1831824000000,,,-1311853870175894220,0.0,10.099391509806752,,,0,33,0.0,16431,44487926073573,6,40.01384735107422,-104.07522023236362,0.04765495442088369,1,-252373.22720626736,9.154603467322886E-4,1.56109798E9,,,,0,,5,,1.56109798E9
Fix,gps,34.486343,109.463950,358.689453,0.000000,3.000000,1627820484999
Raw,1933831506,1832824000000,,,-1311853870175894608,0.0,10.349058942959479,,,0,10,0.0,16431,44502931787906,9,39.73995590209961,-326.9674223024292,0.05017446423940983,1,-733446.2848958289,9.36198397539556E-4,1.57542003E9,,,,0,,1,,1.57542003E9
Raw,1933831507,1832824000000,,,-1311853870175894608,0.0,10.349058942959479,,,0,12,0.0,16431,44502923955149,23,32.2423210144043,-456.6304813206134,0.11463467833202534,4,-919565.5926550532,3.4028234663852886E38,1.57542003E9,,,,0,,1,,1.57542003E9
Raw,1933831507,1832824000000,,,-1311853870175894608,0.0,10.349058942959479,,,0,15,0.0,16431,44502916033516,25,31.463939666748047,415.02752627130576,0.12748785000903323,1,526372.050153086,0.00228871894069016,1.57542003E9,,,,0,,1,,1.57542003E9
Raw,1933831507,1832824000000,,,-1311853870175894608,0.0,10.349058942959479,,,0,18,0.0,16431,44502920739094,22,32.39654541015625,566.0657387223357,0.1156487562272625,1,1120945.6214742693,0.0021804114803671837,1.57542003E9,,,,0,,1,,1.57542003E9
Raw,1933831508,1832824000000,,,-1311853870175894608,0.0,10.349058942959479,,,0,23,0.0,16431,44502931246135,7,41.944969177246094,134.19187619663631,0.03930325064813636,1,84373.08030538735,7.655894150957465E-4,1.57542003E9,,,,0,,1,,1.57542003E9
Raw,1933831508,1832824000000,,,-1311853870175894608,0.0,10.349058942959479,,,0,24,0.0,16431,44502925716921,8,41.03201675415039,471.405703377643,0.04244046754703337,1,561866.302943859,8.504397701472044E-4,1.57542003E9,,,,0,,1,,1.57542003E9
Raw,1933831508,1832824000000,,,-1311853870175894608,0.0,10.349058942959479,,,0,25,0.0,16431,44502923371684,8,40.48835754394531,-697.260531501568,0.044693487669800774,1,-1073750.7617459237,8.589103817939758E-4,1.57542003E9,,,,0,,1,,1.57542003E9
Raw,1933831509,1832824000000,,,-1311853870175894608,0.0,10.349058942959479,,,0,31,0.0,16,1832018547703,1000000000,22.720190048217773,-823.9243684282014,2.99792458E8,2,-14.825855632027908,3.4028234663852886E38,1.57542003E9,,,,0,,1,,1.57542003E9
Raw,1933831509,1832824000000,,,-1311853870175894608,0.0,10.349058942959479,,,0,32,0.0,16431,44502927293301,16,35.3827018737793,-393.3069130591448,0.0806703454793316,4,-768852.781189647,3.4028234663852886E38,1.57542003E9,,,,0,,1,,1.57542003E9
Raw,1933831509,1832824000000,,,-1311853870175894608,0.0,10.349058942959479,,,0,10,0.0,32995,55284930948979,33,35.38371658325195,-756.9929676490542,0.08131866103536634,1,-1530599.7976848143,0.00152399146463722,1.59806246E9,,,,0,,3,,1.59806246E9
Raw,1933831510,1832824000000,,,-1311853870175894608,0.0,10.349058942959479,,,0,9,0.0,32995,55284933707969,33,38.66925048828125,-69.19962234319678,0.0568240380444974,1,-403953.5019788173,0.0010421785991638899,1.59862502E9,,,,0,,3,,1.59862502E9
Raw,1933831510,1832824000000,,,-1311853870175894608,0.0,10.349058942959479,,,0,16,0.0,99,924496456,119,23.954174041748047,554.6726892383472,0.29662351330494574,4,527616.320105896,3.4028234663852886E38,1.60143744E9,,,,0,,3,,1.60143744E9
Raw,1933831510,1832824000000,,,-1311853870175894608,0.0,10.349058942959479,,,0,23,0.0,32961,55284924500430,37,34.08547592163086,26.566776403604052,0.0929508553343637,4,-6123.994266087725,3.4028234663852886E38,1.60368755E9,,,,0,,3,,1.60368755E9
Raw,1933831511,1832824000000,,,-1311853870175894608,0.0,10.349058942959479,,,0,7,0.0,65,932926782,33,46.16775894165039,-161.81421610090126,0.03232521507317683,1,-531611.9136720218,4.621984844561666E-4,1.60481254E9,,,,0,,3,,1.60481254E9
Raw,1933831511,1832824000000,,,-1311853870175894608,0.0,10.349058942959479,,,0,8,0.0,32961,55284927817433,33,37.576026916503906,-559.5534674246962,0.06305531959143026,1,-551191.6589574461,0.0011786483228206635,1.60537498E9,,,,0,,3,,1.60537498E9
Raw,1933831511,1832824000000,,,-1311853870175894608,0.0,10.349058942959479,,,0,193,0.0,35,9489349,14,36.299537658691406,-256.87840121504144,0.07311567276657505,4,-452711.77214237733,3.4028234663852886E38,1.57542003E9,,,,0,,4,,1.57542003E9
Raw,1933831512,1832824000000,,,-1311853870175894608,0.0,10.349058942959479,,,0,194,0.0,35,12440617,26,30.90532684326172,-101.15967909219046,0.13511849265051373,4,-83506.95282568467,3.4028234663852886E38,1.57542003E9,,,,0,,4,,1.57542003E9
Raw,1933831512,1832824000000,,,-1311853870175894608,0.0,10.349058942959479,,,0,6,0.0,16431,44488878630632,9,33.665531158447266,-79.62946752339417,0.10005683949656374,1,-121668.71349426942,0.0019013205310329795,1.56109798E9,,,,0,,5,,1.56109798E9
Raw,1933831512,1832824000000,,,-1311853870175894608,0.0,10.349058942959479,,,0,14,0.0,16431,44488924337926,6,37.31416320800781,139.74211051462055,0.06431634135958142,4,170275.98263475433,3.4028234663852886E38,1.56109798E9,,,,0,,5,,1.56109798E9
Raw,1933831513,1832824000000,,,-1311853870175894608,0.0,10.349058942959479,,,0,16,0.0,16431,44488877987859,8,35.04448318481445,-77.69364363719745,0.08574513671809081,4,-120239.66014774477,3.4028234663852886E38,1.56109798E9,,,,0,,5,,1.56109798E9
Raw,1933831513,1832824000000,,,-1311853870175894608,0.0,10.349058942959479,,,0,24,0.0,16431,44488924146286,6,42.2047119140625,45.59957892946315,0.036927846548186954,1,-73270.60204602516,7.498509366996586E-4,1.56109798E9,,,,0,,5,,1.56109798E9
Raw,1933831513,1832824000000,,,-1311853870175894608,0.0,10.349058942959479,,,0,25,0.0,16431,44488923260277,8,34.63859939575195,-567.7622952431282,0.08704309917611819,1,-802876.7946175983,0.001699815969914198,1.56109798E9,,,,0,,5,,1.56109798E9
Raw,1933831514,1832824000000,,,-1311853870175894608,0.0,10.349058942959479,,,0,26,0.0,16431,44488914962960,6,41.686073303222656,438.4288817444326,0.041099752241932214,1,677247.1720317358,7.959888316690922E-4,1.56109798E9,,,,0,,5,,1.56109798E9
Raw,1933831515,1832824000000,,,-1311853870175894608,0.0,10.349058942959479,,,0,27,0.0,16431,44488913075648,18,28.16034507751465,135.19936213206472,0.1846202901842272,4,111280.5876045817,3.4028234663852886E38,1.56109798E9,,,,0,,5,,1.56109798E9
Raw,1933831515,1832824000000,,,-1311853870175894608,0.0,10.349058942959479,,,0,33,0.0,16431,44488926073918,6,43.03902053833008,-104.17058294571444,0.03396085679160672,1,-252477.32562010677,6.811763159930706E-4,1.56109798E9,,,,0,,5,,1.56109798E9
Fix,gps,34.486343,109.463950,358.664917,0.000000,3.000000,1627820485999
Raw,1933832547,1833824000000,,,-1311853870175894996,0.0,10.577212494659408,,,0,10,0.0,16431,44503931788972,13,37.03831481933594,-327.14168590263034,0.06770675945739466,1,-733773.2986810415,0.001277762115933001,1.57542003E9,,,,0,,1,,1.57542003E9
Raw,1933832547,1833824000000,,,-1311853870175894996,0.0,10.577212494659408,,,0,12,0.0,16431,44503923956658,15,35.930908203125,-456.40495770580196,0.07521627873989706,4,-920021.9906657765,3.4028234663852886E38,1.57542003E9,,,,0,,1,,1.57542003E9
Raw,1933832548,1833824000000,,,-1311853870175894996,0.0,10.577212494659408,,,0,15,0.0,16431,44503916032102,21,32.76065444946289,414.9219729034546,0.11020747872993625,1,526787.1414499697,0.001971318619325757,1.57542003E9,,,,0,,1,,1.57542003E9
Raw,1933832548,1833824000000,,,-1311853870175894996,0.0,10.577212494659408,,,0,18,0.0,16431,44503920737191,28,30.289291381835938,565.7900457315227,0.146377494035681,4,1121511.6592058311,3.4028234663852886E38,1.57542003E9,,,,0,,1,,1.57542003E9
Raw,1933832548,1833824000000,,,-1311853870175894996,0.0,10.577212494659408,,,0,23,0.0,16431,44503931245678,6,44.623661041259766,134.50365398829285,0.032022822721343436,1,84507.55504080869,5.624208715744317E-4,1.57542003E9,,,,0,,1,,1.57542003E9
Raw,1933832548,1833824000000,,,-1311853870175894996,0.0,10.577212494659408,,,0,24,0.0,16431,44503925715340,8,41.064781188964844,471.31640734155326,0.04228426322206402,1,562337.7940243961,8.472378249280155E-4,1.57542003E9,,,,0,,1,,1.57542003E9
Raw,1933832549,1833824000000,,,-1311853870175894996,0.0,10.577212494659408,,,0,25,0.0,16431,44503923374018,8,41.217350006103516,-696.8176640615106,0.041144760056222224,1,-1074447.6950165313,7.897655013948679E-4,1.57542003E9,,,,0,,1,,1.57542003E9
Raw,1933832549,1833824000000,,,-1311853870175894996,0.0,10.577212494659408,,,0,31,0.0,16,1833018550451,1000000000,26.926267623901367,-823.9243684282014,2.99792458E8,2,-14.81941243125275,3.4028234663852886E38,1.57542003E9,,,,0,,1,,1.57542003E9
Raw,1933832550,1833824000000,,,-1311853870175894996,0.0,10.577212494659408,,,0,32,0.0,16431,44503927294580,13,36.65460205078125,-392.93241502687215,0.06986068167587534,4,-769245.7834147611,3.4028234663852886E38,1.57542003E9,,,,0,,1,,1.57542003E9
Raw,1933832551,1833824000000,,,-1311853870175894996,0.0,10.577212494659408,,,0,10,0.0,32995,55285930951555,33,35.36531448364258,-756.6942690000883,0.08148740913553298,1,-1531356.6691456018,0.001527223503217101,1.59806246E9,,,,0,,3,,1.59806246E9
Raw,1933832551,1833824000000,,,-1311853870175894996,0.0,10.577212494659408,,,0,9,0.0,32995,55285933708183,33,39.649879455566406,-68.95590295690923,0.05102082582759773,1,-404022.4731983184,9.309162851423025E-4,1.59862502E9,,,,0,,3,,1.59862502E9
Raw,1933832552,1833824000000,,,-1311853870175894996,0.0,10.577212494659408,,,0,16,0.0,99,1924494380,100,25.469709396362305,554.489427869624,0.2492606811499669,4,528170.8349062295,3.4028234663852886E38,1.60143744E9,,,,0,,3,,1.60143744E9
Raw,1933832552,1833824000000,,,-1311853870175894996,0.0,10.577212494659408,,,0,23,0.0,32961,55285924500304,33,35.63890838623047,26.332751346043707,0.07786133864271139,4,-6097.726753648067,3.4028234663852886E38,1.60368755E9,,,,0,,3,,1.60368755E9
Raw,1933832552,1833824000000,,,-1311853870175894996,0.0,10.577212494659408,,,0,7,0.0,65,1932927317,33,46.195980072021484,-161.97701095448247,0.032325310763667556,1,-531773.7634211491,4.6069928794167936E-4,1.60481254E9,,,,0,,3,,1.60481254E9
Raw,1933832552,1833824000000,,,-1311853870175894996,0.0,10.577212494659408,,,0,8,0.0,32961,55285927819310,33,37.29594421386719,-559.9635816240352,0.06507595327724233,1,-551751.4703384445,0.0012172739952802658,1.60537498E9,,,,0,,3,,1.60537498E9
Raw,1933832553,1833824000000,,,-1311853870175894996,0.0,10.577212494659408,,,0,193,0.0,35,9490231,19,33.84128952026367,-257.1730951753659,0.09647552719066504,4,-452968.5709666146,3.4028234663852886E38,1.57542003E9,,,,0,,4,,1.57542003E9
Raw,1933832553,1833824000000,,,-1311853870175894996,0.0,10.577212494659408,,,0,194,0.0,35,12440912,31,29.422975540161133,-101.1688217111527,0.15984630504636888,4,-83607.74703315158,3.4028234663852886E38,1.57542003E9,,,,0,,4,,1.57542003E9
Raw,1933832554,1833824000000,,,-1311853870175894996,0.0,10.577212494659408,,,0,6,0.0,16431,44489878630907,10,32.67133331298828,-80.04362901444523,0.11178431656158716,1,-121748.5366412686,0.002131892368197441,1.56109798E9,,,,0,,5,,1.56109798E9
Raw,1933832554,1833824000000,,,-1311853870175894996,0.0,10.577212494659408,,,0,14,0.0,16431,44489924337461,6,36.64357376098633,139.84469018814008,0.06941584154722844,4,170415.86264483177,3.4028234663852886E38,1.56109798E9,,,,0,,5,,1.56109798E9
Raw,1933832554,1833824000000,,,-1311853870175894996,0.0,10.577212494659408,,,0,16,0.0,16431,44489877988115,7,35.467613220214844,-77.93611475351486,0.08182208454661793,4,-120317.48421331748,3.4028234663852886E38,1.56109798E9,,,,0,,5,,1.56109798E9
Raw,1933832555,1833824000000,,,-1311853870175894996,0.0,10.577212494659408,,,0,24,0.0,16431,44489924146125,6,44.292335510253906,45.69330994520794,0.030745791518048265,1,-73224.87182766429,5.896493676118553E-4,1.56109798E9,,,,0,,5,,1.56109798E9
Raw,1933832555,1833824000000,,,-1311853870175894996,0.0,10.577212494659408,,,0,25,0.0,16431,44489923262165,10,33.37337112426758,-567.5640716759915,0.1006005611857792,1,-803444.5218836418,0.001966361654922366,1.56109798E9,,,,0,,5,,1.56109798E9
Raw,1933832555,1833824000000,,,-1311853870175894996,0.0,10.577212494659408,,,0,26,0.0,16431,44489914961491,6,40.97248077392578,438.24470014938333,0.04438816011617577,1,677685.6325305614,8.64144996739924E-4,1.56109798E9,,,,0,,5,,1.56109798E9
Raw,1933832555,1833824000000,,,-1311853870175894996,0.0,10.577212494659408,,,0,27,0.0,16431,44489913075183,22,26.50943374633789,134.84761413952106,0.2227747848121142,4,111415.39292252682,3.4028234663852886E38,1.56109798E9,,,,0,,5,,1.56109798E9
Raw,1933832556,1833824000000,,,-1311853870175894996,0.0,10.577212494659408,,,0,33,0.0,16431,44489926074264,6,42.188167572021484,-104.15631943765965,0.037343617569933846,1,-252581.47080181498,7.51280749682337E-4,1.56109798E9,,,,0,,5,,1.56109798E9
Fix,gps,34.486345,109.463965,358.655182,0.737826,3.000000,1627820486999
Raw,1933833483,1834824000000,,,-1311853870175895385,0.0,10.807100549370151,,,0,10,0.0,16431,44504931790065,10,39.071083068847656,-326.6187928546574,0.05402157144489547,1,-734100.0782589326,0.0010111406445503235,1.57542003E9,,,,0,,1,,1.57542003E9
Raw,1933833483,1834824000000,,,-1311853870175895385,0.0,10.807100549370151,,,0,12,0.0,16431,44504923958198,17,34.505882263183594,-456.2425888829273,0.08849979135597885,4,-920478.3717503104,3.4028234663852886E38,1.57542003E9,,,,0,,1,,1.57542003E9
Raw,1933833483,1834824000000,,,-1311853870175895385,0.0,10.807100549370151,,,0,15,0.0,16431,44504916030728,18,34.040470123291016,415.0950095352209,0.09550354479043494,1,527202.1844804544,0.0018044390017166734,1.57542003E9,,,,0,,1,,1.57542003E9
Raw,1933833483,1834824000000,,,-1311853870175895385,0.0,10.807100549370151,,,0,18,0.0,16431,44504920735323,26,31.04262351989746,565.8386132320677,0.1345266012003582,4,1122077.528500416,3.4028234663852886E38,1.57542003E9,,,,0,,1,,1.57542003E9
Raw,1933833483,1834824000000,,,-1311853870175895385,0.0,10.807100549370151,,,0,23,0.0,16431,44504931245237,6,43.6432991027832,134.6867449447334,0.03268212604198714,1,84642.10494261232,6.29621499683708E-4,1.57542003E9,,,,0,,1,,1.57542003E9
Raw,1933833484,1834824000000,,,-1311853870175895385,0.0,10.807100549370151,,,0,24,0.0,16431,44504925713771,10,39.4874267578125,471.56115346184356,0.05049949571321208,1,562809.351238896,0.001015951856970787,1.57542003E9,,,,0,,1,,1.57542003E9
Raw,1933833484,1834824000000,,,-1311853870175895385,0.0,10.807100549370151,,,0,25,0.0,16431,44504923376322,7,41.90981674194336,-696.8098932614234,0.038038838108248624,1,-1075144.7013710155,7.68694095313549E-4,1.57542003E9,,,,0,,1,,1.57542003E9
Raw,1933833484,1834824000000,,,-1311853870175895385,0.0,10.807100549370151,,,0,31,0.0,16,1834018553201,1000000000,24.011451721191406,-824.2956627095609,2.99792458E8,2,-14.81964534920394,3.4028234663852886E38,1.57542003E9,,,,0,,1,,1.57542003E9
Raw,1933833485,1834824000000,,,-1311853870175895385,0.0,10.807100549370151,,,0,32,0.0,16431,44504927295884,16,35.145511627197266,-393.1096778832473,0.08286777358744352,4,-769638.6278939809,3.4028234663852886E38,1.57542003E9,,,,0,,1,,1.57542003E9
Raw,1933833485,1834824000000,,,-1311853870175895385,0.0,10.807100549370151,,,0,10,0.0,32995,55286930954078,33,35.326454162597656,-756.5400799667791,0.08184443451688656,1,-1532113.4682235136,0.0015340716345235705,1.59806246E9,,,,0,,3,,1.59806246E9
Raw,1933833485,1834824000000,,,-1311853870175895385,0.0,10.807100549370151,,,0,9,0.0,32995,55286933708448,33,38.93859100341797,-68.64774642625824,0.0551643863338076,1,-404091.25333472126,0.0010103575186803937,1.59862502E9,,,,0,,3,,1.59862502E9
Raw,1933833485,1834824000000,,,-1311853870175895385,0.0,10.807100549370151,,,0,16,0.0,99,924492486,59,22.9805908203125,555.2467059711043,4.200808149414986,4,528725.3451875495,3.4028234663852886E38,1.60143744E9,,,,0,,3,,1.60143744E9
Raw,1933833485,1834824000000,,,-1311853870175895385,0.0,10.807100549370151,,,0,23,0.0,32961,55286924500234,33,36.02045822143555,26.382675754389027,0.07454989016248353,4,-6071.174760553561,3.4028234663852886E38,1.60368755E9,,,,0,,3,,1.60368755E9
Raw,1933833485,1834824000000,,,-1311853870175895385,0.0,10.807100549370151,,,0,7,0.0,65,932927866,33,46.252864837646484,-161.73608206932272,0.03232540853438634,1,-531935.5041248816,4.576919018290937E-4,1.60481254E9,,,,0,,3,,1.60481254E9
Raw,1933833486,1834824000000,,,-1311853870175895385,0.0,10.807100549370151,,,0,8,0.0,32961,55286927821161,33,36.502037048339844,-559.6725515277869,0.07117006874640414,1,-552311.0841337901,0.00133377849124372,1.60537498E9,,,,0,,3,,1.60537498E9
Raw,1933833486,1834824000000,,,-1311853870175895385,0.0,10.807100549370151,,,0,193,0.0,35,9491059,13,37.13435745239258,-256.7145668465363,0.06657222803661447,4,-453225.30937070947,3.4028234663852886E38,1.57542003E9,,,,0,,4,,1.57542003E9
Raw,1933833486,1834824000000,,,-1311853870175895385,0.0,10.807100549370151,,,0,194,0.0,35,12441305,35,28.51349449157715,-100.94751580033596,0.17724418424807697,4,-83708.64088565842,3.4028234663852886E38,1.57542003E9,,,,0,,4,,1.57542003E9
Raw,1933833486,1834824000000,,,-1311853870175895385,0.0,10.807100549370151,,,0,3,0.0,16,603724793,1000000000,29.664710998535156,-116.53506764674438,2.99792458E8,6,-70.15189427257715,3.4028234663852886E38,1.56109798E9,,,,0,,5,,1.56109798E9
Raw,1933833486,1834824000000,,,-1311853870175895385,0.0,10.807100549370151,,,0,6,0.0,16431,44490878631156,9,33.855247497558594,-79.71488668005446,0.09796761653118197,1,-121828.23812119864,0.001860242336988449,1.56109798E9,,,,0,,5,,1.56109798E9
Raw,1933833486,1834824000000,,,-1311853870175895385,0.0,10.807100549370151,,,0,14,0.0,16431,44490924336997,6,36.94412612915039,140.01027980315615,0.06708144290278303,1,170555.75110387083,0.0013035435695201159,1.56109798E9,,,,0,,5,,1.56109798E9
Raw,1933833487,1834824000000,,,-1311853870175895385,0.0,10.807100549370151,,,0,16,0.0,16431,44490877988387,8,35.394989013671875,-77.6856086980722,0.0824819412079254,4,-120395.20530555684,3.4028234663852886E38,1.56109798E9,,,,0,,5,,1.56109798E9
Raw,1933833487,1834824000000,,,-1311853870175895385,0.0,10.807100549370151,,,0,24,0.0,16431,44490924145981,6,44.485618591308594,45.83870996504132,0.030745764475083495,1,-73179.05445952398,5.766732501797378E-4,1.56109798E9,,,,0,,5,,1.56109798E9
Raw,1933833487,1834824000000,,,-1311853870175895385,0.0,10.807100549370151,,,0,25,0.0,16431,44490923264052,9,33.71025085449219,-567.5123685894464,0.09679614858098168,1,-804012.1778594591,0.0018915565451607108,1.56109798E9,,,,0,,5,,1.56109798E9
Raw,1933833487,1834824000000,,,-1311853870175895385,0.0,10.807100549370151,,,0,26,0.0,16431,44490914959997,6,39.59040832519531,438.54278531413183,0.051579591726137713,1,678124.1827764034,0.0010131883900612593,1.56109798E9,,,,0,,5,,1.56109798E9
Raw,1933833487,1834824000000,,,-1311853870175895385,0.0,10.807100549370151,,,0,27,0.0,16431,44490913074756,22,26.59716796875,135.29359160373616,0.2205595083472539,4,111550.1567751968,3.4028234663852886E38,1.56109798E9,,,,0,,5,,1.56109798E9
Raw,1933833487,1834824000000,,,-1311853870175895385,0.0,10.807100549370151,,,0,33,0.0,16431,44490926074614,6,42.330726623535156,-103.97923551418125,0.03675356504138269,1,-252685.5330426036,7.390507380478084E-4,1.56109798E9,,,,0,,5,,1.56109798E9
Fix,gps,34.486345,109.463972,358.497681,0.740554,3.000000,1627820487999
Raw,1933834543,1835824000000,,,-1311853870175895772,0.0,10.894159716996871,,,0,10,0.0,16431,44505931791153,13,36.96302032470703,-326.9151057316667,0.06827818562390325,4,-734426.736583024,3.4028234663852886E38,1.57542003E9,,,,0,,1,,1.57542003E9
Raw,1933834544,1835824000000,,,-1311853870175895772,0.0,10.894159716996871,,,0,12,0.0,16431,44505923959673,25,31.459856033325195,-456.67390237022346,0.1253746711373211,4,-920934.6175429368,3.4028234663852886E38,1.57542003E9,,,,0,,1,,1.57542003E9
Raw,1933834544,1835824000000,,,-1311853870175895772,0.0,10.894159716996871,,,0,15,0.0,16431,44505916029369,18,33.978511810302734,414.5687082415957,0.09616636369649878,1,527616.983144498,0.00181735644582659,1.57542003E9,,,,0,,1,,1.57542003E9
Raw,1933834545,1835824000000,,,-1311853870175895772,0.0,10.894159716996871,,,0,18,0.0,16431,44505920733430,22,32.28524398803711,566.2474322980588,0.11709111979625103,4,1122643.7343063913,3.4028234663852886E38,1.57542003E9,,,,0,,1,,1.57542003E9
Raw,1933834546,1835824000000,,,-1311853870175895772,0.0,10.894159716996871,,,0,23,0.0,16431,44505931244767,7,42.494956970214844,134.69564898649998,0.03701559888863851,1,84776.75040178472,7.186157163232565E-4,1.57542003E9,,,,0,,1,,1.57542003E9
Raw,1933834546,1835824000000,,,-1311853870175895772,0.0,10.894159716996871,,,0,24,0.0,16431,44505925712185,9,40.070526123046875,471.4352187849918,0.047287099372253644,1,563280.7592471206,9.012380614876747E-4,1.57542003E9,,,,0,,1,,1.57542003E9
Raw,1933834546,1835824000000,,,-1311853870175895772,0.0,10.894159716996871,,,0,25,0.0,16431,44505923378663,6,42.916526794433594,-697.1670774057825,0.03394285449798194,1,-1075841.6376067104,6.845704047009349E-4,1.57542003E9,,,,0,,1,,1.57542003E9
Raw,1933834547,1835824000000,,,-1311853870175895772,0.0,10.894159716996871,,,0,31,0.0,16,1835018555949,1000000000,24.529613494873047,-823.9243684282014,2.99792458E8,2,-14.80652602945426,3.4028234663852886E38,1.57542003E9,,,,0,,1,,1.57542003E9
Raw,1933834547,1835824000000,,,-1311853870175895772,0.0,10.894159716996871,,,0,32,0.0,16431,44505927297188,16,35.27939987182617,-392.35028666946255,0.08162049380585179,4,-770031.2110172352,3.4028234663852886E38,1.57542003E9,,,,0,,1,,1.57542003E9
Raw,1933834547,1835824000000,,,-1311853870175895772,0.0,10.894159716996871,,,0,10,0.0,32995,55287930956571,35,34.39835739135742,-756.4275396953408,0.09085215484994397,1,-1532870.0271783927,0.001707066548988223,1.59806246E9,,,,0,,3,,1.59806246E9
Raw,1933834548,1835824000000,,,-1311853870175895772,0.0,10.894159716996871,,,0,9,0.0,32995,55287933708622,33,37.774723052978516,-68.37513789776054,0.06272073987083604,1,-404159.8319051352,0.0011552302166819572,1.59862502E9,,,,0,,3,,1.59862502E9
Raw,1933834548,1835824000000,,,-1311853870175895772,0.0,10.894159716996871,,,0,16,0.0,99,1924490751,112,24.520896911621094,554.5229650068425,0.27793778987449047,4,529279.9691752066,3.4028234663852886E38,1.60143744E9,,,,0,,3,,1.60143744E9
Raw,1933834548,1835824000000,,,-1311853870175895772,0.0,10.894159716996871,,,0,23,0.0,32961,55287924500150,33,35.42668914794922,27.29729977671397,0.07976707717235476,4,-6044.263634457614,3.4028234663852886E38,1.60368755E9,,,,0,,3,,1.60368755E9
Raw,1933834550,1835824000000,,,-1311853870175895772,0.0,10.894159716996871,,,0,7,0.0,65,1932928395,33,46.247039794921875,-161.72645377535503,0.032325504224877066,1,-532097.3076255203,4.5799906365573406E-4,1.60481254E9,,,,0,,3,,1.60481254E9
Raw,1933834550,1835824000000,,,-1311853870175895772,0.0,10.894159716996871,,,0,8,0.0,32961,55287927823030,33,36.97552490234375,-559.3456326048201,0.06746923901758908,1,-552870.6663880959,0.0012630174169316888,1.60537498E9,,,,0,,3,,1.60537498E9
Raw,1933834550,1835824000000,,,-1311853870175895772,0.0,10.894159716996871,,,0,193,0.0,35,9491934,9,39.89126205444336,-256.97817760651196,0.04893164030632102,4,-453482.1668073392,3.4028234663852886E38,1.57542003E9,,,,0,,4,,1.57542003E9
Raw,1933834551,1835824000000,,,-1311853870175895772,0.0,10.894159716996871,,,0,194,0.0,35,12441602,39,27.63750648498535,-100.91843494430788,0.19581461311857618,4,-83809.664670317,3.4028234663852886E38,1.57542003E9,,,,0,,4,,1.57542003E9
Raw,1933834551,1835824000000,,,-1311853870175895772,0.0,10.894159716996871,,,0,6,0.0,16431,44491878631433,10,33.30070495605469,-79.6053030617195,0.10420533014327404,1,-121907.9479296213,0.001982880989089608,1.56109798E9,,,,0,,5,,1.56109798E9
Raw,1933834551,1835824000000,,,-1311853870175895772,0.0,10.894159716996871,,,0,14,0.0,16431,44491924336530,6,37.667659759521484,139.6503775828894,0.061782215858710965,1,170695.5751187911,0.001199358026497066,1.56109798E9,,,,0,,5,,1.56109798E9
Raw,1933834552,1835824000000,,,-1311853870175895772,0.0,10.894159716996871,,,0,16,0.0,16431,44491877988629,7,35.4471321105957,-77.55395668913872,0.08200770745680125,4,-120472.91118676556,3.4028234663852886E38,1.56109798E9,,,,0,,5,,1.56109798E9
Raw,1933834552,1835824000000,,,-1311853870175895772,0.0,10.894159716996871,,,0,24,0.0,16431,44491924145833,6,43.99821090698242,45.76480641837867,0.030745737432118725,1,-73133.24667213626,6.09958078712225E-4,1.56109798E9,,,,0,,5,,1.56109798E9
Raw,1933834552,1835824000000,,,-1311853870175895772,0.0,10.894159716996871,,,0,25,0.0,16431,44491923265976,9,33.55110168457031,-567.3568503403328,0.0985755590210427,1,-804579.5808928726,0.0019265348091721535,1.56109798E9,,,,0,,5,,1.56109798E9
Raw,1933834553,1835824000000,,,-1311853870175895772,0.0,10.894159716996871,,,0,26,0.0,16431,44491914958553,6,38.196441650390625,438.4220311706715,0.060089937851139835,1,678562.5487886141,0.001128521398641169,1.56109798E9,,,,0,,5,,1.56109798E9
Raw,1933834553,1835824000000,,,-1311853870175895772,0.0,10.894159716996871,,,0,27,0.0,16431,44491913074286,19,27.558422088623047,135.86014427851484,0.19769900018741937,4,111684.67101837446,3.4028234663852886E38,1.56109798E9,,,,0,,5,,1.56109798E9
Raw,1933834553,1835824000000,,,-1311853870175895772,0.0,10.894159716996871,,,0,33,0.0,16431,44491926074957,6,42.388816833496094,-103.98264375983354,0.03651591146698133,1,-252789.60924286212,7.341246819123626E-4,1.56109798E9,,,,0,,5,,1.56109798E9
Fix,gps,34.486345,109.463978,358.272339,0.703587,3.000000,1627820488999
Raw,1933835507,1836824000000,,,-1311853870175896160,0.0,11.223639737567906,,,0,10,0.0,16431,44506931792271,12,37.62217712402344,-326.37097931328003,0.06344359831914606,4,-734753.3557992997,3.4028234663852886E38,1.57542003E9,,,,0,,1,,1.57542003E9
Raw,1933835507,1836824000000,,,-1311853870175896160,0.0,11.223639737567906,,,0,12,0.0,16431,44506923961255,25,31.407827377319336,-456.37666926688803,0.12612392767970304,4,-921390.5880473903,3.4028234663852886E38,1.57542003E9,,,,0,,1,,1.57542003E9
Raw,1933835507,1836824000000,,,-1311853870175896160,0.0,11.223639737567906,,,0,15,0.0,16431,44506916027954,15,35.57102966308594,414.66308256370735,0.08053938264163324,1,528031.5554893347,0.001512913964688778,1.57542003E9,,,,0,,1,,1.57542003E9
Raw,1933835508,1836824000000,,,-1311853870175896160,0.0,11.223639737567906,,,0,18,0.0,16431,44506920731526,29,30.22272300720215,566.4436790827172,0.14747390735750343,4,1123209.6855946442,3.4028234663852886E38,1.57542003E9,,,,0,,1,,1.57542003E9
Raw,1933835508,1836824000000,,,-1311853870175896160,0.0,11.223639737567906,,,0,23,0.0,16431,44506931244319,6,42.620941162109375,134.67418555950474,0.03651163035763538,1,84911.34301933189,7.082677911967039E-4,1.57542003E9,,,,0,,1,,1.57542003E9
Raw,1933835508,1836824000000,,,-1311853870175896160,0.0,11.223639737567906,,,0,24,0.0,16431,44506925710611,8,41.11569595336914,471.56684523208287,0.04204228277329941,1,563752.0886186939,7.99063011072576E-4,1.57542003E9,,,,0,,1,,1.57542003E9
Raw,1933835508,1836824000000,,,-1311853870175896160,0.0,11.223639737567906,,,0,25,0.0,16431,44506923380983,6,42.88103485107422,-697.0473116535613,0.034079764707701715,1,-1076538.722678827,6.87373336404562E-4,1.57542003E9,,,,0,,1,,1.57542003E9
Raw,1933835508,1836824000000,,,-1311853870175896160,0.0,11.223639737567906,,,0,31,0.0,16,1836018558697,1000000000,18.96538543701172,-823.9243684282014,2.99792458E8,2,-14.825855632033074,3.4028234663852886E38,1.57542003E9,,,,0,,1,,1.57542003E9
Raw,1933835508,1836824000000,,,-1311853870175896160,0.0,11.223639737567906,,,0,32,0.0,16431,44506927298515,15,35.78738784790039,-392.8150691290641,0.07705871176924123,4,-770423.7062763539,3.4028234663852886E38,1.57542003E9,,,,0,,1,,1.57542003E9
Raw,1933835509,1836824000000,,,-1311853870175896160,0.0,11.223639737567906,,,0,10,0.0,32995,55288930959080,33,36.3821907043457,-756.9647473750533,0.07270374600628166,4,-1533626.6568217436,3.4028234663852886E38,1.59806246E9,,,,0,,3,,1.59806246E9
Raw,1933835509,1836824000000,,,-1311853870175896160,0.0,11.223639737567906,,,0,9,0.0,32995,55288933708903,33,39.305137634277344,-68.76288548500642,0.05298685768731051,4,-404228.55193943623,3.4028234663852886E38,1.59862502E9,,,,0,,3,,1.59862502E9
Raw,1933835509,1836824000000,,,-1311853870175896160,0.0,11.223639737567906,,,0,16,0.0,99,924488872,76,27.870895385742188,554.586494705801,0.18925200948818988,4,529834.4322979435,3.4028234663852886E38,1.60143744E9,,,,0,,3,,1.60143744E9
Raw,1933835509,1836824000000,,,-1311853870175896160,0.0,11.223639737567906,,,0,23,0.0,32961,55288924500083,33,35.12899398803711,27.21059400731994,0.08252011755326882,4,-6017.012480769829,3.4028234663852886E38,1.60368755E9,,,,0,,3,,1.60368755E9
Raw,1933835509,1836824000000,,,-1311853870175896160,0.0,11.223639737567906,,,0,7,0.0,65,932928946,33,45.81023406982422,-161.68722486789727,0.03232560407582391,1,-532259.1216643003,4.81620489154011E-4,1.60481254E9,,,,0,,3,,1.60481254E9
Raw,1933835509,1836824000000,,,-1311853870175896160,0.0,11.223639737567906,,,0,8,0.0,32961,55288927824908,33,37.38045883178711,-559.3856794912344,0.06446047204089486,1,-553430.0716803019,0.0012054872931912541,1.60537498E9,,,,0,,3,,1.60537498E9
Raw,1933835510,1836824000000,,,-1311853870175896160,0.0,11.223639737567906,,,0,193,0.0,35,9492780,10,39.31497573852539,-257.04777398273154,0.05217127515348732,1,-453739.21366676147,9.831435745581985E-4,1.57542003E9,,,,0,,4,,1.57542003E9
Raw,1933835510,1836824000000,,,-1311853870175896160,0.0,11.223639737567906,,,0,194,0.0,35,12441953,39,27.506519317626953,-101.40838729805154,0.19875603895253624,4,-83910.85538401901,3.4028234663852886E38,1.57542003E9,,,,0,,4,,1.57542003E9
Raw,1933835510,1836824000000,,,-1311853870175896160,0.0,11.223639737567906,,,0,6,0.0,16431,44492878631687,11,32.477203369140625,-79.87990541392378,0.114235216298263,1,-121987.68220811154,0.002055396093055606,1.56109798E9,,,,0,,5,,1.56109798E9
Raw,1933835510,1836824000000,,,-1311853870175896160,0.0,11.223639737567906,,,0,14,0.0,16431,44492924336064,6,37.77555465698242,139.84618981622708,0.06102907345031433,1,170835.27399815983,0.0011845520930364728,1.56109798E9,,,,0,,5,,1.56109798E9
Raw,1933835510,1836824000000,,,-1311853870175896160,0.0,11.223639737567906,,,0,16,0.0,16431,44492877988908,8,34.452457427978516,-77.7185493923015,0.09156520710318267,1,-120550.61638952444,0.0017366369720548391,1.56109798E9,,,,0,,5,,1.56109798E9
Raw,1933835510,1836824000000,,,-1311853870175896160,0.0,11.223639737567906,,,0,24,0.0,16431,44492924145671,6,44.217098236083984,45.86361998045243,0.030745708308925895,1,-73087.48368368926,5.947790341451764E-4,1.56109798E9,,,,0,,5,,1.56109798E9
Raw,1933835511,1836824000000,,,-1311853870175896160,0.0,11.223639737567906,,,0,25,0.0,16431,44492923267856,10,32.85430908203125,-567.4510883326184,0.10676052419392862,4,-805146.9998852568,3.4028234663852886E38,1.56109798E9,,,,0,,5,,1.56109798E9
Raw,1933835511,1836824000000,,,-1311853870175896160,0.0,11.223639737567906,,,0,26,0.0,16431,44492914957094,6,38.622642517089844,438.46494098343373,0.05734119938185231,1,679000.8100949832,0.0010744837345555425,1.56109798E9,,,,0,,5,,1.56109798E9
Raw,1933835511,1836824000000,,,-1311853870175896160,0.0,11.223639737567906,,,0,27,0.0,16431,44492913073858,19,27.6860408782959,135.844508951585,0.19484975341922095,4,111820.4189377057,3.4028234663852886E38,1.56109798E9,,,,0,,5,,1.56109798E9
Raw,1933835511,1836824000000,,,-1311853870175896160,0.0,11.223639737567906,,,0,33,0.0,16431,44492926075299,6,41.81770324707031,-104.02242650720979,0.038923388523148306,1,-252893.7070293527,7.840170292183757E-4,1.56109798E9,,,,0,,5,,1.56109798E9
Fix,gps,34.486344,109.463986,358.266937,0.873939,3.000000,1627820489999
Raw,1933836514,1837824000000,,,-1311853870175896549,0.0,11.405631332705372,,,0,10,0.0,16431,44507931793375,11,37.94053649902344,-326.8045763251632,0.061236850789328695,4,-735079.6544871004,3.4028234663852886E38,1.57542003E9,,,,0,,1,,1.57542003E9
Raw,1933836514,1837824000000,,,-1311853870175896549,0.0,11.405631332705372,,,0,12,0.0,16431,44507923962749,26,31.038381576538086,-456.37837338971417,0.13157350944744184,4,-921846.5830861416,3.4028234663852886E38,1.57542003E9,,,,0,,1,,1.57542003E9
Raw,1933836514,1837824000000,,,-1311853870175896549,0.0,11.405631332705372,,,0,15,0.0,16431,44507916026613,15,35.777740478515625,414.24260729758544,0.07871285919648624,1,528446.056714365,0.0014773340662941337,1.57542003E9,,,,0,,1,,1.57542003E9
Raw,1933836514,1837824000000,,,-1311853870175896549,0.0,11.405631332705372,,,0,18,0.0,16431,44507920729676,31,29.444385528564453,566.0350645114652,0.16094922532156064,4,1123775.8086388418,3.4028234663852886E38,1.57542003E9,,,,0,,1,,1.57542003E9
Raw,1933836514,1837824000000,,,-1311853870175896549,0.0,11.405631332705372,,,0,23,0.0,16431,44507931243868,7,42.41343307495117,134.47350805549843,0.037345427368345396,4,85045.9928460987,3.4028234663852886E38,1.57542003E9,,,,0,,1,,1.57542003E9
Raw,1933836515,1837824000000,,,-1311853870175896549,0.0,11.405631332705372,,,0,24,0.0,16431,44507925709061,8,41.061134338378906,471.2432323073988,0.04230046403818949,1,564223.4735250266,8.040980319492519E-4,1.57542003E9,,,,0,,1,,1.57542003E9
Raw,1933836515,1837824000000,,,-1311853870175896549,0.0,11.405631332705372,,,0,25,0.0,16431,44507923383298,7,41.70587158203125,-697.0584225343878,0.03892940038223955,1,-1077235.8816801026,7.869568653404713E-4,1.57542003E9,,,,0,,1,,1.57542003E9
Raw,1933836515,1837824000000,,,-1311853870175896549,0.0,11.405631332705372,,,0,31,0.0,16,1837018561445,1000000000,24.37493133544922,-823.7387553699782,2.99792458E8,2,-14.816074017613412,3.4028234663852886E38,1.57542003E9,,,,0,,1,,1.57542003E9
Raw,1933836515,1837824000000,,,-1311853870175896549,0.0,11.405631332705372,,,0,32,0.0,16431,44507927299810,16,35.36136245727539,-392.56616494907803,0.08086672732903738,4,-770816.054051505,3.4028234663852886E38,1.57542003E9,,,,0,,1,,1.57542003E9
Raw,1933836515,1837824000000,,,-1311853870175896549,0.0,11.405631332705372,,,0,10,0.0,32995,55289930961641,33,36.44268798828125,-756.8339389069188,0.07221325319264638,4,-1534383.1794338538,3.4028234663852886E38,1.59806246E9,,,,0,,3,,1.59806246E9
Raw,1933836515,1837824000000,,,-1311853870175896549,0.0,11.405631332705372,,,0,9,0.0,32995,55289933709101,33,38.45646667480469,-68.62498786591513,0.05817232537973424,4,-404296.9878562258,3.4028234663852886E38,1.59862502E9,,,,0,,3,,1.59862502E9
Raw,1933836516,1837824000000,,,-1311853870175896549,0.0,11.405631332705372,,,0,16,0.0,99,1924487086,33,36.943565368652344,554.4820319765586,0.06711273369325033,4,530389.0409739243,3.4028234663852886E38,1.60143744E9,,,,0,,3,,1.60143744E9
Raw,1933836516,1837824000000,,,-1311853870175896549,0.0,11.405631332705372,,,0,23,0.0,32961,55289924499958,34,34.82804870605469,27.148514942917174,0.08540076744424974,4,-5989.474438789485,3.4028234663852886E38,1.60368755E9,,,,0,,3,,1.60368755E9
Raw,1933836516,1837824000000,,,-1311853870175896549,0.0,11.405631332705372,,,0,7,0.0,65,1932929468,33,45.882102966308594,-161.8989791702735,0.03232569768608658,1,-532420.8449673938,4.776518326252699E-4,1.60481254E9,,,,0,,3,,1.60481254E9
Raw,1933836516,1837824000000,,,-1311853870175896549,0.0,11.405631332705372,,,0,8,0.0,32961,55289927826766,33,36.31071472167969,-559.4324065391272,0.07272476463059235,1,-553989.3460961017,0.0013634833740070462,1.60537498E9,,,,0,,3,,1.60537498E9
Raw,1933836516,1837824000000,,,-1311853870175896549,0.0,11.405631332705372,,,0,193,0.0,35,9493641,9,39.58992385864258,-257.271797969456,0.05059903462584736,1,-453996.3091982697,9.525098721496761E-4,1.57542003E9,,,,0,,4,,1.57542003E9
Raw,1933836516,1837824000000,,,-1311853870175896549,0.0,11.405631332705372,,,0,194,0.0,35,12442292,31,29.542469024658203,-101.43492049045454,0.15769313587044564,4,-84012.16179818028,3.4028234663852886E38,1.57542003E9,,,,0,,4,,1.57542003E9
Raw,1933836517,1837824000000,,,-1311853870175896549,0.0,11.405631332705372,,,0,6,0.0,16431,44493878631958,10,32.830142974853516,-80.343622796759,0.10981996552614626,4,-122067.3396756343,3.4028234663852886E38,1.56109798E9,,,,0,,5,,1.56109798E9
Raw,1933836517,1837824000000,,,-1311853870175896549,0.0,11.405631332705372,,,0,14,0.0,16431,44493924335587,6,38.38370132446289,139.6555410750526,0.056954896870792804,1,170974.9625589247,0.001104452065192163,1.56109798E9,,,,0,,5,,1.56109798E9
Raw,1933836517,1837824000000,,,-1311853870175896549,0.0,11.405631332705372,,,0,16,0.0,16431,44493877989155,8,34.68562316894531,-77.81272774028815,0.08922567445588703,1,-120628.24524053738,0.0016906381351873279,1.56109798E9,,,,0,,5,,1.56109798E9
Raw,1933836517,1837824000000,,,-1311853870175896549,0.0,11.405631332705372,,,0,24,0.0,16431,44493924145526,6,43.11627197265625,45.7777747930856,0.03332296525837691,1,-73041.63752119368,6.751448381692171E-4,1.56109798E9,,,,0,,5,,1.56109798E9
Raw,1933836517,1837824000000,,,-1311853870175896549,0.0,11.405631332705372,,,0,25,0.0,16431,44493923269733,9,33.893775939941406,-567.6556512366683,0.094785674729011,4,-805714.3940320122,3.4028234663852886E38,1.56109798E9,,,,0,,5,,1.56109798E9
Raw,1933836517,1837824000000,,,-1311853870175896549,0.0,11.405631332705372,,,0,26,0.0,16431,44493914955648,6,39.65150833129883,438.05584925779044,0.05123611695036212,1,679439.118821405,9.54457267653197E-4,1.56109798E9,,,,0,,5,,1.56109798E9
Raw,1933836518,1837824000000,,,-1311853870175896549,0.0,11.405631332705372,,,0,27,0.0,16431,44493913073376,15,29.71625328063965,135.76668166211516,0.15472729647998218,4,111955.91311989039,3.4028234663852886E38,1.56109798E9,,,,0,,5,,1.56109798E9
Raw,1933836518,1837824000000,,,-1311853870175896549,0.0,11.405631332705372,,,0,33,0.0,16431,44493926075656,6,42.00923156738281,-104.26912384813602,0.03809841167940953,1,-252997.76389752442,7.669184706173837E-4,1.56109798E9,,,,0,,5,,1.56109798E9
Fix,gps,34.486344,109.463995,358.363739,0.998917,3.000000,1627820490999
Raw,1933837525,1838824000000,,,-1311853870175896938,0.0,11.623095542374877,,,0,10,0.0,16431,44508931794453,11,37.943634033203125,-326.05527351850924,0.06121596529961379,4,-735405.9909472228,3.4028234663852886E38,1.57542003E9,,,,0,,1,,1.57542003E9
Raw,1933837526,1838824000000,,,-1311853870175896938,0.0,11.623095542374877,,,0,12,0.0,16431,44508923964252,25,31.249717712402344,-455.9608292148532,0.12842825454732387,4,-922302.3758469466,3.4028234663852886E38,1.57542003E9,,,,0,,1,,1.57542003E9
Raw,1933837526,1838824000000,,,-1311853870175896938,0.0,11.623095542374877,,,0,15,0.0,16431,44508916025184,19,33.8671875,414.72640776792673,0.09736886864934313,1,528860.669930795,0.001840798882767558,1.57542003E9,,,,0,,1,,1.57542003E9
Raw,1933837526,1838824000000,,,-1311853870175896938,0.0,11.623095542374877,,,0,18,0.0,16431,44508920727733,31,29.631643295288086,565.7759696769788,0.15759568134632573,4,1124341.8314020853,3.4028234663852886E38,1.57542003E9,,,,0,,1,,1.57542003E9
Raw,1933837527,1838824000000,,,-1311853870175896938,0.0,11.623095542374877,,,0,23,0.0,16431,44508931243436,6,43.09009552001953,135.05934288005488,0.03469801472759605,4,85180.83028992373,3.4028234663852886E38,1.57542003E9,,,,0,,1,,1.57542003E9
Raw,1933837528,1838824000000,,,-1311853870175896938,0.0,11.623095542374877,,,0,24,0.0,16431,44508925707479,9,39.72223663330078,471.4145988987955,0.049178887892531664,1,564694.9539375767,9.381102281622589E-4,1.57542003E9,,,,0,,1,,1.57542003E9
Raw,1933837528,1838824000000,,,-1311853870175896938,0.0,11.623095542374877,,,0,25,0.0,16431,44508923385643,7,42.05121994018555,-696.8758087323386,0.03743607538625543,1,-1077932.922325995,7.562814862467349E-4,1.57542003E9,,,,0,,1,,1.57542003E9
Raw,1933837528,1838824000000,,,-1311853870175896938,0.0,11.623095542374877,,,0,31,0.0,16,1838018564193,1000000000,18.95233154296875,-823.7387553699782,2.99792458E8,2,-14.80963226809564,3.4028234663852886E38,1.57542003E9,,,,0,,1,,1.57542003E9
Raw,1933837529,1838824000000,,,-1311853870175896938,0.0,11.623095542374877,,,0,32,0.0,16431,44508927301122,15,35.89624786376953,-392.3135798637875,0.07611575271089382,4,-771208.4633451181,3.4028234663852886E38,1.57542003E9,,,,0,,1,,1.57542003E9
Raw,1933837529,1838824000000,,,-1311853870175896938,0.0,11.623095542374877,,,0,10,0.0,32995,55290930964121,33,36.861942291259766,-756.1367481762882,0.06890379757089929,4,-1535139.5365990256,3.4028234663852886E38,1.59806246E9,,,,0,,3,,1.59806246E9
Raw,1933837532,1838824000000,,,-1311853870175896938,0.0,11.623095542374877,,,0,9,0.0,32995,55290933709369,33,39.645118713378906,-67.83411298291745,0.051047656609105985,4,-404365.1493147649,3.4028234663852886E38,1.59862502E9,,,,0,,3,,1.59862502E9
Raw,1933837532,1838824000000,,,-1311853870175896938,0.0,11.623095542374877,,,0,16,0.0,99,924485223,33,39.990596771240234,554.7110660843919,0.04749406958278102,4,530943.764127692,3.4028234663852886E38,1.60143744E9,,,,0,,3,,1.60143744E9
Raw,1933837532,1838824000000,,,-1311853870175896938,0.0,11.623095542374877,,,0,23,0.0,32961,55290924499855,33,35.17455291748047,27.337602281552194,0.08209259740344327,4,-5961.852181946424,3.4028234663852886E38,1.60368755E9,,,,0,,3,,1.60368755E9
Raw,1933837533,1838824000000,,,-1311853870175896938,0.0,11.623095542374877,,,0,7,0.0,65,932930030,33,45.54960632324219,-161.57269077275237,0.03232579753703342,1,-532582.4746715178,4.962907405570149E-4,1.60481254E9,,,,0,,3,,1.60481254E9
