# 
# Header Description:
# 
# Version: v2.0.0.1 Platform: 10 Manufacturer: HUAWEI Model: BLA-AL00
# 
# Raw,ElapsedRealtimeMillis,TimeNanos,LeapSecond,TimeUncertaintyNanos,FullBiasNanos,BiasNanos,BiasUncertaintyNanos,DriftNanosPerSecond,DriftUncertaintyNanosPerSecond,HardwareClockDiscontinuityCount,Svid,TimeOffsetNanos,State,ReceivedSvTimeNanos,ReceivedSvTimeUncertaintyNanos,Cn0DbHz,PseudorangeRateMetersPerSecond,PseudorangeRateUncertaintyMetersPerSecond,AccumulatedDeltaRangeState,AccumulatedDeltaRangeMeters,AccumulatedDeltaRangeUncertaintyMeters,CarrierFrequencyHz,CarrierCycles,CarrierPhase,CarrierPhaseUncertainty,MultipathIndicator,SnrInDb,ConstellationType,AgcDb,CarrierFrequencyHz
# 
# Fix,Provider,Latitude,Longitude,Altitude,Speed,Accuracy,(UTC)TimeInMs
# 
# Nav,Svid,Type,Status,MessageId,Sub-messageId,Data(Bytes)
# 
Fix,gps,34.486726,109.464161,358.068817,0.000000,6.000000,1627818677000
Raw,1932023539,24825000000,,,-1311853870175194934,0.0,7.054020153616257,,,0,10,0.0,16431,42694930377031,6,42.87821578979492,-464.6679084651921,0.035349053302160344,1,-10582.35132409976,6.875963881611824E-4,1.57542003E9,,,,0,,1,,1.57542003E9
Raw,1932023539,24825000000,,,-1311853870175194934,0.0,7.054020153616257,,,0,12,0.0,16431,42694921766556,15,35.6068115234375,-589.8786398579755,0.07765485520554988,1,-13423.909009171633,0.001506694359704852,1.57542003E9,,,,0,,1,,1.57542003E9
Raw,1932023540,24825000000,,,-1311853870175194934,0.0,7.054020153616257,,,0,15,0.0,16431,42694919539048,63,22.254867553710938,413.55802707586827,4.20351450947825,4,8992.468257029439,3.4028234663852886E38,1.57542003E9,,,,0,,1,,1.57542003E9
Raw,1932023540,24825000000,,,-1311853870175194934,0.0,7.054020153616257,,,0,18,0.0,16431,42694925042229,69,21.05797576904297,517.3995353832408,4.200906935285063,4,7598.6338840078715,3.4028234663852886E38,1.57542003E9,,,,0,,1,,1.57542003E9
Raw,1932023540,24825000000,,,-1311853870175194934,0.0,7.054020153616257,,,0,23,0.0,16431,42694932530723,12,37.34132385253906,-39.142333757879754,0.06559167093632412,1,-920.642192147097,0.0012339557288214564,1.57542003E9,,,,0,,1,,1.57542003E9
Raw,1932023541,24825000000,,,-1311853870175194934,0.0,7.054020153616257,,,0,24,0.0,16431,42694929231063,95,16.00014877319336,350.5358840598874,4.201660477097247,4,7952.753281004642,3.4028234663852886E38,1.57542003E9,,,,0,,1,,1.57542003E9
Raw,1932023541,24825000000,,,-1311853870175194934,0.0,7.054020153616257,,,0,25,0.0,16431,42694920019937,24,31.756608963012695,-734.2867579591666,0.12407635088006752,1,-16692.79333047069,0.0023471200838685036,1.57542003E9,,,,0,,1,,1.57542003E9
Raw,1932023541,24825000000,,,-1311853870175194934,0.0,7.054020153616257,,,0,32,0.0,16431,42694925762916,6,46.281532287597656,-446.99257610018003,0.031036607400731914,1,-10171.710377316154,4.6469480730593204E-4,1.57542003E9,,,,0,,1,,1.57542003E9
Raw,1932023542,24825000000,,,-1311853870175194934,0.0,7.054020153616257,,,0,10,0.0,32995,53476926902961,33,37.66412353515625,-900.7918277574436,0.062268722955384714,1,-17765.957772946593,0.0011720933252945542,1.59806246E9,,,,0,,3,,1.59806246E9
Raw,1932023542,24825000000,,,-1311853870175194934,0.0,7.054020153616257,,,0,9,0.0,32995,53476933387769,34,34.727237701416016,-366.49799358286737,0.08798699017663614,1,-8000.711224357804,0.0016407513758167624,1.59862502E9,,,,0,,3,,1.59862502E9
Raw,1932023542,24825000000,,,-1311853870175194934,0.0,7.054020153616257,,,0,16,0.0,51,8279048,93,26.089874267578125,353.2788742432997,0.2328207053649839,4,4582.246806486267,3.4028234663852886E38,1.60143744E9,,,,0,,3,,1.60143744E9
Raw,1932023542,24825000000,,,-1311853870175194934,0.0,7.054020153616257,,,0,23,0.0,32995,53476924817569,35,34.575103759765625,-255.64856985387235,0.08795755911005382,4,-4294.5140605442175,3.4028234663852886E38,1.60368755E9,,,,0,,3,,1.60368755E9
Raw,1932023543,24825000000,,,-1311853870175194934,0.0,7.054020153616257,,,0,7,0.0,32995,53476932698394,33,37.84721374511719,-241.06161928667473,0.06203823368641942,1,-5248.522857087039,0.0011428180150687695,1.60481254E9,,,,0,,3,,1.60481254E9
Raw,1932023543,24825000000,,,-1311853870175194934,0.0,7.054020153616257,,,0,8,0.0,32995,53476925421028,33,38.790283203125,-564.0678251209686,0.054581223520588695,1,-11120.203226556558,0.0010248762555420399,1.60537498E9,,,,0,,3,,1.60537498E9
Raw,1932023543,24825000000,,,-1311853870175194934,0.0,7.054020153616257,,,0,193,0.0,35,8997353,23,31.91954803466797,-237.6956699629385,0.11985475269844281,4,-5404.088798615289,3.4028234663852886E38,1.57542003E9,,,,0,,4,,1.57542003E9
Raw,1932023544,24825000000,,,-1311853870175194934,0.0,7.054020153616257,,,0,194,0.0,35,12761489,24,31.684648513793945,-124.67866164339165,0.12377301202446717,1,-2844.3389028992606,0.002231295220553875,1.57542003E9,,,,0,,4,,1.57542003E9
Fix,gps,34.486726,109.464161,358.247711,0.000000,6.000000,1627818678000
Raw,1932024486,25825000000,,,-1311853870175195322,0.0,6.99455795480122,,,0,10,0.0,16431,42695930378558,6,42.90375518798828,-464.6840294671274,0.03525102047463996,1,-11047.027776165478,6.855776300653815E-4,1.57542003E9,,,,0,,1,,1.57542003E9
Raw,1932024487,25825000000,,,-1311853870175195322,0.0,6.99455795480122,,,0,12,0.0,16431,42695921768546,14,36.33189392089844,-589.8070666992776,0.07146137556290977,1,-14013.745077075775,0.0013860247563570738,1.57542003E9,,,,0,,1,,1.57542003E9
Raw,1932024487,25825000000,,,-1311853870175195322,0.0,6.99455795480122,,,0,15,0.0,16431,42695919537804,64,23.27179718017578,413.855737333595,0.32350591775271664,4,9405.831225598002,3.4028234663852886E38,1.57542003E9,,,,0,,1,,1.57542003E9
Raw,1932024487,25825000000,,,-1311853870175195322,0.0,6.99455795480122,,,0,18,0.0,16431,42695925040362,60,23.838268280029297,517.4652463594168,0.30069516864805945,4,8116.076323771547,3.4028234663852886E38,1.57542003E9,,,,0,,1,,1.57542003E9
Raw,1932024488,25825000000,,,-1311853870175195322,0.0,6.99455795480122,,,0,23,0.0,16431,42695932530855,12,37.68193435668945,-39.06639378443987,0.06315600262949814,1,-959.7483483499403,0.001186503330245614,1.57542003E9,,,,0,,1,,1.57542003E9
Raw,1932024488,25825000000,,,-1311853870175195322,0.0,6.99455795480122,,,0,24,0.0,16431,42695929229863,96,15.91739273071289,351.04040666379456,4.201660210828056,4,8303.576866722598,3.4028234663852886E38,1.57542003E9,,,,0,,1,,1.57542003E9
Raw,1932024488,25825000000,,,-1311853870175195322,0.0,6.99455795480122,,,0,25,0.0,16431,42695920022350,22,32.43830108642578,-734.2718298432096,0.11498306660647689,1,-17427.094513159656,0.002169954590499401,1.57542003E9,,,,0,,1,,1.57542003E9
Raw,1932024489,25825000000,,,-1311853870175195322,0.0,6.99455795480122,,,0,32,0.0,16431,42695925764415,6,45.966796875,-446.98933826681036,0.031036875750151557,1,-10618.692088743443,4.8184196930378675E-4,1.57542003E9,,,,0,,1,,1.57542003E9
Raw,1932024489,25825000000,,,-1311853870175195322,0.0,6.99455795480122,,,0,10,0.0,32995,53477926905968,33,39.07942199707031,-900.6839908650054,0.0530932322293485,1,-18666.708080423843,9.958574082702398E-4,1.59806246E9,,,,0,,3,,1.59806246E9
Raw,1932024490,25825000000,,,-1311853870175195322,0.0,6.99455795480122,,,0,9,0.0,32995,53477933389081,36,34.36664962768555,-366.2989861192307,0.09161476645646632,1,-8367.13351962706,0.0017102992860600352,1.59862502E9,,,,0,,3,,1.59862502E9
Raw,1932024491,25825000000,,,-1311853870175195322,0.0,6.99455795480122,,,0,16,0.0,99,1928277731,116,24.228281021118164,353.44990001013116,0.2881141490475876,4,4935.604449076796,3.4028234663852886E38,1.60143744E9,,,,0,,3,,1.60143744E9
Raw,1932024491,25825000000,,,-1311853870175195322,0.0,6.99455795480122,,,0,23,0.0,32995,53477924818384,33,36.4394416809082,-255.57841111712014,0.07113451348841537,4,-4550.100727722768,3.4028234663852886E38,1.60368755E9,,,,0,,3,,1.60368755E9
Raw,1932024491,25825000000,,,-1311853870175195322,0.0,6.99455795480122,,,0,7,0.0,32995,53477932699185,33,37.967403411865234,-241.0546153418593,0.06121723839918605,1,-5489.585525175705,0.0011271134717389941,1.60481254E9,,,,0,,3,,1.60481254E9
Raw,1932024492,25825000000,,,-1311853870175195322,0.0,6.99455795480122,,,0,8,0.0,32995,53477925422862,33,38.657989501953125,-564.1741283028632,0.05540427823360072,1,-11684.32529779845,0.0010406054789200425,1.60537498E9,,,,0,,3,,1.60537498E9
Raw,1932024492,25825000000,,,-1311853870175195322,0.0,6.99455795480122,,,0,193,0.0,35,8998127,17,34.43904113769531,-237.7207035272545,0.09008451741243045,1,-5641.816080529727,0.0017235093982890248,1.57542003E9,,,,0,,4,,1.57542003E9
Raw,1932024493,25825000000,,,-1311853870175195322,0.0,6.99455795480122,,,0,194,0.0,35,12761922,17,34.39251708984375,-124.64961486982008,0.09123665588350416,1,-2969.0514766021306,0.00173276592977345,1.57542003E9,,,,0,,4,,1.57542003E9
Fix,gps,34.486726,109.464161,358.436188,0.000000,6.000000,1627818679000
Raw,1932025487,26825000000,,,-1311853870175195709,0.0,6.908926312577717,,,0,10,0.0,16431,42696930380121,6,43.206512451171875,-464.51239021607853,0.03410770009030943,1,-11511.618176890694,6.620929343625903E-4,1.57542003E9,,,,0,,1,,1.57542003E9
Raw,1932025487,26825000000,,,-1311853870175195709,0.0,6.908926312577717,,,0,12,0.0,16431,42696921770482,16,35.346710205078125,-589.6526731712293,0.08000645317558919,1,-14603.48299357998,0.0015524948248639703,1.57542003E9,,,,0,,1,,1.57542003E9
Raw,1932025488,26825000000,,,-1311853870175195709,0.0,6.908926312577717,,,0,15,0.0,16431,42696919536418,49,25.632810592651367,414.4003749888295,0.24734450819637832,4,9820.184543071127,3.4028234663852886E38,1.57542003E9,,,,0,,1,,1.57542003E9
Raw,1932025488,26825000000,,,-1311853870175195709,0.0,6.908926312577717,,,0,18,0.0,16431,42696925038624,48,25.783767700195312,517.5563487657023,0.24053568877289877,4,8633.60011837638,3.4028234663852886E38,1.57542003E9,,,,0,,1,,1.57542003E9
Raw,1932025488,26825000000,,,-1311853870175195709,0.0,6.908926312577717,,,0,23,0.0,16431,42696932531005,12,37.262359619140625,-38.88756739537175,0.06617014075504135,1,-998.7333975559937,0.0012452249648049474,1.57542003E9,,,,0,,1,,1.57542003E9
Raw,1932025489,26825000000,,,-1311853870175195709,0.0,6.908926312577717,,,0,24,0.0,16431,42696929228649,120,11.173404693603516,350.8577587792888,4.201659944558864,4,8653.62577865075,3.4028234663852886E38,1.57542003E9,,,,0,,1,,1.57542003E9
Raw,1932025489,26825000000,,,-1311853870175195709,0.0,6.908926312577717,,,0,25,0.0,16431,42696920024808,26,31.0327091217041,-734.235088955078,0.1345481606839643,1,-18161.3504864389,0.0025511160492897034,1.57542003E9,,,,0,,1,,1.57542003E9
Raw,1932025489,26825000000,,,-1311853870175195709,0.0,6.908926312577717,,,0,32,0.0,16431,42696925765901,6,46.33586120605469,-446.83242263697935,0.0310371440995712,1,-11065.618011714718,4.6179743367247283E-4,1.57542003E9,,,,0,,1,,1.57542003E9
Raw,1932025490,26825000000,,,-1311853870175195709,0.0,6.908926312577717,,,0,10,0.0,32995,53478926909002,33,40.613975524902344,-900.6033517728724,0.04469673698602933,1,-19567.368856729656,8.345830137841403E-4,1.59806246E9,,,,0,,3,,1.59806246E9
Raw,1932025490,26825000000,,,-1311853870175195709,0.0,6.908926312577717,,,0,9,0.0,32995,53478933390250,38,33.91411209106445,-366.17192672131364,0.09638582775675003,1,-8733.37706216405,0.0018017685506492853,1.59862502E9,,,,0,,3,,1.59862502E9
Raw,1932025490,26825000000,,,-1311853870175195709,0.0,6.908926312577717,,,0,16,0.0,99,928276497,70,20.893871307373047,353.02526668431346,4.2014887334686755,4,5289.521587717711,3.4028234663852886E38,1.60143744E9,,,,0,,3,,1.60143744E9
Raw,1932025491,26825000000,,,-1311853870175195709,0.0,6.908926312577717,,,0,23,0.0,32995,53478924819293,33,36.40507507324219,-255.24211951860957,0.07141323908561864,4,-4805.498083153257,3.4028234663852886E38,1.60368755E9,,,,0,,3,,1.60368755E9
Raw,1932025491,26825000000,,,-1311853870175195709,0.0,6.908926312577717,,,0,7,0.0,32995,53478932700010,33,37.99943542480469,-240.97856034012864,0.06100045783313124,1,-5730.600367993391,0.001122964546084404,1.60481254E9,,,,0,,3,,1.60481254E9
Raw,1932025491,26825000000,,,-1311853870175195709,0.0,6.908926312577717,,,0,8,0.0,32995,53478925424771,33,38.069854736328125,-564.0389913627503,0.05921768990498258,1,-12248.429096882612,0.001113506848923862,1.60537498E9,,,,0,,3,,1.60537498E9
Raw,1932025492,26825000000,,,-1311853870175195709,0.0,6.908926312577717,,,0,193,0.0,35,8998926,17,34.86444091796875,-237.7368586116463,0.08585636235196298,1,-5879.532444843729,0.0016411329852417111,1.57542003E9,,,,0,,4,,1.57542003E9
Raw,1932025492,26825000000,,,-1311853870175195709,0.0,6.908926312577717,,,0,194,0.0,35,12762347,15,35.802181243896484,-124.6205084519496,0.07791261210391587,1,-3093.7139213975197,0.0014731830451637506,1.57542003E9,,,,0,,4,,1.57542003E9
Fix,gps,34.486726,109.464161,358.679779,0.000000,6.000000,1627818680000
Raw,1932026532,27825000000,,,-1311853870175196096,0.0,6.811390937632583,,,0,10,0.0,16431,42697930381649,7,41.893707275390625,-464.4689010015554,0.039368424193232776,1,-11976.093615994387,7.701214053668082E-4,1.57542003E9,,,,0,,1,,1.57542003E9
Raw,1932026533,27825000000,,,-1311853870175196096,0.0,6.811390937632583,,,0,12,0.0,16431,42697921772475,14,36.19105529785156,-589.7025017226656,0.07262502185560726,1,-15193.183243981797,0.0014086818555369973,1.57542003E9,,,,0,,1,,1.57542003E9
Raw,1932026534,27825000000,,,-1311853870175196096,0.0,6.811390937632583,,,0,15,0.0,16431,42697919535032,39,27.508628845214844,414.343559533806,0.19998415567324612,4,10234.541183152785,3.4028234663852886E38,1.57542003E9,,,,0,,1,,1.57542003E9
Raw,1932026534,27825000000,,,-1311853870175196096,0.0,6.811390937632583,,,0,18,0.0,16431,42697925036927,44,26.568204879760742,517.5609158148764,0.21984247869796592,4,9151.158677328829,3.4028234663852886E38,1.57542003E9,,,,0,,1,,1.57542003E9
Raw,1932026535,27825000000,,,-1311853870175196096,0.0,6.811390937632583,,,0,23,0.0,16431,42697932531144,13,37.06344985961914,-38.873968495219145,0.06765075555758343,1,-1037.6212864990332,0.0012740696547552943,1.57542003E9,,,,0,,1,,1.57542003E9
Raw,1932026536,27825000000,,,-1311853870175196096,0.0,6.811390937632583,,,0,24,0.0,16431,42697929227479,176,10.31318473815918,350.85363480204956,299.7941272834664,4,9004.004137012114,3.4028234663852886E38,1.57542003E9,,,,1,,1,,1.57542003E9
Raw,1932026536,27825000000,,,-1311853870175196096,0.0,6.811390937632583,,,0,25,0.0,16431,42697920027250,20,33.392555236816406,-734.2894845556884,0.10339549735980663,1,-18895.626078283825,0.001944186631590128,1.57542003E9,,,,0,,1,,1.57542003E9
Raw,1932026537,27825000000,,,-1311853870175196096,0.0,6.811390937632583,,,0,32,0.0,16431,42697925767403,6,46.36605453491211,-446.8056338261524,0.031037412448990845,1,-11512.435405326905,4.601949767675251E-4,1.57542003E9,,,,0,,1,,1.57542003E9
Raw,1932026537,27825000000,,,-1311853870175196096,0.0,6.811390937632583,,,0,10,0.0,32995,53479926911963,33,42.202667236328125,-900.6213473099165,0.03743384122131979,1,-20467.982930222155,7.32678803615272E-4,1.59806246E9,,,,0,,3,,1.59806246E9
Raw,1932026538,27825000000,,,-1311853870175196096,0.0,6.811390937632583,,,0,9,0.0,32995,53479933391529,46,32.170509338378906,-366.1101693100943,0.11727786602958634,1,-9099.462749031854,0.002076361095532775,1.59862502E9,,,,0,,3,,1.59862502E9
Raw,1932026539,27825000000,,,-1311853870175196096,0.0,6.811390937632583,,,0,16,0.0,99,1928275322,97,15.62019157409668,353.190430268623,4.201488467199484,4,5642.880720695423,3.4028234663852886E38,1.60143744E9,,,,0,,3,,1.60143744E9
Raw,1932026539,27825000000,,,-1311853870175196096,0.0,6.811390937632583,,,0,23,0.0,32995,53479924820080,33,38.70478820800781,-255.12233672516015,0.05500336836110914,1,-5060.680020987621,0.0010361028835177422,1.60368755E9,,,,0,,3,,1.60368755E9
Raw,1932026540,27825000000,,,-1311853870175196096,0.0,6.811390937632583,,,0,7,0.0,32995,53479932700795,33,37.44803237915039,-240.95419138371483,0.06484888390320645,1,-5971.552734721788,0.0011965646408498287,1.60481254E9,,,,0,,3,,1.60481254E9
Raw,1932026541,27825000000,,,-1311853870175196096,0.0,6.811390937632583,,,0,8,0.0,32995,53479925426635,33,37.96685791015625,-564.0328224381196,0.059912773148245446,1,-12812.453487061775,0.001126789371483028,1.60537498E9,,,,0,,3,,1.60537498E9
Raw,1932026541,27825000000,,,-1311853870175196096,0.0,6.811390937632583,,,0,193,0.0,35,8999740,19,33.781280517578125,-237.7141256131456,0.09704429482571392,1,-6117.24308914808,0.001859095529653132,1.57542003E9,,,,0,,4,,1.57542003E9
Raw,1932026542,27825000000,,,-1311853870175196096,0.0,6.811390937632583,,,0,194,0.0,35,12762777,13,37.175262451171875,-124.68308384212548,0.0668559794648089,1,-3218.3813736633106,0.0012577740708366036,1.57542003E9,,,,0,,4,,1.57542003E9
Fix,gps,34.486726,109.464161,359.005646,0.000000,6.000000,1627818681000
Raw,1932027504,28825000000,,,-1311853870175196483,0.0,6.71871789712492,,,0,10,0.0,16431,42698930383217,6,43.06167221069336,-464.4097338570318,0.0346503899864075,1,-12440.523688548206,6.732260226272047E-4,1.57542003E9,,,,0,,1,,1.57542003E9
Raw,1932027505,28825000000,,,-1311853870175196483,0.0,6.71871789712492,,,0,12,0.0,16431,42698921774478,16,35.36139678955078,-589.5838266090532,0.07987256137678339,1,-15782.811241960435,0.0015498721040785313,1.57542003E9,,,,0,,1,,1.57542003E9
Raw,1932027506,28825000000,,,-1311853870175196483,0.0,6.71871789712492,,,0,15,0.0,16431,42698919533572,51,25.17762565612793,413.88491191637854,0.2604627258908718,4,10648.922248027675,3.4028234663852886E38,1.57542003E9,,,,0,,1,,1.57542003E9
Raw,1932027506,28825000000,,,-1311853870175196483,0.0,6.71871789712492,,,0,18,0.0,16431,42698925035138,40,27.238967895507812,517.6871572338368,0.2035712842967985,4,9668.77999869675,3.4028234663852886E38,1.57542003E9,,,,0,,1,,1.57542003E9
Raw,1932027507,28825000000,,,-1311853870175196483,0.0,6.71871789712492,,,0,23,0.0,16431,42698932531287,11,37.91807174682617,-38.73554259805175,0.06152269076649461,1,-1076.4131174307897,0.0011546813184395432,1.57542003E9,,,,0,,1,,1.57542003E9
Raw,1932027508,28825000000,,,-1311853870175196483,0.0,6.71871789712492,,,0,24,0.0,16431,42698929226260,166,10.757143020629883,351.0486546182731,4.201659678289673,4,9353.072113070572,3.4028234663852886E38,1.57542003E9,,,,1,,1,,1.57542003E9
Raw,1932027508,28825000000,,,-1311853870175196483,0.0,6.71871789712492,,,0,25,0.0,16431,42698920029716,18,34.09401321411133,-734.2435414042957,0.09565369565175186,1,-19629.88791188771,0.0017933497438207269,1.57542003E9,,,,0,,1,,1.57542003E9
Raw,1932027510,28825000000,,,-1311853870175196483,0.0,6.71871789712492,,,0,32,0.0,16431,42698925768895,6,45.61540985107422,-446.8121435753483,0.03103768079841049,1,-11959.246997573648,5.017344374209642E-4,1.57542003E9,,,,0,,1,,1.57542003E9
Raw,1932027510,28825000000,,,-1311853870175196483,0.0,6.71871789712492,,,0,10,0.0,32995,53480926914992,33,39.85919189453125,-900.5424805055227,0.04864281312166202,1,-21368.53711351808,9.595938608981669E-4,1.59806246E9,,,,0,,3,,1.59806246E9
Raw,1932027511,28825000000,,,-1311853870175196483,0.0,6.71871789712492,,,0,9,0.0,32995,53480933392687,45,32.4173583984375,-365.8085054874109,0.11405946198999278,1,-9465.394664361258,0.0020181825384497643,1.59862502E9,,,,0,,3,,1.59862502E9
Raw,1932027512,28825000000,,,-1311853870175196483,0.0,6.71871789712492,,,0,16,0.0,99,928274123,166,22.12142562866211,353.6210621067887,4.201488467199484,4,5996.461911578601,3.4028234663852886E38,1.60143744E9,,,,1,,3,,1.60143744E9
Raw,1932027512,28825000000,,,-1311853870175196483,0.0,6.71871789712492,,,0,23,0.0,32995,53480924820930,33,37.51350402832031,-254.9892788148951,0.06296168852648326,1,-5315.7238074190645,0.0011884121922776103,1.60368755E9,,,,0,,3,,1.60368755E9
Raw,1932027513,28825000000,,,-1311853870175196483,0.0,6.71871789712492,,,0,7,0.0,32995,53480932701603,33,37.226829528808594,-240.9060328726481,0.06646280804069774,1,-6212.47737303184,0.0012274287873879075,1.60481254E9,,,,0,,3,,1.60481254E9
Raw,1932027513,28825000000,,,-1311853870175196483,0.0,6.71871789712492,,,0,8,0.0,32995,53480925428478,33,39.3167839050293,-564.0336404170762,0.05142971545492461,1,-13376.497931853515,9.645982063375413E-4,1.60537498E9,,,,0,,3,,1.60537498E9
Raw,1932027514,28825000000,,,-1311853870175196483,0.0,6.71871789712492,,,0,193,0.0,35,9000539,17,34.76335906982422,-237.69899300244947,0.0868426900048897,1,-6354.977734364181,0.0016603426774963737,1.57542003E9,,,,0,,4,,1.57542003E9
Raw,1932027515,28825000000,,,-1311853870175196483,0.0,6.71871789712492,,,0,194,0.0,35,12763171,13,37.138362884521484,-124.62802363361288,0.06713089408420761,1,-3343.0214935755293,0.0012631288263946772,1.57542003E9,,,,0,,4,,1.57542003E9
Fix,gps,34.486726,109.464161,359.392975,0.000000,6.000000,1627818682000
Raw,1932028478,29825000000,,,-1311853870175196870,0.0,6.637078554357761,,,0,10,0.0,16431,42699930384769,6,42.783348083496094,-464.3687326618349,0.035718148166713704,1,-12904.88801068963,6.951478426344693E-4,1.57542003E9,,,,0,,1,,1.57542003E9
Raw,1932028478,29825000000,,,-1311853870175196870,0.0,6.637078554357761,,,0,12,0.0,16431,42699921776425,16,35.384307861328125,-589.4679462568756,0.07966332371767143,1,-16372.34178591847,0.0015457895351573825,1.57542003E9,,,,0,,1,,1.57542003E9
Raw,1932028478,29825000000,,,-1311853870175196870,0.0,6.637078554357761,,,0,15,0.0,16431,42699919532205,50,25.493824005126953,414.3856854500682,0.25127678825952204,4,11063.318125166883,3.4028234663852886E38,1.57542003E9,,,,0,,1,,1.57542003E9
Raw,1932028479,29825000000,,,-1311853870175196870,0.0,6.637078554357761,,,0,18,0.0,16431,42699925033419,39,27.487083435058594,517.7469719450344,0.1978636543987654,1,10186.475687108052,0.003617723472416401,1.57542003E9,,,,0,,1,,1.57542003E9
Raw,1932028479,29825000000,,,-1311853870175196870,0.0,6.637078554357761,,,0,23,0.0,16431,42699932531403,12,37.82819366455078,-38.642591218499916,0.06213917051231052,1,-1115.0825349769523,0.0011666916543617845,1.57542003E9,,,,0,,1,,1.57542003E9
Raw,1932028479,29825000000,,,-1311853870175196870,0.0,6.637078554357761,,,0,24,0.0,16430,42699929225193,1000000000,10.480813980102539,351.26855462775825,2.99792458E8,4,9704.789256401617,3.4028234663852886E38,1.57542003E9,,,,1,,1,,1.57542003E9
Raw,1932028479,29825000000,,,-1311853870175196870,0.0,6.637078554357761,,,0,25,0.0,16431,42699920032118,19,33.57579040527344,-734.2158664495992,0.10131322235614276,1,-20364.097784266167,0.0019036023877561092,1.57542003E9,,,,0,,1,,1.57542003E9
Raw,1932028480,29825000000,,,-1311853870175196870,0.0,6.637078554357761,,,0,32,0.0,16431,42699925770384,6,45.46808624267578,-446.80106677697836,0.031037949147830132,1,-12406.041679370815,5.103170988149941E-4,1.57542003E9,,,,0,,1,,1.57542003E9
Raw,1932028480,29825000000,,,-1311853870175196870,0.0,6.637078554357761,,,0,10,0.0,32995,53481926917985,33,40.094627380371094,-900.4045147215184,0.04737581693852469,1,-22268.991820805346,9.33932838961482E-4,1.59806246E9,,,,0,,3,,1.59806246E9
Raw,1932028480,29825000000,,,-1311853870175196870,0.0,6.637078554357761,,,0,9,0.0,32995,53481933393934,47,31.899255752563477,-365.6346849591446,0.12092212603655805,1,-9831.118873269965,0.0021422274876385927,1.59862502E9,,,,0,,3,,1.59862502E9
Raw,1932028481,29825000000,,,-1311853870175196870,0.0,6.637078554357761,,,0,16,0.0,99,1928273221,68,21.252140045166016,353.73186417294437,4.201488200930292,4,6350.302343797936,3.4028234663852886E38,1.60143744E9,,,,0,,3,,1.60143744E9
Raw,1932028481,29825000000,,,-1311853870175196870,0.0,6.637078554357761,,,0,23,0.0,32995,53481924821760,33,38.06631851196289,-254.79996781013915,0.059132949734760826,1,-5570.607857080704,0.0011151323560625315,1.60368755E9,,,,0,,3,,1.60368755E9
Raw,1932028481,29825000000,,,-1311853870175196870,0.0,6.637078554357761,,,0,7,0.0,32995,53481932702363,33,36.30770492553711,-240.85467061066822,0.07362649356880535,1,-6453.332121424079,0.0013644341379404068,1.60481254E9,,,,0,,3,,1.60481254E9
Raw,1932028481,29825000000,,,-1311853870175196870,0.0,6.637078554357761,,,0,8,0.0,32995,53481925430404,33,39.19105529785156,-564.1119619021656,0.052165671019095694,1,-13940.566574911354,9.786622831597924E-4,1.60537498E9,,,,0,,3,,1.60537498E9
Raw,1932028482,29825000000,,,-1311853870175196870,0.0,6.637078554357761,,,0,193,0.0,35,9001329,17,34.809688568115234,-237.68503623650338,0.08638946655716401,1,-6592.677509120792,0.0016515101306140423,1.57542003E9,,,,0,,4,,1.57542003E9
Raw,1932028482,29825000000,,,-1311853870175196870,0.0,6.637078554357761,,,0,194,0.0,35,12763611,12,37.55554962158203,-124.56363335262716,0.06409052428283721,1,-3467.59748241969,0.0012038940330967307,1.57542003E9,,,,0,,4,,1.57542003E9
Fix,gps,34.486726,109.464161,359.760132,0.000000,6.000000,1627818683000
Raw,1932029504,30825000000,,,-1311853870175197257,0.0,6.54670068839811,,,0,10,0.0,16431,42700930386306,7,41.999114990234375,-464.2266429005913,0.03891690237205955,1,-13369.160245967581,7.608318119309843E-4,1.57542003E9,,,,0,,1,,1.57542003E9
Raw,1932029508,30825000000,,,-1311853870175197257,0.0,6.54670068839811,,,0,12,0.0,16431,42700921778369,14,36.3524055480957,-589.3873753296557,0.07129531511739567,1,-16961.821516964916,0.0013827556977048516,1.57542003E9,,,,0,,1,,1.57542003E9
Raw,1932029509,30825000000,,,-1311853870175197257,0.0,6.54670068839811,,,0,15,0.0,16431,42700919530865,47,25.9386043548584,414.5019407092675,0.238908617594073,4,11477.721233632956,3.4028234663852886E38,1.57542003E9,,,,0,,1,,1.57542003E9
Raw,1932029510,30825000000,,,-1311853870175197257,0.0,6.54670068839811,,,0,18,0.0,16431,42700925031673,38,27.748552322387695,517.7569581047956,0.19202272348669536,1,10704.216882652065,0.0035104427952319384,1.57542003E9,,,,0,,1,,1.57542003E9
Raw,1932029510,30825000000,,,-1311853870175197257,0.0,6.54670068839811,,,0,23,0.0,16431,42700932531511,12,37.431453704833984,-38.49987945242478,0.0649379634291598,1,-1153.6454799098835,0.0012212174478918314,1.57542003E9,,,,0,,1,,1.57542003E9
Raw,1932029511,30825000000,,,-1311853870175197257,0.0,6.54670068839811,,,0,24,0.0,16431,42700929223988,166,11.979001998901367,351.2758141909976,4.2016591457512895,4,10055.92258374742,3.4028234663852886E38,1.57542003E9,,,,1,,1,,1.57542003E9
Raw,1932029512,30825000000,,,-1311853870175197257,0.0,6.54670068839811,,,0,25,0.0,16431,42700920034599,20,33.12612533569336,-734.2764650572967,0.10650532181561939,1,-21098.315078575197,0.0020047465804964304,1.57542003E9,,,,0,,1,,1.57542003E9
Raw,1932029512,30825000000,,,-1311853870175197257,0.0,6.54670068839811,,,0,32,0.0,16431,42700925771878,6,45.896793365478516,-446.72308611645417,0.031038217497249776,1,-12852.799277176075,4.857410676777363E-4,1.57542003E9,,,,0,,1,,1.57542003E9
Raw,1932029513,30825000000,,,-1311853870175197257,0.0,6.54670068839811,,,0,10,0.0,32995,53482926920991,33,41.445159912109375,-900.374181335213,0.04073339911796095,1,-23169.415460144453,7.994459010660648E-4,1.59806246E9,,,,0,,3,,1.59806246E9
Raw,1932029513,30825000000,,,-1311853870175197257,0.0,6.54670068839811,,,0,9,0.0,32995,53482933395141,57,30.325519561767578,-365.3806684106801,0.1444631350409601,1,-10196.654581594974,0.0025677478406578302,1.59862502E9,,,,0,,3,,1.59862502E9
Raw,1932029514,30825000000,,,-1311853870175197257,0.0,6.54670068839811,,,0,16,0.0,99,928272010,81,18.83839225769043,353.53997994272095,4.201487934661101,4,6704.089275500223,3.4028234663852886E38,1.60143744E9,,,,0,,3,,1.60143744E9
Raw,1932029514,30825000000,,,-1311853870175197257,0.0,6.54670068839811,,,0,23,0.0,32995,53482924822620,33,40.055686950683594,-254.60397664390473,0.047206195142573154,1,-5825.342602707286,8.868660661391914E-4,1.60368755E9,,,,0,,3,,1.60368755E9
Raw,1932029515,30825000000,,,-1311853870175197257,0.0,6.54670068839811,,,0,7,0.0,32995,53482932703208,33,36.814247131347656,-240.67972536133664,0.06958514714851496,1,-6694.121099815098,0.0012871390208601952,1.60481254E9,,,,0,,3,,1.60481254E9
Raw,1932029515,30825000000,,,-1311853870175197257,0.0,6.54670068839811,,,0,8,0.0,32995,53482925432293,33,38.30912399291992,-564.0516018716637,0.05763657928489796,1,-14504.617349431352,0.0010832517873495817,1.60537498E9,,,,0,,3,,1.60537498E9
Raw,1932029516,30825000000,,,-1311853870175197257,0.0,6.54670068839811,,,0,193,0.0,35,9002108,18,34.03153991699219,-237.7085190490476,0.09433456479299351,1,-6830.385530112883,0.0018062952440232038,1.57542003E9,,,,0,,4,,1.57542003E9
Raw,1932029516,30825000000,,,-1311853870175197257,0.0,6.54670068839811,,,0,194,0.0,35,12764012,12,37.83488464355469,-124.56035291618684,0.06213490188433293,1,-3592.1553125447285,0.0011657930444926023,1.57542003E9,,,,0,,4,,1.57542003E9
Fix,gps,34.486726,109.464161,360.084198,0.000000,6.000000,1627818684000
Raw,1932030502,31825000000,,,-1311853870175197644,0.0,6.487054780185777,,,0,10,0.0,16431,42701930387875,8,41.26762390136719,-464.1153295975878,0.04217241351977408,1,-13833.327028158203,8.276815060526133E-4,1.57542003E9,,,,0,,1,,1.57542003E9
Raw,1932030503,31825000000,,,-1311853870175197644,0.0,6.487054780185777,,,0,12,0.0,16431,42701921780360,15,35.79233932495117,-589.401212807004,0.0760229495767144,4,-17551.18280447996,3.4028234663852886E38,1.57542003E9,,,,0,,1,,1.57542003E9
Raw,1932030504,31825000000,,,-1311853870175197644,0.0,6.487054780185777,,,0,15,0.0,16431,42701919529476,60,23.915632247924805,415.03032103274063,0.3006430464538068,4,11892.31647638323,3.4028234663852886E38,1.57542003E9,,,,0,,1,,1.57542003E9
Raw,1932030504,31825000000,,,-1311853870175197644,0.0,6.487054780185777,,,0,18,0.0,16431,42701925029922,37,27.990196228027344,517.8579103410161,0.18677871817668423,1,11221.972206775425,0.003414127277210355,1.57542003E9,,,,0,,1,,1.57542003E9
Raw,1932030506,31825000000,,,-1311853870175197644,0.0,6.487054780185777,,,0,23,0.0,16431,42701932531645,17,34.48849868774414,-38.04659130128553,0.09021781010555519,1,-1192.0281008548009,0.0016157141653820872,1.57542003E9,,,,0,,1,,1.57542003E9
Raw,1932030507,31825000000,,,-1311853870175197644,0.0,6.487054780185777,,,0,24,0.0,16431,42701929222875,59,23.956829071044922,351.87685831177737,0.29738321259218514,4,10407.640201440194,3.4028234663852886E38,1.57542003E9,,,,0,,1,,1.57542003E9
Raw,1932030507,31825000000,,,-1311853870175197644,0.0,6.487054780185777,,,0,25,0.0,16431,42701920037052,14,36.15560531616211,-733.9352315025903,0.07620608453413885,1,-21832.499443394154,0.0014144430169835687,1.57542003E9,,,,0,,1,,1.57542003E9
Raw,1932030508,31825000000,,,-1311853870175197644,0.0,6.487054780185777,,,0,32,0.0,16431,42701925773355,6,44.58953094482422,-447.13558608774974,0.03103848376644136,1,-13299.57483955468,5.646353238262236E-4,1.57542003E9,,,,0,,1,,1.57542003E9
Raw,1932030509,31825000000,,,-1311853870175197644,0.0,6.487054780185777,,,0,10,0.0,32995,53483926924014,33,42.68050765991211,-900.1985885192075,0.035498813080602126,1,-24069.810874009767,6.934605189599097E-4,1.59806246E9,,,,0,,3,,1.59806246E9
Raw,1932030509,31825000000,,,-1311853870175197644,0.0,6.487054780185777,,,0,9,0.0,32995,53483933396306,34,34.77873992919922,-365.235613475719,0.08748260143956504,4,-10561.964004808728,3.4028234663852886E38,1.59862502E9,,,,0,,3,,1.59862502E9
Raw,1932030511,31825000000,,,-1311853870175197644,0.0,6.487054780185777,,,0,16,0.0,99,1928270689,115,24.261432647705078,354.9529704252436,0.2870209808815376,4,7058.753828306679,3.4028234663852886E38,1.60143744E9,,,,0,,3,,1.60143744E9
Raw,1932030512,31825000000,,,-1311853870175197644,0.0,6.487054780185777,,,0,23,0.0,32995,53483924823498,33,36.45307540893555,-254.7087290740276,0.07102520998526995,1,-6079.999971004336,0.0013427295489236712,1.60368755E9,,,,0,,3,,1.60368755E9
Raw,1932030512,31825000000,,,-1311853870175197644,0.0,6.487054780185777,,,0,7,0.0,32995,53483932703971,33,38.17844772338867,-240.82067336028672,0.0598034405219072,1,-6934.837903501968,0.0011000573867931962,1.60481254E9,,,,0,,3,,1.60481254E9
Raw,1932030513,31825000000,,,-1311853870175197644,0.0,6.487054780185777,,,0,8,0.0,32995,53483925434164,33,35.39204025268555,-563.8703513678754,0.08025066362883332,1,-15068.507198101268,0.001428917981684208,1.60537498E9,,,,0,,3,,1.60537498E9
Raw,1932030514,31825000000,,,-1311853870175197644,0.0,6.487054780185777,,,0,193,0.0,35,9002918,166,30.42363739013672,-238.07827961986357,0.14207742965166126,4,-7068.272507298895,3.4028234663852886E38,1.57542003E9,,,,1,,4,,1.57542003E9
Raw,1932030514,31825000000,,,-1311853870175197644,0.0,6.487054780185777,,,0,194,0.0,35,12764441,14,36.561248779296875,-123.78273610877653,0.07158527394611891,1,-3716.5817805284096,0.0013499053893610835,1.57542003E9,,,,0,,4,,1.57542003E9
Fix,gps,34.486726,109.464161,360.388184,0.000000,6.000000,1627818685000
Raw,1932031495,32825000000,,,-1311853870175198030,0.0,6.465603725756295,,,0,10,0.0,16431,42702930389399,7,42.100196838378906,-464.6419035508652,0.03848881223974576,1,-14297.682778061357,7.520292419940233E-4,1.57542003E9,,,,0,,1,,1.57542003E9
Raw,1932031496,32825000000,,,-1311853870175198030,0.0,6.465603725756295,,,0,12,0.0,16431,42702921782312,13,36.60404586791992,-587.6807985666455,0.0692693061222785,4,-18139.405056786873,3.4028234663852886E38,1.57542003E9,,,,0,,1,,1.57542003E9
Raw,1932031496,32825000000,,,-1311853870175198030,0.0,6.465603725756295,,,0,15,0.0,16431,42702919528148,40,27.426353454589844,416.1714016771243,0.20185283285978584,4,12307.498330232545,3.4028234663852886E38,1.57542003E9,,,,0,,1,,1.57542003E9
Raw,1932031498,32825000000,,,-1311853870175198030,0.0,6.465603725756295,,,0,18,0.0,16431,42702925028241,58,24.15692138671875,517.6041664522038,0.2898941585933297,4,11739.953257075444,3.4028234663852886E38,1.57542003E9,,,,0,,1,,1.57542003E9
Raw,1932031498,32825000000,,,-1311853870175198030,0.0,6.465603725756295,,,0,23,0.0,16431,42702932531782,26,30.909530639648438,-37.865651799912996,0.13507058915876524,4,-1228.8113365303461,3.4028234663852886E38,1.57542003E9,,,,0,,1,,1.57542003E9
Raw,1932031499,32825000000,,,-1311853870175198030,0.0,6.465603725756295,,,0,24,0.0,16431,42702929221634,49,25.660076141357422,352.79425579400186,0.24472495188957044,4,10760.01284595037,3.4028234663852886E38,1.57542003E9,,,,0,,1,,1.57542003E9
Raw,1932031499,32825000000,,,-1311853870175198030,0.0,6.465603725756295,,,0,25,0.0,16431,42702920039489,15,35.41303634643555,-733.1580833289572,0.08268639434250108,4,-22566.28197977361,3.4028234663852886E38,1.57542003E9,,,,0,,1,,1.57542003E9
Raw,1932031500,32825000000,,,-1311853870175198030,0.0,6.465603725756295,,,0,32,0.0,16431,42702925774859,7,41.73216247558594,-448.00397299749443,0.03924375612564171,1,-13746.81116037642,7.845783256925642E-4,1.57542003E9,,,,0,,1,,1.57542003E9
Raw,1932031500,32825000000,,,-1311853870175198030,0.0,6.465603725756295,,,0,10,0.0,32995,53484926926995,33,41.79828643798828,-900.1530543572931,0.03916125844126783,1,-24969.92496511661,7.675961242057383E-4,1.59806246E9,,,,0,,3,,1.59806246E9
Raw,1932031501,32825000000,,,-1311853870175198030,0.0,6.465603725756295,,,0,9,0.0,32995,53484933397571,33,35.10847091674805,-364.0836605277045,0.08431384828328975,4,-10926.787801322336,3.4028234663852886E38,1.59862502E9,,,,0,,3,,1.59862502E9
Raw,1932031501,32825000000,,,-1311853870175198030,0.0,6.465603725756295,,,0,16,0.0,99,928269558,76,27.887405395507812,356.08423532214874,0.18957419521000707,4,7414.88797204385,3.4028234663852886E38,1.60143744E9,,,,0,,3,,1.60143744E9
Raw,1932031502,32825000000,,,-1311853870175198030,0.0,6.465603725756295,,,0,23,0.0,32995,53484924824336,33,42.0753059387207,-255.32076478703596,0.0375928912982742,1,-6334.9581773962145,7.408935343846679E-4,1.60368755E9,,,,0,,3,,1.60368755E9
Raw,1932031502,32825000000,,,-1311853870175198030,0.0,6.465603725756295,,,0,7,0.0,32995,53484932704814,33,35.463985443115234,-240.9827695235092,0.0809045874797158,1,-7175.580558458259,0.0015036212280392647,1.60481254E9,,,,0,,3,,1.60481254E9
Raw,1932031502,32825000000,,,-1311853870175198030,0.0,6.465603725756295,,,0,8,0.0,32995,53484925436009,41,33.082149505615234,-564.4714636535682,0.10440169535115534,4,-15633.001792832367,3.4028234663852886E38,1.60537498E9,,,,0,,3,,1.60537498E9
Raw,1932031502,32825000000,,,-1311853870175198030,0.0,6.465603725756295,,,0,193,0.0,35,9003693,29,30.193288803100586,-236.30801978684053,0.14585231133892962,4,-7305.220136994726,3.4028234663852886E38,1.57542003E9,,,,0,,4,,1.57542003E9
Raw,1932031503,32825000000,,,-1311853870175198030,0.0,6.465603725756295,,,0,194,0.0,35,12764828,18,33.95978546142578,-123.3280079738492,0.09578045642877053,4,-3840.879704585408,3.4028234663852886E38,1.57542003E9,,,,0,,4,,1.57542003E9
Raw,1932032503,33825000000,,,-1311853870175198418,0.0,6.393431779179986,,,0,10,0.0,16431,42703930390962,7,41.87578582763672,-464.51511681260035,0.03944753526632619,4,-14762.014626543603,3.4028234663852886E38,1.57542003E9,,,,0,,1,,1.57542003E9
Raw,1932032504,33825000000,,,-1311853870175198418,0.0,6.393431779179986,,,0,12,0.0,16431,42703921784277,13,36.63652038574219,-588.3370221845357,0.0690123563523995,4,-18727.77575882243,3.4028234663852886E38,1.57542003E9,,,,0,,1,,1.57542003E9
Raw,1932032505,33825000000,,,-1311853870175198418,0.0,6.393431779179986,,,0,15,0.0,16431,42703919526765,29,30.092042922973633,415.6114950813676,0.14943621144853403,4,12723.35340821486,3.4028234663852886E38,1.57542003E9,,,,0,,1,,1.57542003E9
Raw,1932032506,33825000000,,,-1311853870175198418,0.0,6.393431779179986,,,0,18,0.0,16431,42703925026528,72,20.433080673217773,517.9654745738021,4.200904272593148,4,12257.049282910415,3.4028234663852886E38,1.57542003E9,,,,0,,1,,1.57542003E9
Raw,1932032507,33825000000,,,-1311853870175198418,0.0,6.393431779179986,,,0,23,0.0,16431,42703932531859,39,27.555885314941406,-37.32865287524666,0.19765849398664959,4,-1266.6861199106092,3.4028234663852886E38,1.57542003E9,,,,0,,1,,1.57542003E9
Raw,1932032507,33825000000,,,-1311853870175198418,0.0,6.393431779179986,,,0,24,0.0,16431,42703929220516,60,23.84060287475586,353.61410928565806,0.3013664665636928,4,11112.915125937625,3.4028234663852886E38,1.57542003E9,,,,0,,1,,1.57542003E9
Raw,1932032508,33825000000,,,-1311853870175198418,0.0,6.393431779179986,,,0,25,0.0,16431,42703920041938,15,35.462890625,-733.7269195283229,0.08223424429245396,4,-23299.94528272419,3.4028234663852886E38,1.57542003E9,,,,0,,1,,1.57542003E9
Raw,1932032508,33825000000,,,-1311853870175198418,0.0,6.393431779179986,,,0,32,0.0,16431,42703925776341,6,44.26310729980469,-447.72940472774667,0.031039020465280648,4,-14194.236925636766,3.4028234663852886E38,1.57542003E9,,,,0,,1,,1.57542003E9
Raw,1932032509,33825000000,,,-1311853870175198418,0.0,6.393431779179986,,,0,10,0.0,32995,53485926929988,33,36.92569351196289,-899.9891177414183,0.06768870723829645,4,-25869.874480497445,3.4028234663852886E38,1.59806246E9,,,,0,,3,,1.59806246E9
Raw,1932032510,33825000000,,,-1311853870175198418,0.0,6.393431779179986,,,0,9,0.0,32995,53485933398790,35,34.45423126220703,-364.24643834005747,0.09072153316964732,4,-11291.2819944032,3.4028234663852886E38,1.59862502E9,,,,0,,3,,1.59862502E9
Raw,1932032510,33825000000,,,-1311853870175198418,0.0,6.393431779179986,,,0,16,0.0,99,1928268292,90,26.408870697021484,355.6051041483511,0.22447702711208917,4,7772.430779356688,3.4028234663852886E38,1.60143744E9,,,,0,,3,,1.60143744E9
Raw,1932032511,33825000000,,,-1311853870175198418,0.0,6.393431779179986,,,0,23,0.0,32995,53485924825189,33,40.223628997802734,-254.77149191771434,0.04631930655133487,4,-6589.928090108661,3.4028234663852886E38,1.60368755E9,,,,0,,3,,1.60368755E9
Raw,1932032511,33825000000,,,-1311853870175198418,0.0,6.393431779179986,,,0,7,0.0,32995,53485932705595,35,34.49943161010742,-240.9179958148876,0.09013847852828749,4,-7416.142844943816,3.4028234663852886E38,1.60481254E9,,,,0,,3,,1.60481254E9
Raw,1932032512,33825000000,,,-1311853870175198418,0.0,6.393431779179986,,,0,8,0.0,32995,53485925437928,33,35.12576675415039,-564.9439828308005,0.08271917873671492,4,-16197.830228684987,3.4028234663852886E38,1.60537498E9,,,,0,,3,,1.60537498E9
Raw,1932032512,33825000000,,,-1311853870175198418,0.0,6.393431779179986,,,0,193,0.0,35,9004465,38,27.82290267944336,-236.5721247424358,0.1911083717246188,4,-7541.64279092088,3.4028234663852886E38,1.57542003E9,,,,0,,4,,1.57542003E9
Raw,1932032513,33825000000,,,-1311853870175198418,0.0,6.393431779179986,,,0,194,0.0,35,12765279,22,32.563262939453125,-123.31849896847933,0.11208679004231487,4,-3964.9327539729275,3.4028234663852886E38,1.57542003E9,,,,0,,4,,1.57542003E9
Fix,gps,34.486726,109.464161,360.392883,0.000000,6.000000,1627818686000
Fix,gps,34.486726,109.464161,360.394897,0.000000,6.000000,1627818687000
Raw,1932033476,34825000000,,,-1311853870175198807,0.0,6.359234394165528,,,0,10,0.0,16431,42704930392525,6,42.82217025756836,-464.1261337363055,0.035568571448341135,4,-15226.437967021338,3.4028234663852886E38,1.57542003E9,,,,0,,1,,1.57542003E9
Raw,1932033477,34825000000,,,-1311853870175198807,0.0,6.359234394165528,,,0,12,0.0,16431,42704921786247,16,34.98801040649414,-588.4347025049301,0.08336903366151349,4,-19316.046679790215,3.4028234663852886E38,1.57542003E9,,,,0,,1,,1.57542003E9
Raw,1932033477,34825000000,,,-1311853870175198807,0.0,6.359234394165528,,,0,15,0.0,16431,42704919525384,30,29.849149703979492,414.72749840653546,0.15357420110400122,4,13138.290988099583,3.4028234663852886E38,1.57542003E9,,,,0,,1,,1.57542003E9
Raw,1932033477,34825000000,,,-1311853870175198807,0.0,6.359234394165528,,,0,18,0.0,16431,42704925024821,93,16.511953353881836,517.9138737346266,4.200903740054764,4,12774.952003897664,3.4028234663852886E38,1.57542003E9,,,,0,,1,,1.57542003E9
Raw,1932033478,34825000000,,,-1311853870175198807,0.0,6.359234394165528,,,0,23,0.0,16431,42704932532068,48,25.852542877197266,-37.75719716295035,0.23999368119160414,4,-1304.6278082976057,3.4028234663852886E38,1.57542003E9,,,,0,,1,,1.57542003E9
Raw,1932033478,34825000000,,,-1311853870175198807,0.0,6.359234394165528,,,0,24,0.0,16431,42704929219349,64,22.056400299072266,352.40217121416345,4.201658346943715,4,11465.810907260291,3.4028234663852886E38,1.57542003E9,,,,0,,1,,1.57542003E9
Raw,1932033479,34825000000,,,-1311853870175198807,0.0,6.359234394165528,,,0,25,0.0,16431,42704920044378,18,33.929725646972656,-733.6141065972324,0.09741395135184328,4,-24033.597028804743,3.4028234663852886E38,1.57542003E9,,,,0,,1,,1.57542003E9
Raw,1932033479,34825000000,,,-1311853870175198807,0.0,6.359234394165528,,,0,31,0.0,16,14473510,1000000000,7.0,-846.5740012402612,2.99792458E8,6,-11.830219771174356,3.4028234663852886E38,1.57542003E9,,,,0,,1,,1.57542003E9
Raw,1932033479,34825000000,,,-1311853870175198807,0.0,6.359234394165528,,,0,32,0.0,16431,42704925777833,6,43.52532958984375,-447.40081576441025,0.03211792866798445,4,-14641.880523329995,3.4028234663852886E38,1.57542003E9,,,,0,,1,,1.57542003E9
Raw,1932033479,34825000000,,,-1311853870175198807,0.0,6.359234394165528,,,0,10,0.0,32995,53486926932940,166,31.667129516601562,-900.1269471955966,0.12296987757535055,4,-26769.977969973126,3.4028234663852886E38,1.59806246E9,,,,1,,3,,1.59806246E9
Raw,1932033480,34825000000,,,-1311853870175198807,0.0,6.359234394165528,,,0,9,0.0,32995,53486933399921,166,31.581298828125,-363.2026631090464,0.12534188674310726,4,-11655.382760210245,3.4028234663852886E38,1.59862502E9,,,,1,,3,,1.59862502E9
Raw,1932033480,34825000000,,,-1311853870175198807,0.0,6.359234394165528,,,0,16,0.0,99,928267216,92,26.168588638305664,354.5118752729254,0.23073162385511015,4,8127.920066584494,3.4028234663852886E38,1.60143744E9,,,,0,,3,,1.60143744E9
Raw,1932033480,34825000000,,,-1311853870175198807,0.0,6.359234394165528,,,0,23,0.0,32995,53486924826059,33,38.891170501708984,-254.86075387134758,0.053855157360611305,4,-6844.886086193038,3.4028234663852886E38,1.60368755E9,,,,0,,3,,1.60368755E9
Raw,1932033480,34825000000,,,-1311853870175198807,0.0,6.359234394165528,,,0,7,0.0,32995,53486932706433,33,35.92327117919922,-240.79287911699237,0.07685568983157032,4,-7656.829235635065,3.4028234663852886E38,1.60481254E9,,,,0,,3,,1.60481254E9
Raw,1932033481,34825000000,,,-1311853870175198807,0.0,6.359234394165528,,,0,8,0.0,32995,53486925439769,35,34.50152587890625,-564.5854353881805,0.08881033612157646,4,-16762.806498362563,3.4028234663852886E38,1.60537498E9,,,,0,,3,,1.60537498E9
Raw,1932033481,34825000000,,,-1311853870175198807,0.0,6.359234394165528,,,0,193,0.0,35,9005309,54,24.712045669555664,-237.52489981453095,0.2727176988662485,4,-7778.190336691943,3.4028234663852886E38,1.57542003E9,,,,0,,4,,1.57542003E9
Raw,1932033481,34825000000,,,-1311853870175198807,0.0,6.359234394165528,,,0,194,0.0,35,12765661,20,33.30647277832031,-123.70101489864896,0.1030833050535861,4,-4088.6868738654143,3.4028234663852886E38,1.57542003E9,,,,0,,4,,1.57542003E9
Fix,gps,34.486726,109.464161,360.398285,0.000000,3.000000,1627818688000
Raw,1932034486,35825000000,,,-1311853870175199196,0.0,7.762128423125294,,,0,10,0.0,16431,42705930394051,6,43.04033279418945,-464.4434754889894,0.03473297504035987,4,-15690.767541902094,3.4028234663852886E38,1.57542003E9,,,,0,,1,,1.57542003E9
Raw,1932034487,35825000000,,,-1311853870175199196,0.0,7.762128423125294,,,0,12,0.0,16431,42705921788214,18,34.35204315185547,-588.2208010077929,0.08967815734242363,4,-19904.25788593629,3.4028234663852886E38,1.57542003E9,,,,0,,1,,1.57542003E9
Raw,1932034487,35825000000,,,-1311853870175199196,0.0,7.762128423125294,,,0,15,0.0,16431,42705919523997,30,29.7252197265625,414.9196893788676,0.15573039909197872,4,13552.106793227027,3.4028234663852886E38,1.57542003E9,,,,0,,1,,1.57542003E9
Raw,1932034487,35825000000,,,-1311853870175199196,0.0,7.762128423125294,,,0,18,0.0,16431,42705925023033,105,14.17575740814209,517.8701800253643,4.200903473785573,4,13292.659610984696,3.4028234663852886E38,1.57542003E9,,,,0,,1,,1.57542003E9
Raw,1932034487,35825000000,,,-1311853870175199196,0.0,7.762128423125294,,,0,23,0.0,16431,42705932532165,49,25.593463897705078,-37.91188039187912,0.2471917029640578,4,-1342.1252902211002,3.4028234663852886E38,1.57542003E9,,,,0,,1,,1.57542003E9
Raw,1932034488,35825000000,,,-1311853870175199196,0.0,7.762128423125294,,,0,24,0.0,16431,42705929218120,57,24.26264762878418,352.509053797819,0.2871515193527119,4,11818.474716780187,3.4028234663852886E38,1.57542003E9,,,,0,,1,,1.57542003E9
Raw,1932034488,35825000000,,,-1311853870175199196,0.0,7.762128423125294,,,0,25,0.0,16431,42705920046833,19,33.55206298828125,-733.3428102433109,0.10158316107002374,4,-24767.260740622183,3.4028234663852886E38,1.57542003E9,,,,0,,1,,1.57542003E9
Raw,1932034488,35825000000,,,-1311853870175199196,0.0,7.762128423125294,,,0,31,0.0,16,14476333,1000000000,7.0,-847.5783430690753,2.99792458E8,4,-860.8593135335345,3.4028234663852886E38,1.57542003E9,,,,0,,1,,1.57542003E9
Raw,1932034488,35825000000,,,-1311853870175199196,0.0,7.762128423125294,,,0,32,0.0,16431,42705925779336,6,43.575706481933594,-447.2650653400799,0.03193845699217235,4,-15089.464357222512,3.4028234663852886E38,1.57542003E9,,,,0,,1,,1.57542003E9
Raw,1932034489,35825000000,,,-1311853870175199196,0.0,7.762128423125294,,,0,10,0.0,32995,53487926936010,166,26.865230560302734,-901.1856164601081,0.2128238557933423,4,-27669.540717303516,3.4028234663852886E38,1.59806246E9,,,,1,,3,,1.59806246E9
Raw,1932034489,35825000000,,,-1311853870175199196,0.0,7.762128423125294,,,0,9,0.0,32995,53487933401049,166,26.83202362060547,-364.005918444376,0.21479714348852574,4,-12018.350267481394,3.4028234663852886E38,1.59862502E9,,,,1,,3,,1.59862502E9
Raw,1932034489,35825000000,,,-1311853870175199196,0.0,7.762128423125294,,,0,16,0.0,99,1928266019,94,26.030534744262695,355.15320485731513,0.23440409175456534,4,8482.987683767713,3.4028234663852886E38,1.60143744E9,,,,0,,3,,1.60143744E9
Raw,1932034490,35825000000,,,-1311853870175199196,0.0,7.762128423125294,,,0,23,0.0,32995,53487924826885,33,40.43174362182617,-254.7787514809537,0.04524353741277248,4,-7099.713506554274,3.4028234663852886E38,1.60368755E9,,,,0,,3,,1.60368755E9
Raw,1932034490,35825000000,,,-1311853870175199196,0.0,7.762128423125294,,,0,7,0.0,32995,53487932707177,33,35.558414459228516,-240.84110579297214,0.08005490584754532,4,-7897.429006953512,3.4028234663852886E38,1.60481254E9,,,,0,,3,,1.60481254E9
Raw,1932034490,35825000000,,,-1311853870175199196,0.0,7.762128423125294,,,0,8,0.0,32995,53487925441696,37,34.12547302246094,-564.5122262715695,0.0926968511674166,4,-17327.787948631467,3.4028234663852886E38,1.60537498E9,,,,0,,3,,1.60537498E9
Raw,1932034490,35825000000,,,-1311853870175199196,0.0,7.762128423125294,,,0,193,0.0,35,9006086,63,22.28244400024414,-238.06548165743925,4.201620004180127,4,-8015.549610693878,3.4028234663852886E38,1.57542003E9,,,,0,,4,,1.57542003E9
Raw,1932034491,35825000000,,,-1311853870175199196,0.0,7.762128423125294,,,0,194,0.0,35,12766086,27,30.76112174987793,-124.85451859843522,0.137401559587369,4,-4212.393480462857,3.4028234663852886E38,1.57542003E9,,,,0,,4,,1.57542003E9
Fix,gps,34.486693,109.464120,360.407318,0.859296,3.000000,1627818689000
Raw,1932035504,36825000000,,,-1311853870175199584,0.0,8.108910528750563,,,0,10,0.0,16431,42706930395609,6,42.87699508666992,-464.3334573193338,0.0353570913033813,4,-16154.986481360158,3.4028234663852886E38,1.57542003E9,,,,0,,1,,1.57542003E9
Raw,1932035504,36825000000,,,-1311853870175199584,0.0,8.108910528750563,,,0,12,0.0,16431,42706921790158,17,34.62440490722656,-588.391213290407,0.08692004952595722,4,-20492.313431743823,3.4028234663852886E38,1.57542003E9,,,,0,,1,,1.57542003E9
Raw,1932035505,36825000000,,,-1311853870175199584,0.0,8.108910528750563,,,0,15,0.0,16431,42706919522602,33,28.92698097229004,415.3537635451421,0.1703820610608071,4,13967.529237214676,3.4028234663852886E38,1.57542003E9,,,,0,,1,,1.57542003E9
Raw,1932035505,36825000000,,,-1311853870175199584,0.0,8.108910528750563,,,0,18,0.0,16431,42706925021289,166,11.51589584350586,517.7314644273165,4.200903207516381,4,13809.413319842355,3.4028234663852886E38,1.57542003E9,,,,1,,1,,1.57542003E9
Raw,1932035506,36825000000,,,-1311853870175199584,0.0,8.108910528750563,,,0,23,0.0,16431,42706932532307,42,27.01854133605957,-37.6668786531649,0.21012877888707127,4,-1379.077048197841,3.4028234663852886E38,1.57542003E9,,,,0,,1,,1.57542003E9
Raw,1932035506,36825000000,,,-1311853870175199584,0.0,8.108910528750563,,,0,24,0.0,16431,42706929217044,61,23.649972915649414,352.6276948289749,0.308016273354323,4,12171.879105495556,3.4028234663852886E38,1.57542003E9,,,,0,,1,,1.57542003E9
Raw,1932035506,36825000000,,,-1311853870175199584,0.0,8.108910528750563,,,0,25,0.0,16431,42706920049286,21,32.7343635559082,-733.2156145155677,0.11125540609615359,4,-25500.78523322432,3.4028234663852886E38,1.57542003E9,,,,0,,1,,1.57542003E9
Raw,1932035507,36825000000,,,-1311853870175199584,0.0,8.108910528750563,,,0,31,0.0,16,14479254,1000000000,7.0,-847.4810035732462,2.99792458E8,4,-1708.6219974573632,3.4028234663852886E38,1.57542003E9,,,,1,,1,,1.57542003E9
Raw,1932035507,36825000000,,,-1311853870175199584,0.0,8.108910528750563,,,0,32,0.0,16431,42706925780818,7,42.168670654296875,-447.58608799806825,0.03737228311259036,4,-15537.19645906448,3.4028234663852886E38,1.57542003E9,,,,0,,1,,1.57542003E9
Raw,1932035507,36825000000,,,-1311853870175199584,0.0,8.108910528750563,,,0,10,0.0,32995,53488926938807,61,22.59310531616211,-901.1768231863252,4.201248026119483,4,-28569.614497893188,3.4028234663852886E38,1.59806246E9,,,,0,,3,,1.59806246E9
Raw,1932035507,36825000000,,,-1311853870175199584,0.0,8.108910528750563,,,0,9,0.0,32995,53488933402308,132,23.08879280090332,-364.7392706613773,0.3292157277297558,4,-12381.37302578884,3.4028234663852886E38,1.59862502E9,,,,0,,3,,1.59862502E9
Raw,1932035508,36825000000,,,-1311853870175199584,0.0,8.108910528750563,,,0,16,0.0,99,928264758,88,26.600605010986328,356.13327997708507,0.2196079621074779,4,8839.893299568186,3.4028234663852886E38,1.60143744E9,,,,0,,3,,1.60143744E9
Raw,1932035508,36825000000,,,-1311853870175199584,0.0,8.108910528750563,,,0,23,0.0,32995,53488924827719,33,39.503944396972656,-254.78897621791054,0.05024613225650723,4,-7354.358529625968,3.4028234663852886E38,1.60368755E9,,,,0,,3,,1.60368755E9
Raw,1932035508,36825000000,,,-1311853870175199584,0.0,8.108910528750563,,,0,7,0.0,32995,53488932708009,33,36.75131607055664,-240.5406518974953,0.07007537785341478,4,-8137.972848200088,3.4028234663852886E38,1.60481254E9,,,,0,,3,,1.60481254E9
Raw,1932035508,36825000000,,,-1311853870175199584,0.0,8.108910528750563,,,0,8,0.0,32995,53488925443551,33,36.1456184387207,-565.4786684087303,0.07366461998867535,4,-17892.77421283274,3.4028234663852886E38,1.60537498E9,,,,0,,3,,1.60537498E9
Raw,1932035509,36825000000,,,-1311853870175199584,0.0,8.108910528750563,,,0,193,0.0,35,9006833,59,23.966096878051758,-237.1678008763132,0.2970290080000799,4,-8252.345165019788,3.4028234663852886E38,1.57542003E9,,,,0,,4,,1.57542003E9
Raw,1932035509,36825000000,,,-1311853870175199584,0.0,8.108910528750563,,,0,194,0.0,35,12766532,42,26.874889373779297,-124.6093805298949,0.21363749123370201,4,-4336.139704271191,3.4028234663852886E38,1.57542003E9,,,,0,,4,,1.57542003E9
Fix,gps,34.486692,109.464110,360.407532,0.874737,3.000000,1627818690000
Raw,1932036488,37825000000,,,-1311853870175199973,0.0,8.769255150241941,,,0,10,0.0,16431,42707930397147,7,41.70919418334961,-464.04696018980303,0.040176343166885675,4,-16619.059252120118,3.4028234663852886E38,1.57542003E9,,,,0,,1,,1.57542003E9
Raw,1932036488,37825000000,,,-1311853870175199973,0.0,8.769255150241941,,,0,12,0.0,16431,42707921792122,16,34.895477294921875,-588.1144637434418,0.08425957929367994,4,-21080.40392904148,3.4028234663852886E38,1.57542003E9,,,,0,,1,,1.57542003E9
Raw,1932036489,37825000000,,,-1311853870175199973,0.0,8.769255150241941,,,0,15,0.0,16431,42707919521231,34,28.777969360351562,415.38160891212124,0.1732692678306308,4,14382.645403124765,3.4028234663852886E38,1.57542003E9,,,,0,,1,,1.57542003E9
Raw,1932036489,37825000000,,,-1311853870175199973,0.0,8.769255150241941,,,0,18,0.0,16431,42707925019507,166,13.127853393554688,518.0486698501743,4.20090294124719,4,14326.433706267002,3.4028234663852886E38,1.57542003E9,,,,1,,1,,1.57542003E9
Raw,1932036489,37825000000,,,-1311853870175199973,0.0,8.769255150241941,,,0,23,0.0,16431,42707932532385,41,27.20335578918457,-37.588361193950476,0.205752478305136,4,-1416.3997862325016,3.4028234663852886E38,1.57542003E9,,,,0,,1,,1.57542003E9
Raw,1932036489,37825000000,,,-1311853870175199973,0.0,8.769255150241941,,,0,24,0.0,16431,42707929215747,63,22.219013214111328,352.60734760243076,4.201657814405332,4,12525.501618005206,3.4028234663852886E38,1.57542003E9,,,,0,,1,,1.57542003E9
Raw,1932036490,37825000000,,,-1311853870175199973,0.0,8.769255150241941,,,0,25,0.0,16431,42707920051752,36,28.334985733032227,-734.5890011836109,0.18224694967051258,4,-26234.68915559683,3.4028234663852886E38,1.57542003E9,,,,0,,1,,1.57542003E9
Raw,1932036490,37825000000,,,-1311853870175199973,0.0,8.769255150241941,,,0,31,0.0,16,14482103,1000000000,7.0,-847.4529877939844,2.99792458E8,4,-2555.399081268519,3.4028234663852886E38,1.57542003E9,,,,0,,1,,1.57542003E9
Raw,1932036490,37825000000,,,-1311853870175199973,0.0,8.769255150241941,,,0,32,0.0,16431,42707925782306,8,41.10087966918945,-447.4603237334991,0.04212519650328514,4,-15984.579892792384,3.4028234663852886E38,1.57542003E9,,,,0,,1,,1.57542003E9
Raw,1932036490,37825000000,,,-1311853870175199973,0.0,8.769255150241941,,,0,10,0.0,32995,53489926941780,85,18.083908081054688,-901.1567145369768,4.201248558657866,4,-29469.334245923586,3.4028234663852886E38,1.59806246E9,,,,0,,3,,1.59806246E9
Raw,1932036491,37825000000,,,-1311853870175199973,0.0,8.769255150241941,,,0,9,0.0,32995,53489933403655,74,20.163341522216797,-365.13050317980264,4.202410823679132,4,-12747.348285431131,3.4028234663852886E38,1.59862502E9,,,,0,,3,,1.59862502E9
Raw,1932036491,37825000000,,,-1311853870175199973,0.0,8.769255150241941,,,0,16,0.0,99,1928263630,87,26.672773361206055,355.7965793890962,0.21780295654137583,4,9196.547998888158,3.4028234663852886E38,1.60143744E9,,,,0,,3,,1.60143744E9
Raw,1932036491,37825000000,,,-1311853870175199973,0.0,8.769255150241941,,,0,23,0.0,32995,53489924828587,33,38.742313385009766,-254.54668403448989,0.05477152278344921,4,-7608.725270817443,3.4028234663852886E38,1.60368755E9,,,,0,,3,,1.60368755E9
Raw,1932036491,37825000000,,,-1311853870175199973,0.0,8.769255150241941,,,0,7,0.0,32995,53489932708807,33,35.566566467285156,-240.45157739737294,0.07998224764189171,4,-8378.414610839118,3.4028234663852886E38,1.60481254E9,,,,0,,3,,1.60481254E9
Raw,1932036492,37825000000,,,-1311853870175199973,0.0,8.769255150241941,,,0,8,0.0,32995,53489925445444,33,35.996280670166016,-565.0907418885877,0.0749254378944767,4,-18457.632559177946,3.4028234663852886E38,1.60537498E9,,,,0,,3,,1.60537498E9
Raw,1932036492,37825000000,,,-1311853870175199973,0.0,8.769255150241941,,,0,193,0.0,35,9007601,62,23.566789627075195,-236.3427838924938,0.3109266289019901,4,-8489.60449380224,3.4028234663852886E38,1.57542003E9,,,,0,,4,,1.57542003E9
Raw,1932036492,37825000000,,,-1311853870175199973,0.0,8.769255150241941,,,0,194,0.0,35,12766835,60,22.82855987548828,-122.94094203573377,4.202296594195943,4,-4460.501740510536,3.4028234663852886E38,1.57542003E9,,,,0,,4,,1.57542003E9
Fix,gps,34.486691,109.464099,360.408325,0.901529,3.000000,1627818691000
Raw,1932037487,38825000000,,,-1311853870175200361,0.0,10.034794195934019,,,0,10,0.0,16431,42708930398707,7,41.953460693359375,-463.8851026037762,0.03911438258218061,4,-17083.08576350898,3.4028234663852886E38,1.57542003E9,,,,0,,1,,1.57542003E9
Raw,1932037488,38825000000,,,-1311853870175200361,0.0,10.034794195934019,,,0,12,0.0,16431,42708921794058,166,30.573585510253906,-588.3428843670576,0.13837676218063483,4,-21668.22989828662,3.4028234663852886E38,1.57542003E9,,,,1,,1,,1.57542003E9
Raw,1932037489,38825000000,,,-1311853870175200361,0.0,10.034794195934019,,,0,15,0.0,16431,42708919519843,32,29.15886116027832,415.5358661103435,0.16598567379673168,4,14799.58501065825,3.4028234663852886E38,1.57542003E9,,,,0,,1,,1.57542003E9
Raw,1932037489,38825000000,,,-1311853870175200361,0.0,10.034794195934019,,,0,18,0.0,16431,42708925017792,166,12.443769454956055,517.8893343659302,4.200902674977998,4,14843.995622285873,3.4028234663852886E38,1.57542003E9,,,,1,,1,,1.57542003E9
Raw,1932037491,38825000000,,,-1311853870175200361,0.0,10.034794195934019,,,0,23,0.0,16431,42708932532543,35,28.546417236328125,-37.33331791148322,0.17659851474213362,4,-1453.813819101409,3.4028234663852886E38,1.57542003E9,,,,0,,1,,1.57542003E9
Raw,1932037492,38825000000,,,-1311853870175200361,0.0,10.034794195934019,,,0,24,0.0,16431,42708929214585,70,20.97649574279785,352.2001304118962,4.20165754813614,4,12877.35390929396,3.4028234663852886E38,1.57542003E9,,,,0,,1,,1.57542003E9
Raw,1932037492,38825000000,,,-1311853870175200361,0.0,10.034794195934019,,,0,25,0.0,16431,42708920054121,56,24.438024520874023,-733.423790160009,0.28339399508836993,4,-26969.590862814475,3.4028234663852886E38,1.57542003E9,,,,0,,1,,1.57542003E9
Raw,1932037492,38825000000,,,-1311853870175200361,0.0,10.034794195934019,,,0,31,0.0,16,14484930,1000000000,7.0,-847.4529877939844,2.99792458E8,4,-3402.852339480999,3.4028234663852886E38,1.57542003E9,,,,0,,1,,1.57542003E9
Raw,1932037493,38825000000,,,-1311853870175200361,0.0,10.034794195934019,,,0,32,0.0,16431,42708925783811,6,44.82707595825195,-447.38500150458367,0.031040364292606926,4,-16431.926546986277,3.4028234663852886E38,1.57542003E9,,,,0,,1,,1.57542003E9
Raw,1932037494,38825000000,,,-1311853870175200361,0.0,10.034794195934019,,,0,10,0.0,32995,53490926944751,90,17.024669647216797,-901.0773024132786,4.2012490911962495,4,-30369.934189371612,3.4028234663852886E38,1.59806246E9,,,,0,,3,,1.59806246E9
Raw,1932037495,38825000000,,,-1311853870175200361,0.0,10.034794195934019,,,0,9,0.0,32995,53490933404770,79,19.248931884765625,-365.08207200908373,4.202410823679132,4,-13112.536237369455,3.4028234663852886E38,1.59862502E9,,,,0,,3,,1.59862502E9
Raw,1932037496,38825000000,,,-1311853870175200361,0.0,10.034794195934019,,,0,16,0.0,99,928262450,89,26.4466495513916,355.2975099782327,0.22350817337486018,4,9552.465048522416,3.4028234663852886E38,1.60143744E9,,,,0,,3,,1.60143744E9
Raw,1932037496,38825000000,,,-1311853870175200361,0.0,10.034794195934019,,,0,23,0.0,32995,53490924829445,33,37.8127555847168,-254.2439125319695,0.06086032535014768,4,-7862.951915074153,3.4028234663852886E38,1.60368755E9,,,,0,,3,,1.60368755E9
Raw,1932037496,38825000000,,,-1311853870175200361,0.0,10.034794195934019,,,0,7,0.0,32995,53490932709637,33,37.27528762817383,-240.40807114162158,0.06610721801670505,4,-8618.854546863247,3.4028234663852886E38,1.60481254E9,,,,0,,3,,1.60481254E9
