# 
# Header Description:
# 
# Version: v2.0.0.1 Platform: 10 Manufacturer: HUAWEI Model: BLA-AL00
# 
# Raw,ElapsedRealtimeMillis,TimeNanos,LeapSecond,TimeUncertaintyNanos,FullBiasNanos,BiasNanos,BiasUncertaintyNanos,DriftNanosPerSecond,DriftUncertaintyNanosPerSecond,HardwareClockDiscontinuityCount,Svid,TimeOffsetNanos,State,ReceivedSvTimeNanos,ReceivedSvTimeUncertaintyNanos,Cn0DbHz,PseudorangeRateMetersPerSecond,PseudorangeRateUncertaintyMetersPerSecond,AccumulatedDeltaRangeState,AccumulatedDeltaRangeMeters,AccumulatedDeltaRangeUncertaintyMeters,CarrierFrequencyHz,CarrierCycles,CarrierPhase,CarrierPhaseUncertainty,MultipathIndicator,SnrInDb,ConstellationType,AgcDb,CarrierFrequencyHz
# 
# Fix,Provider,Latitude,Longitude,Altitude,Speed,Accuracy,(UTC)TimeInMs
# 
# Nav,Svid,Type,Status,MessageId,Sub-messageId,Data(Bytes)
# 
Fix,gps,34.486310,109.464221,358.644257,0.518392,3.000000,1627820598999
Raw,1933945511,1946824000000,,,-1311853870175938738,0.0,10.142831227118402,,,0,10,0.0,16431,44616931910268,7,42.43109893798828,-316.90352045791724,0.037393530561987576,1,-770132.2979545441,7.239184342324734E-4,1.57542003E9,,,,0,,1,,1.57542003E9
Raw,1933945512,1946824000000,,,-1311853870175938738,0.0,10.142831227118402,,,0,12,0.0,16431,44616924126565,17,34.5677604675293,-445.5806762562661,0.08790690139635488,4,-970957.7651698373,3.4028234663852886E38,1.57542003E9,,,,0,,1,,1.57542003E9
Raw,1933945512,1946824000000,,,-1311853870175938738,0.0,10.142831227118402,,,0,15,0.0,16431,44616915875505,39,27.65403175354004,416.1586889208413,0.19606435697845792,4,535914.183422161,3.4028234663852886E38,1.57542003E9,,,,0,,1,,1.57542003E9
Raw,1933945512,1946824000000,,,-1311853870175938738,0.0,10.142831227118402,,,0,18,0.0,16431,44616920523727,26,30.95950698852539,566.6341659322231,0.1357461806651129,4,1058788.2929901085,3.4028234663852886E38,1.57542003E9,,,,0,,1,,1.57542003E9
Raw,1933945512,1946824000000,,,-1311853870175938738,0.0,10.142831227118402,,,0,23,0.0,16431,44616931192862,14,36.184051513671875,145.51598539169333,0.0743778636228955,1,100346.95560553271,0.0014098184183239937,1.57542003E9,,,,0,,1,,1.57542003E9
Raw,1933945513,1946824000000,,,-1311853870175938738,0.0,10.142831227118402,,,0,24,0.0,16431,44616925536474,29,30.173307418823242,477.7430294259509,0.145560829783267,4,615952.8519586924,3.4028234663852886E38,1.57542003E9,,,,0,,1,,1.57542003E9
Raw,1933945513,1946824000000,,,-1311853870175938738,0.0,10.142831227118402,,,0,25,0.0,16431,44616923635707,13,36.573238372802734,-691.7967728963963,0.06984765944822441,4,-1152908.694621608,3.4028234663852886E38,1.57542003E9,,,,0,,1,,1.57542003E9
Raw,1933945513,1946824000000,,,-1311853870175938738,0.0,10.142831227118402,,,0,31,0.0,16,1946018860288,1000000000,25.16153335571289,-820.2113574496934,2.99792458E8,2,-14.746214624641508,3.4028234663852886E38,1.57542003E9,,,,0,,1,,1.57542003E9
Raw,1933945514,1946824000000,,,-1311853870175938738,0.0,10.142831227118402,,,0,32,0.0,16431,44616927442093,9,40.07599639892578,-390.20080838393847,0.047569153334351716,4,-555579.5002951142,3.4028234663852886E38,1.57542003E9,,,,0,,1,,1.57542003E9
Raw,1933945514,1946824000000,,,-1311853870175938738,0.0,10.142831227118402,,,0,10,0.0,32995,55398931234506,33,42.216041564941406,-744.6984712724939,0.03815568035788078,1,-1526280.1372463577,7.315514958463609E-4,1.59806246E9,,,,0,,3,,1.59806246E9
Raw,1933945514,1946824000000,,,-1311853870175938738,0.0,10.142831227118402,,,0,9,0.0,32995,55398933730560,33,35.17218780517578,-49.968523824980906,0.08377513578324097,4,-410714.8302505446,3.4028234663852886E38,1.59862502E9,,,,0,,3,,1.59862502E9
Raw,1933945515,1946824000000,,,-1311853870175938738,0.0,10.142831227118402,,,0,16,0.0,32995,55398924283560,90,26.427982330322266,564.1965204767987,0.22327016200123262,4,545104.635771132,3.4028234663852886E38,1.60143744E9,,,,0,,3,,1.60143744E9
Raw,1933945515,1946824000000,,,-1311853870175938738,0.0,10.142831227118402,,,0,23,0.0,32961,55398924487208,33,35.092620849609375,42.45569385120129,0.08286067584930534,4,-2189.5695943821333,3.4028234663852886E38,1.60368755E9,,,,0,,3,,1.60368755E9
Raw,1933945515,1946824000000,,,-1311853870175938738,0.0,10.142831227118402,,,0,7,0.0,32961,55398932987051,33,35.22797775268555,-155.79700952548387,0.08312083749130783,4,-549705.7465415237,3.4028234663852886E38,1.60481254E9,,,,0,,3,,1.60481254E9
Raw,1933945516,1946824000000,,,-1311853870175938738,0.0,10.142831227118402,,,0,8,0.0,17,30153,33,36.133453369140625,-559.1866379451412,0.07423174840401353,4,-524851.7065748863,3.4028234663852886E38,1.60537498E9,,,,0,,3,,1.60537498E9
Raw,1933945516,1946824000000,,,-1311853870175938738,0.0,10.142831227118402,,,0,193,0.0,35,9587081,19,33.734779357910156,-257.5466900225407,0.09766218912661012,4,-482013.8787419831,3.4028234663852886E38,1.57542003E9,,,,0,,4,,1.57542003E9
Raw,1933945516,1946824000000,,,-1311853870175938738,0.0,10.142831227118402,,,0,194,0.0,35,12478615,14,36.0807991027832,-99.31588635921946,0.07547449328843608,1,-94907.91144285958,0.001426677335985005,1.57542003E9,,,,0,,4,,1.57542003E9
Raw,1933945516,1946824000000,,,-1311853870175938738,0.0,10.142831227118402,,,0,6,0.0,16431,44602878661051,7,35.889339447021484,-80.52103050357437,0.07821867189781773,1,-130792.35803101293,0.0014718546299263835,1.56109798E9,,,,0,,5,,1.56109798E9
Raw,1933945517,1946824000000,,,-1311853870175938738,0.0,10.142831227118402,,,0,14,0.0,16431,44602924283580,12,31.576560974121094,145.78395870610393,0.12376916776301367,4,186569.6432073766,3.4028234663852886E38,1.56109798E9,,,,0,,5,,1.56109798E9
Raw,1933945517,1946824000000,,,-1311853870175938738,0.0,10.142831227118402,,,0,16,0.0,16431,44602878017512,6,37.583099365234375,-78.34309336685374,0.06483988899707824,4,-129129.04743185146,3.4028234663852886E38,1.56109798E9,,,,0,,5,,1.56109798E9
Raw,1933945520,1946824000000,,,-1311853870175938738,0.0,10.142831227118402,,,0,24,0.0,16431,44602924126679,10,33.44178009033203,57.229254388475425,0.09997148357883645,4,-67396.89590416933,3.4028234663852886E38,1.56109798E9,,,,0,,5,,1.56109798E9
Raw,1933945520,1946824000000,,,-1311853870175938738,0.0,10.142831227118402,,,0,25,0.0,16431,44602923474543,6,44.446510314941406,-559.3828847297996,0.030624988514191293,1,-867112.7665994393,5.792753654532135E-4,1.56109798E9,,,,0,,5,,1.56109798E9
Raw,1933945520,1946824000000,,,-1311853870175938738,0.0,10.142831227118402,,,0,26,0.0,16431,44602914795263,10,32.742820739746094,444.34777747400994,0.11020558988285845,4,727516.8594688966,3.4028234663852886E38,1.56109798E9,,,,0,,5,,1.56109798E9
Raw,1933945521,1946824000000,,,-1311853870175938738,0.0,10.142831227118402,,,0,27,0.0,16431,44602913022987,6,39.96797561645508,141.93857146646133,0.04915154121446472,4,127063.90508661486,3.4028234663852886E38,1.56109798E9,,,,0,,5,,1.56109798E9
Raw,1933945521,1946824000000,,,-1311853870175938738,0.0,10.142831227118402,,,0,33,0.0,16431,44602926112324,9,33.984561920166016,-97.86024168235849,0.0943175651692933,4,-263989.4834247091,3.4028234663852886E38,1.56109798E9,,,,0,,5,,1.56109798E9
Raw,1933946439,1947824000000,,,-1311853870175939124,0.0,10.223555204014197,,,0,10,0.0,16431,44617931911335,6,42.826255798339844,-316.73351716478146,0.035825937263831986,1,-770449.0390020486,6.917220889590681E-4,1.57542003E9,,,,0,,1,,1.57542003E9
Raw,1933946439,1947824000000,,,-1311853870175939124,0.0,10.223555204014197,,,0,12,0.0,16431,44617924128057,13,36.71949768066406,-445.2301722733855,0.06878083529031681,4,-971403.0814042441,3.4028234663852886E38,1.57542003E9,,,,0,,1,,1.57542003E9
Raw,1933946439,1947824000000,,,-1311853870175939124,0.0,10.223555204014197,,,0,15,0.0,16431,44617915874136,48,25.78759765625,415.3986160579261,0.2423790537444135,4,536329.6366956661,3.4028234663852886E38,1.57542003E9,,,,0,,1,,1.57542003E9
Raw,1933946439,1947824000000,,,-1311853870175939124,0.0,10.223555204014197,,,0,18,0.0,16431,44617920521797,16,34.92145919799805,566.6994679189208,0.08737789107997446,4,1059354.8738229335,3.4028234663852886E38,1.57542003E9,,,,0,,1,,1.57542003E9
Raw,1933946439,1947824000000,,,-1311853870175939124,0.0,10.223555204014197,,,0,23,0.0,16431,44617931192335,12,37.52215576171875,145.68072294529634,0.06404590339096622,1,100492.63399498789,0.0012085313210263848,1.57542003E9,,,,0,,1,,1.57542003E9
Raw,1933946439,1947824000000,,,-1311853870175939124,0.0,10.223555204014197,,,0,24,0.0,16431,44617925534889,23,31.95663833618164,477.38806064126584,0.11872810118155108,4,616430.1310598009,3.4028234663852886E38,1.57542003E9,,,,0,,1,,1.57542003E9
Raw,1933946439,1947824000000,,,-1311853870175939124,0.0,10.223555204014197,,,0,25,0.0,16431,44617923638053,16,35.33692932128906,-691.6997060602193,0.08043216768745931,4,-1153600.581501007,3.4028234663852886E38,1.57542003E9,,,,0,,1,,1.57542003E9
Raw,1933946440,1947824000000,,,-1311853870175939124,0.0,10.223555204014197,,,0,31,0.0,16,1947018863024,1000000000,29.396648406982422,-820.2113574496934,2.99792458E8,2,-14.73980046010601,3.4028234663852886E38,1.57542003E9,,,,0,,1,,1.57542003E9
Raw,1933946440,1947824000000,,,-1311853870175939124,0.0,10.223555204014197,,,0,32,0.0,16431,44617927443441,8,41.16254425048828,-390.0901767300654,0.042133346836821295,4,-555969.5205147625,3.4028234663852886E38,1.57542003E9,,,,0,,1,,1.57542003E9
Raw,1933946440,1947824000000,,,-1311853870175939124,0.0,10.223555204014197,,,0,10,0.0,32995,55399931236950,33,40.435630798339844,-744.529831277619,0.04637668756212132,1,-1525535.6538203075,8.518965914845467E-4,1.59806246E9,,,,0,,3,,1.59806246E9
Raw,1933946440,1947824000000,,,-1311853870175939124,0.0,10.223555204014197,,,0,9,0.0,32995,55399933730839,166,31.781681060791016,-49.59199788654516,0.12259785791014588,4,-410764.6020204112,3.4028234663852886E38,1.59862502E9,,,,1,,3,,1.59862502E9
Raw,1933946440,1947824000000,,,-1311853870175939124,0.0,10.223555204014197,,,0,16,0.0,32995,55399924281724,80,27.449586868286133,564.2688093670836,0.19858056755528208,4,545668.5457270321,3.4028234663852886E38,1.60143744E9,,,,0,,3,,1.60143744E9
Raw,1933946440,1947824000000,,,-1311853870175939124,0.0,10.223555204014197,,,0,23,0.0,32961,55399924487155,33,36.070777893066406,42.64813192134321,0.07412157952599546,4,-2146.8718125577257,3.4028234663852886E38,1.60368755E9,,,,0,,3,,1.60368755E9
Raw,1933946440,1947824000000,,,-1311853870175939124,0.0,10.223555204014197,,,0,7,0.0,32961,55399932987577,52,31.179672241210938,-155.7647675216133,0.13108541305653082,4,-549861.3682781962,3.4028234663852886E38,1.60481254E9,,,,0,,3,,1.60481254E9
Raw,1933946440,1947824000000,,,-1311853870175939124,0.0,10.223555204014197,,,0,8,0.0,65,1928032043,33,36.36858367919922,-559.2410676282082,0.07228813308186727,4,-525410.8204541416,3.4028234663852886E38,1.60537498E9,,,,0,,3,,1.60537498E9
Raw,1933946440,1947824000000,,,-1311853870175939124,0.0,10.223555204014197,,,0,193,0.0,35,9587960,24,31.770244598388672,-257.518026676605,0.1220109257236836,4,-482271.4275773303,3.4028234663852886E38,1.57542003E9,,,,0,,4,,1.57542003E9
Raw,1933946440,1947824000000,,,-1311853870175939124,0.0,10.223555204014197,,,0,194,0.0,35,12478968,17,34.61743927001953,-99.12569773120805,0.08891216744553304,1,-95007.11391901028,0.0016884718788787723,1.57542003E9,,,,0,,4,,1.57542003E9
Raw,1933946441,1947824000000,,,-1311853870175939124,0.0,10.223555204014197,,,0,6,0.0,16431,44603878661328,8,34.850486755371094,-80.53734747963466,0.08772984070486345,1,-130872.83796974739,0.0016588516300544143,1.56109798E9,,,,0,,5,,1.56109798E9
Raw,1933946441,1947824000000,,,-1311853870175939124,0.0,10.223555204014197,,,0,14,0.0,16431,44603924283060,15,29.93515968322754,146.06447436451492,0.1493538344173876,4,186715.4554795447,3.4028234663852886E38,1.56109798E9,,,,0,,5,,1.56109798E9
Raw,1933946441,1947824000000,,,-1311853870175939124,0.0,10.223555204014197,,,0,16,0.0,16431,44603878017753,6,38.15752410888672,-78.37681795758306,0.06089795667573958,1,-129207.37514377455,0.0011335889576002955,1.56109798E9,,,,0,,5,,1.56109798E9
Raw,1933946441,1947824000000,,,-1311853870175939124,0.0,10.223555204014197,,,0,24,0.0,16431,44603924126490,14,30.44942855834961,57.29215356198827,0.1407838107098216,4,-67339.62398317404,3.4028234663852886E38,1.56109798E9,,,,0,,5,,1.56109798E9
Raw,1933946441,1947824000000,,,-1311853870175939124,0.0,10.223555204014197,,,0,25,0.0,16431,44603923476413,6,45.50720977783203,-559.2419196896212,0.03062532551113689,1,-867672.1362252102,5.126843461766839E-4,1.56109798E9,,,,0,,5,,1.56109798E9
Raw,1933946441,1947824000000,,,-1311853870175939124,0.0,10.223555204014197,,,0,26,0.0,16431,44603914793760,9,33.88491439819336,443.20727623138714,0.09695474516821917,4,727960.1188809237,3.4028234663852886E38,1.56109798E9,,,,0,,5,,1.56109798E9
Raw,1933946447,1947824000000,,,-1311853870175939124,0.0,10.223555204014197,,,0,27,0.0,16431,44603913022506,6,40.67456817626953,142.0100508984038,0.04549433802850833,4,127205.93793679091,3.4028234663852886E38,1.56109798E9,,,,0,,5,,1.56109798E9
Raw,1933946447,1947824000000,,,-1311853870175939124,0.0,10.223555204014197,,,0,33,0.0,16431,44603926112653,13,30.90587615966797,-97.40078460658862,0.13397187094425317,4,-264087.44175585837,3.4028234663852886E38,1.56109798E9,,,,0,,5,,1.56109798E9
Fix,gps,34.486310,109.464215,358.599670,0.436449,3.000000,1627820599999
Fix,gps,34.486311,109.464210,358.492920,0.383475,3.000000,1627820600999
Raw,1933947520,1948824000000,,,-1311853870175939511,0.0,10.604194712977113,,,0,10,0.0,16431,44618931912399,6,43.04302215576172,-316.60516263351656,0.03499591378682146,1,-770765.7208954969,6.746730650775135E-4,1.57542003E9,,,,0,,1,,1.57542003E9
Raw,1933947520,1948824000000,,,-1311853870175939511,0.0,10.604194712977113,,,0,12,0.0,16431,44618924129530,20,33.30513000488281,-444.66770949338957,0.10154543405394112,4,-971848.1269572695,3.4028234663852886E38,1.57542003E9,,,,0,,1,,1.57542003E9
Raw,1933947520,1948824000000,,,-1311853870175939511,0.0,10.604194712977113,,,0,15,0.0,16431,44618915872778,46,26.08092498779297,415.6691966802607,0.23442504381157814,4,536745.1108280297,3.4028234663852886E38,1.57542003E9,,,,0,,1,,1.57542003E9
Raw,1933947521,1948824000000,,,-1311853870175939511,0.0,10.604194712977113,,,0,18,0.0,16431,44618920519928,13,37.10236358642578,566.7082952751603,0.06879543017038053,4,1059921.5472975567,3.4028234663852886E38,1.57542003E9,,,,0,,1,,1.57542003E9
Raw,1933947521,1948824000000,,,-1311853870175939511,0.0,10.604194712977113,,,0,23,0.0,16431,44618931191836,14,36.08849334716797,145.91609639004287,0.07517819392458824,1,100638.43949137516,0.0014254142297431827,1.57542003E9,,,,0,,1,,1.57542003E9
Raw,1933947521,1948824000000,,,-1311853870175939511,0.0,10.604194712977113,,,0,24,0.0,16431,44618925533314,30,29.697650909423828,477.337482275786,0.15369770008342298,4,616907.4124683278,3.4028234663852886E38,1.57542003E9,,,,0,,1,,1.57542003E9
Raw,1933947521,1948824000000,,,-1311853870175939511,0.0,10.604194712977113,,,0,25,0.0,16431,44618923640295,19,33.9008674621582,-691.8912494658775,0.09477548161152066,4,-1154292.331454154,3.4028234663852886E38,1.57542003E9,,,,0,,1,,1.57542003E9
Raw,1933947521,1948824000000,,,-1311853870175939511,0.0,10.604194712977113,,,0,31,0.0,16,1948018865821,1000000000,25.977609634399414,-820.2113574496934,2.99792458E8,2,-14.759042953891788,3.4028234663852886E38,1.57542003E9,,,,0,,1,,1.57542003E9
Raw,1933947522,1948824000000,,,-1311853870175939511,0.0,10.604194712977113,,,0,32,0.0,16431,44618927444720,7,42.1608772277832,-390.05687817004264,0.03770420014126874,1,-556359.5759184943,7.467935793101788E-4,1.57542003E9,,,,0,,1,,1.57542003E9
Raw,1933947522,1948824000000,,,-1311853870175939511,0.0,10.604194712977113,,,0,10,0.0,32995,55400931239476,33,38.429237365722656,-744.4635068172256,0.05790300657381492,1,-1524791.3583806062,0.001073263818398118,1.59806246E9,,,,0,,3,,1.59806246E9
Raw,1933947522,1948824000000,,,-1311853870175939511,0.0,10.604194712977113,,,0,9,0.0,32995,55400933730894,59,29.99195098876953,-49.38716232284307,0.15008497633382956,4,-410814.2074854516,3.4028234663852886E38,1.59862502E9,,,,0,,3,,1.59862502E9
Raw,1933947522,1948824000000,,,-1311853870175939511,0.0,10.604194712977113,,,0,16,0.0,32995,55400924279777,64,29.36330223083496,564.5794368758325,0.15946485778759967,4,546233.0194258776,3.4028234663852886E38,1.60143744E9,,,,0,,3,,1.60143744E9
Raw,1933947522,1948824000000,,,-1311853870175939511,0.0,10.604194712977113,,,0,23,0.0,32961,55400924487012,33,36.65049743652344,42.91517222850649,0.06938807466309352,4,-2104.1010897687274,3.4028234663852886E38,1.60368755E9,,,,0,,3,,1.60368755E9
Raw,1933947523,1948824000000,,,-1311853870175939511,0.0,10.604194712977113,,,0,7,0.0,32961,55400932988144,46,32.22564697265625,-155.54007892698667,0.11647842606550296,4,-550016.9762872088,3.4028234663852886E38,1.60481254E9,,,,0,,3,,1.60481254E9
Raw,1933947523,1948824000000,,,-1311853870175939511,0.0,10.604194712977113,,,0,8,0.0,65,928033893,34,34.762237548828125,-559.150442376314,0.08667983311058686,4,-525969.9813202546,3.4028234663852886E38,1.60537498E9,,,,0,,3,,1.60537498E9
Raw,1933947523,1948824000000,,,-1311853870175939511,0.0,10.604194712977113,,,0,193,0.0,35,9588806,29,30.18980598449707,-257.2671457141406,0.1460154012187751,4,-482528.9443981666,3.4028234663852886E38,1.57542003E9,,,,0,,4,,1.57542003E9
Raw,1933947523,1948824000000,,,-1311853870175939511,0.0,10.604194712977113,,,0,194,0.0,35,12479295,18,34.310062408447266,-99.45381806076728,0.09203415707503632,1,-95106.23963452042,0.001749293296597898,1.57542003E9,,,,0,,4,,1.57542003E9
Raw,1933947524,1948824000000,,,-1311853870175939511,0.0,10.604194712977113,,,0,6,0.0,16431,44604878661600,7,36.02849578857422,-80.43568803244125,0.07702895618708167,1,-130953.32134777287,0.0014484621351584792,1.56109798E9,,,,0,,5,,1.56109798E9
Raw,1933947524,1948824000000,,,-1311853870175939511,0.0,10.604194712977113,,,0,14,0.0,16431,44604924282606,26,24.84588623046875,146.37900431453568,0.26772287159408703,4,186861.6645535234,3.4028234663852886E38,1.56109798E9,,,,0,,5,,1.56109798E9
Raw,1933947524,1948824000000,,,-1311853870175939511,0.0,10.604194712977113,,,0,16,0.0,16431,44604878018008,6,38.43942642211914,-78.33243407857623,0.05905679258551155,1,-129285.71989368889,0.0010973889147862792,1.56109798E9,,,,0,,5,,1.56109798E9
Raw,1933947524,1948824000000,,,-1311853870175939511,0.0,10.604194712977113,,,0,24,0.0,16431,44604924126274,18,27.917661666870117,57.78769117829461,0.18817490068275733,4,-67282.34251362226,3.4028234663852886E38,1.56109798E9,,,,0,,5,,1.56109798E9
Raw,1933947524,1948824000000,,,-1311853870175939511,0.0,10.604194712977113,,,0,25,0.0,16431,44604923478280,6,45.65357971191406,-559.2077009032723,0.03062566042785443,1,-868231.3545270476,5.041172262281179E-4,1.56109798E9,,,,0,,5,,1.56109798E9
Raw,1933947524,1948824000000,,,-1311853870175939511,0.0,10.604194712977113,,,0,26,0.0,16431,44604914792352,11,31.970184326171875,443.49166024861347,0.12020986426998187,4,728403.4550055399,3.4028234663852886E38,1.56109798E9,,,,0,,5,,1.56109798E9
Raw,1933947525,1948824000000,,,-1311853870175939511,0.0,10.604194712977113,,,0,27,0.0,16431,44604913022037,6,39.43601608276367,142.16245912335967,0.052107757469926075,4,127348.0156006599,3.4028234663852886E38,1.56109798E9,,,,0,,5,,1.56109798E9
Raw,1933947525,1948824000000,,,-1311853870175939511,0.0,10.604194712977113,,,0,33,0.0,16431,44604926112965,12,31.239009857177734,-97.87685687991336,0.12897230075211658,4,-264185.3585437172,3.4028234663852886E38,1.56109798E9,,,,0,,5,,1.56109798E9
Fix,gps,34.486311,109.464207,358.397766,0.267507,3.000000,1627820601999
Raw,1933948544,1949824000000,,,-1311853870175939898,0.0,10.189809139705211,,,0,10,0.0,16431,44619931913438,8,41.28337860107422,-316.49159988838255,0.04237380871910265,1,-771082.2366601251,7.8378472244367E-4,1.57542003E9,,,,0,,1,,1.57542003E9
Raw,1933948544,1949824000000,,,-1311853870175939898,0.0,10.189809139705211,,,0,12,0.0,16431,44619924131055,166,30.79939079284668,-443.92914266054026,0.13525438978916865,4,-972292.2323427255,3.4028234663852886E38,1.57542003E9,,,,1,,1,,1.57542003E9
Raw,1933948545,1949824000000,,,-1311853870175939898,0.0,10.189809139705211,,,0,15,0.0,16431,44619915871388,54,24.710277557373047,416.4661808435901,0.2740079228758955,4,537161.6368465924,3.4028234663852886E38,1.57542003E9,,,,0,,1,,1.57542003E9
Raw,1933948545,1949824000000,,,-1311853870175939898,0.0,10.189809139705211,,,0,18,0.0,16431,44619920518015,14,36.22703552246094,566.667600822072,0.075698017953859,4,1060488.1706509278,3.4028234663852886E38,1.57542003E9,,,,0,,1,,1.57542003E9
Raw,1933948545,1949824000000,,,-1311853870175939898,0.0,10.189809139705211,,,0,23,0.0,16431,44619931191370,13,36.963008880615234,146.2362499453899,0.06817038820587273,1,100784.40140295005,0.0012888881610706449,1.57542003E9,,,,0,,1,,1.57542003E9
Raw,1933948545,1949824000000,,,-1311853870175939898,0.0,10.189809139705211,,,0,24,0.0,16431,44619925531702,29,30.125045776367188,477.4178827907233,0.14636544535476181,4,617384.8240146986,3.4028234663852886E38,1.57542003E9,,,,0,,1,,1.57542003E9
Raw,1933948546,1949824000000,,,-1311853870175939898,0.0,10.189809139705211,,,0,25,0.0,16431,44619923642613,20,33.35076141357422,-691.1437530294193,0.1009296948693143,4,-1154984.092093264,3.4028234663852886E38,1.57542003E9,,,,0,,1,,1.57542003E9
Raw,1933948546,1949824000000,,,-1311853870175939898,0.0,10.189809139705211,,,0,31,0.0,16,1949018868557,1000000000,25.938549041748047,-820.2113574496934,2.99792458E8,2,-14.75262878935629,3.4028234663852886E38,1.57542003E9,,,,0,,1,,1.57542003E9
Raw,1933948546,1949824000000,,,-1311853870175939898,0.0,10.189809139705211,,,0,32,0.0,16431,44619927446035,8,41.28912353515625,-390.28236770239755,0.041543639626127976,1,-556749.5689679815,8.256352739408612E-4,1.57542003E9,,,,0,,1,,1.57542003E9
Raw,1933948547,1949824000000,,,-1311853870175939898,0.0,10.189809139705211,,,0,10,0.0,32995,55401931241944,33,37.83205795288086,-744.2945259977855,0.06188061064591366,1,-1524046.593266614,0.0011496494989842176,1.59806246E9,,,,0,,3,,1.59806246E9
Raw,1933948547,1949824000000,,,-1311853870175939898,0.0,10.189809139705211,,,0,9,0.0,32995,55401933731031,55,30.66577911376953,-49.240339360449866,0.13906633281954067,4,-410863.55826030415,3.4028234663852886E38,1.59862502E9,,,,0,,3,,1.59862502E9
Raw,1933948547,1949824000000,,,-1311853870175939898,0.0,10.189809139705211,,,0,16,0.0,32995,55401924277919,72,28.35784339904785,564.695249063097,0.17894018586387417,4,546797.61610639,3.4028234663852886E38,1.60143744E9,,,,0,,3,,1.60143744E9
Raw,1933948547,1949824000000,,,-1311853870175939898,0.0,10.189809139705211,,,0,23,0.0,32961,55401924486910,33,36.350406646728516,42.745744076824536,0.07179886344233083,4,-2061.06965134563,3.4028234663852886E38,1.60368755E9,,,,0,,3,,1.60368755E9
Raw,1933948548,1949824000000,,,-1311853870175939898,0.0,10.189809139705211,,,0,7,0.0,32961,55401932988668,41,33.18775177001953,-155.3550963942091,0.10451042471135641,4,-550172.4992211264,3.4028234663852886E38,1.60481254E9,,,,0,,3,,1.60481254E9
Raw,1933948548,1949824000000,,,-1311853870175939898,0.0,10.189809139705211,,,0,8,0.0,65,1928035750,33,35.750526428222656,-558.6674598849293,0.07751343298116958,1,-526528.972568427,0.0014543174766004086,1.60537498E9,,,,0,,3,,1.60537498E9
Raw,1933948548,1949824000000,,,-1311853870175939898,0.0,10.189809139705211,,,0,193,0.0,35,9589679,31,29.486679077148438,-257.07100117685184,0.15818173983700312,4,-482786.443428327,3.4028234663852886E38,1.57542003E9,,,,0,,4,,1.57542003E9
Raw,1933948549,1949824000000,,,-1311853870175939898,0.0,10.189809139705211,,,0,194,0.0,35,12479592,19,33.78407287597656,-98.4079041556094,0.09763957288714992,4,-95205.27781018519,3.4028234663852886E38,1.57542003E9,,,,0,,4,,1.57542003E9
Raw,1933948549,1949824000000,,,-1311853870175939898,0.0,10.189809139705211,,,0,6,0.0,16431,44605878661857,8,35.079673767089844,-80.1472737647311,0.08553273711232878,1,-131033.73725935114,0.0016156532801687717,1.56109798E9,,,,0,,5,,1.56109798E9
Raw,1933948549,1949824000000,,,-1311853870175939898,0.0,10.189809139705211,,,0,14,0.0,16431,44605924282097,22,26.381763458251953,146.52729708286643,0.22445699035542244,4,187008.43942331753,3.4028234663852886E38,1.56109798E9,,,,0,,5,,1.56109798E9
Raw,1933948549,1949824000000,,,-1311853870175939898,0.0,10.189809139705211,,,0,16,0.0,16431,44605878018288,6,37.999202728271484,-77.75838326336253,0.061958652481784615,1,-129363.91343895828,0.0011544409207999706,1.56109798E9,,,,0,,5,,1.56109798E9
Raw,1933948550,1949824000000,,,-1311853870175939898,0.0,10.189809139705211,,,0,24,0.0,16431,44605924126049,17,28.763996124267578,57.64107697094761,0.17077336027966494,4,-67224.84842831605,3.4028234663852886E38,1.56109798E9,,,,0,,5,,1.56109798E9
Raw,1933948550,1949824000000,,,-1311853870175939898,0.0,10.189809139705211,,,0,25,0.0,16431,44605923480147,6,44.65037155151367,-558.9960147658092,0.03062599534457197,1,-868790.5073133685,5.65837777685374E-4,1.56109798E9,,,,0,,5,,1.56109798E9
Raw,1933948551,1949824000000,,,-1311853870175939898,0.0,10.189809139705211,,,0,26,0.0,16431,44605914790791,166,32.59089660644531,443.4740737010477,0.11210239175275927,4,728846.8170591361,3.4028234663852886E38,1.56109798E9,,,,1,,5,,1.56109798E9
Raw,1933948551,1949824000000,,,-1311853870175939898,0.0,10.189809139705211,,,0,27,0.0,16431,44605913021570,6,38.81877136230469,142.2616561130693,0.05577284888068315,4,127490.21428047986,3.4028234663852886E38,1.56109798E9,,,,0,,5,,1.56109798E9
Raw,1933948551,1949824000000,,,-1311853870175939898,0.0,10.189809139705211,,,0,33,0.0,16431,44605926113273,9,33.94455337524414,-97.57981975070294,0.09474812245208536,4,-264283.0968240768,3.4028234663852886E38,1.56109798E9,,,,0,,5,,1.56109798E9
Fix,gps,34.486311,109.464203,358.237274,0.336861,3.000000,1627820602999
Raw,1933949535,1950824000000,,,-1311853870175940284,0.0,9.962387244479356,,,0,10,0.0,16431,44620931914511,10,39.08624267578125,-316.74483254034703,0.0539534398154988,1,-771398.7539864419,0.0010093775345012546,1.57542003E9,,,,0,,1,,1.57542003E9
Raw,1933949535,1950824000000,,,-1311853870175940284,0.0,9.962387244479356,,,0,12,0.0,16431,44620924132487,36,28.294782638549805,-443.9258707447141,0.18021227028484443,4,-972736.1915174247,3.4028234663852886E38,1.57542003E9,,,,0,,1,,1.57542003E9
Raw,1933949537,1950824000000,,,-1311853870175940284,0.0,9.962387244479356,,,0,15,0.0,16431,44620915869885,61,23.683027267456055,417.1648712023077,0.30804932401772844,4,537578.1938466274,3.4028234663852886E38,1.57542003E9,,,,0,,1,,1.57542003E9
Raw,1933949537,1950824000000,,,-1311853870175940284,0.0,9.962387244479356,,,0,18,0.0,16431,44620920516164,19,33.67789840698242,566.7686553056622,0.10025840527459318,1,1061054.8934342694,0.0018813555361703038,1.57542003E9,,,,0,,1,,1.57542003E9
Raw,1933949538,1950824000000,,,-1311853870175940284,0.0,9.962387244479356,,,0,23,0.0,16431,44620931190863,15,35.56953811645508,146.37658446012256,0.07968261991314907,1,100930.51159720446,0.0015131736872717738,1.57542003E9,,,,0,,1,,1.57542003E9
Raw,1933949538,1950824000000,,,-1311853870175940284,0.0,9.962387244479356,,,0,24,0.0,16431,44620925530074,41,27.162513732910156,477.9544769862184,0.2054520767315553,4,617862.426384997,3.4028234663852886E38,1.57542003E9,,,,0,,1,,1.57542003E9
Raw,1933949538,1950824000000,,,-1311853870175940284,0.0,9.962387244479356,,,0,25,0.0,16431,44620923644967,12,37.315460205078125,-691.2395247322484,0.06418221241477687,4,-1155675.5612500478,3.4028234663852886E38,1.57542003E9,,,,0,,1,,1.57542003E9
Raw,1933949538,1950824000000,,,-1311853870175940284,0.0,9.962387244479356,,,0,31,0.0,16,1950018871293,1000000000,31.09843635559082,-820.2113574496934,2.99792458E8,2,-14.746214624617066,3.4028234663852886E38,1.57542003E9,,,,0,,1,,1.57542003E9
Raw,1933949539,1950824000000,,,-1311853870175940284,0.0,9.962387244479356,,,0,32,0.0,16431,44620927447327,7,42.51702117919922,-390.2637586811361,0.036243751069533064,1,-557139.6843502758,7.167922449298203E-4,1.57542003E9,,,,0,,1,,1.57542003E9
Raw,1933949539,1950824000000,,,-1311853870175940284,0.0,9.962387244479356,,,0,10,0.0,32995,55402931244423,33,42.437679290771484,-743.9439538499919,0.03724706170433553,1,-1523302.3499090613,7.131209131330252E-4,1.59806246E9,,,,0,,3,,1.59806246E9
Raw,1933949539,1950824000000,,,-1311853870175940284,0.0,9.962387244479356,,,0,9,0.0,32995,55402933731198,62,29.56419563293457,-48.8744641896775,0.15753663615309188,4,-410912.74015017395,3.4028234663852886E38,1.59862502E9,,,,0,,3,,1.59862502E9
Raw,1933949540,1950824000000,,,-1311853870175940284,0.0,9.962387244479356,,,0,16,0.0,32995,55402924275996,43,32.698299407958984,564.8216608943401,0.1088661143936806,4,547362.3493807442,3.4028234663852886E38,1.60143744E9,,,,0,,3,,1.60143744E9
Raw,1933949540,1950824000000,,,-1311853870175940284,0.0,9.962387244479356,,,0,23,0.0,32961,55402924486694,33,42.451473236083984,42.77941328356201,0.035975626314519754,4,-2018.241898866309,3.4028234663852886E38,1.60368755E9,,,,0,,3,,1.60368755E9
Raw,1933949540,1950824000000,,,-1311853870175940284,0.0,9.962387244479356,,,0,7,0.0,32961,55402932989152,48,31.878597259521484,-155.11948437226692,0.12113153011391475,4,-550327.964126992,3.4028234663852886E38,1.60481254E9,,,,0,,3,,1.60481254E9
Raw,1933949540,1950824000000,,,-1311853870175940284,0.0,9.962387244479356,,,0,8,0.0,65,928037572,166,31.123262405395508,-558.796393817955,0.13103389828887146,4,-527088.3524617964,3.4028234663852886E38,1.60537498E9,,,,1,,3,,1.60537498E9
Raw,1933949541,1950824000000,,,-1311853870175940284,0.0,9.962387244479356,,,0,193,0.0,35,9590498,39,27.609813690185547,-257.17335079378984,0.19591992258384783,4,-483043.95558203344,3.4028234663852886E38,1.57542003E9,,,,0,,4,,1.57542003E9
Raw,1933949541,1950824000000,,,-1311853870175940284,0.0,9.962387244479356,,,0,194,0.0,35,12479943,25,31.499217987060547,-98.4055183836528,0.12634358312093574,4,-95304.18664622468,3.4028234663852886E38,1.57542003E9,,,,0,,4,,1.57542003E9
Raw,1933949542,1950824000000,,,-1311853870175940284,0.0,9.962387244479356,,,0,6,0.0,16431,44606878662119,12,31.401273727416992,-80.57908144764684,0.12886292236076102,1,-131114.26389573983,0.0023264402989298105,1.56109798E9,,,,0,,5,,1.56109798E9
Raw,1933949543,1950824000000,,,-1311853870175940284,0.0,9.962387244479356,,,0,14,0.0,16431,44606924281607,25,25.448381423950195,146.62460249623905,0.24983320983734691,4,187154.84611406326,3.4028234663852886E38,1.56109798E9,,,,0,,5,,1.56109798E9
Raw,1933949543,1950824000000,,,-1311853870175940284,0.0,9.962387244479356,,,0,16,0.0,16431,44606878018534,10,32.735599517822266,-78.52132757323977,0.11087482421225703,4,-129442.3455912254,3.4028234663852886E38,1.56109798E9,,,,0,,5,,1.56109798E9
Raw,1933949544,1950824000000,,,-1311853870175940284,0.0,9.962387244479356,,,0,24,0.0,16431,44606924125829,20,27.329439163208008,58.01683605411159,0.2013077465409635,4,-67167.30176873348,3.4028234663852886E38,1.56109798E9,,,,0,,5,,1.56109798E9
Raw,1933949544,1950824000000,,,-1311853870175940284,0.0,9.962387244479356,,,0,25,0.0,16431,44606923482006,6,39.10048294067383,-558.8755673644575,0.052351772381732636,1,-869349.5280491123,0.0010169690940529108,1.56109798E9,,,,0,,5,,1.56109798E9
Raw,1933949544,1950824000000,,,-1311853870175940284,0.0,9.962387244479356,,,0,26,0.0,16431,44606914789336,9,34.09336471557617,443.55379256685455,0.09471795082431395,4,729290.3423562597,3.4028234663852886E38,1.56109798E9,,,,0,,5,,1.56109798E9
Raw,1933949545,1950824000000,,,-1311853870175940284,0.0,9.962387244479356,,,0,27,0.0,16431,44606913021092,6,41.72175598144531,141.85656907606744,0.04059299620532969,1,127632.15729410498,7.5204559834674E-4,1.56109798E9,,,,0,,5,,1.56109798E9
Raw,1933949545,1950824000000,,,-1311853870175940284,0.0,9.962387244479356,,,0,33,0.0,16431,44606926113629,13,31.00580596923828,-96.64523618977682,0.13245210624963594,4,-264380.7709852719,3.4028234663852886E38,1.56109798E9,,,,0,,5,,1.56109798E9
Fix,gps,34.486311,109.464199,358.086548,0.385687,3.000000,1627820603999
Raw,1933950579,1951824000000,,,-1311853870175940672,0.0,10.177957100104033,,,0,10,0.0,16431,44621931915550,11,38.15300369262695,-316.337581267356,0.05983034619162558,1,-771715.149548323,0.0011238685110583901,1.57542003E9,,,,0,,1,,1.57542003E9
Raw,1933950579,1951824000000,,,-1311853870175940672,0.0,10.177957100104033,,,0,12,0.0,16431,44621924133991,35,28.575889587402344,-444.42500832049063,0.17449725141674488,4,-973179.5180297426,3.4028234663852886E38,1.57542003E9,,,,0,,1,,1.57542003E9
Raw,1933950579,1951824000000,,,-1311853870175940672,0.0,10.177957100104033,,,0,15,0.0,16,1951015868678,1000000000,22.43086814880371,415.4895821343855,2.99792458E8,2,524294.2319626807,3.4028234663852886E38,1.57542003E9,,,,0,,1,,1.57542003E9
Raw,1933950579,1951824000000,,,-1311853870175940672,0.0,10.177957100104033,,,0,18,0.0,16431,44621920514198,166,30.00840950012207,566.1914007395353,0.1510256721040485,4,1061621.4843512208,3.4028234663852886E38,1.57542003E9,,,,1,,1,,1.57542003E9
Raw,1933950579,1951824000000,,,-1311853870175940672,0.0,10.177957100104033,,,0,23,0.0,16431,44621931190385,15,35.64665985107422,146.21426676093267,0.07899599487717512,1,101076.7761288171,0.0014997977996245027,1.57542003E9,,,,0,,1,,1.57542003E9
Raw,1933950580,1951824000000,,,-1311853870175940672,0.0,10.177957100104033,,,0,24,0.0,16431,44621925528448,49,25.67729949951172,477.926222629761,0.24357912899088463,4,618340.0213701805,3.4028234663852886E38,1.57542003E9,,,,0,,1,,1.57542003E9
Raw,1933950580,1951824000000,,,-1311853870175940672,0.0,10.177957100104033,,,0,25,0.0,16431,44621923647249,15,35.70658493041992,-691.3736732811221,0.07710986041676215,4,-1156366.91927839,3.4028234663852886E38,1.57542003E9,,,,0,,1,,1.57542003E9
Raw,1933950580,1951824000000,,,-1311853870175940672,0.0,10.177957100104033,,,0,31,0.0,17,873925,45,26.309551239013672,-820.3943120763079,0.22894905146839906,4,-671.256234626881,3.4028234663852886E38,1.57542003E9,,,,0,,1,,1.57542003E9
Raw,1933950581,1951824000000,,,-1311853870175940672,0.0,10.177957100104033,,,0,32,0.0,16431,44621927448631,6,44.12875747680664,-390.13192773930587,0.03133982560310483,1,-557529.8819481675,5.953970248810947E-4,1.57542003E9,,,,0,,1,,1.57542003E9
Raw,1933950581,1951824000000,,,-1311853870175940672,0.0,10.177957100104033,,,0,10,0.0,32995,55403931246894,33,43.64030075073242,-744.0492686406474,0.032693009795193156,1,-1522558.419992512,6.209149723872542E-4,1.59806246E9,,,,0,,3,,1.59806246E9
Raw,1933950581,1951824000000,,,-1311853870175940672,0.0,10.177957100104033,,,0,9,0.0,32995,55403933731274,65,29.144390106201172,-48.722243418232495,0.16521540695095127,4,-410961.7872403281,3.4028234663852886E38,1.59862502E9,,,,0,,3,,1.59862502E9
Raw,1933950581,1951824000000,,,-1311853870175940672,0.0,10.177957100104033,,,0,16,0.0,32995,55403924274129,47,32.01058578491211,564.7742521973169,0.11777236952291986,4,547927.3337949862,3.4028234663852886E38,1.60143744E9,,,,0,,3,,1.60143744E9
Raw,1933950581,1951824000000,,,-1311853870175940672,0.0,10.177957100104033,,,0,23,0.0,32961,55403924486599,33,41.9493408203125,43.10831324931419,0.03806861449268878,4,-1975.3611221465603,3.4028234663852886E38,1.60368755E9,,,,0,,3,,1.60368755E9
Raw,1933950581,1951824000000,,,-1311853870175940672,0.0,10.177957100104033,,,0,7,0.0,32961,55403932989732,74,28.040752410888672,-154.87795904411803,0.18713179112472522,4,-550482.2546016587,3.4028234663852886E38,1.60481254E9,,,,0,,3,,1.60481254E9
Raw,1933950582,1951824000000,,,-1311853870175940672,0.0,10.177957100104033,,,0,8,0.0,65,1928039415,79,27.45853614807129,-559.1862630381195,0.1990527460410837,4,-527647.5773390731,3.4028234663852886E38,1.60537498E9,,,,0,,3,,1.60537498E9
Raw,1933950582,1951824000000,,,-1311853870175940672,0.0,10.177957100104033,,,0,193,0.0,35,9591422,50,25.508758544921875,-257.33905969740374,0.24906302620068888,4,-483300.33597181627,3.4028234663852886E38,1.57542003E9,,,,0,,4,,1.57542003E9
Raw,1933950582,1951824000000,,,-1311853870175940672,0.0,10.177957100104033,,,0,194,0.0,35,12480280,27,30.665555953979492,-98.82702464408453,0.13884485509852806,4,-95402.96422618603,3.4028234663852886E38,1.57542003E9,,,,0,,4,,1.57542003E9
Raw,1933950582,1951824000000,,,-1311853870175940672,0.0,10.177957100104033,,,0,6,0.0,16431,44607878662409,16,29.142047882080078,-80.43446106400643,0.16614625076108158,1,-131194.74547530536,0.003017541253939271,1.56109798E9,,,,0,,5,,1.56109798E9
Raw,1933950582,1951824000000,,,-1311853870175940672,0.0,10.177957100104033,,,0,14,0.0,16431,44607924281140,24,25.82770347595215,146.86790011212713,0.23919038032424278,4,187300.66028591894,3.4028234663852886E38,1.56109798E9,,,,0,,5,,1.56109798E9
Raw,1933950582,1951824000000,,,-1311853870175940672,0.0,10.177957100104033,,,0,16,0.0,16431,44607878018788,10,32.958866119384766,-78.33354175841322,0.10814343484498368,1,-129520.69127721727,0.0020624748431146145,1.56109798E9,,,,0,,5,,1.56109798E9
Raw,1933950583,1951824000000,,,-1311853870175940672,0.0,10.177957100104033,,,0,24,0.0,16431,44607924125640,27,24.541034698486328,58.55256966757952,0.27723032927427504,4,-67109.39828123811,3.4028234663852886E38,1.56109798E9,,,,0,,5,,1.56109798E9
Raw,1933950583,1951824000000,,,-1311853870175940672,0.0,10.177957100104033,,,0,25,0.0,16431,44607923483883,6,38.28722381591797,-558.932246489655,0.057429138942829194,1,-869908.531748549,0.0011167877819389105,1.56109798E9,,,,0,,5,,1.56109798E9
Raw,1933950583,1951824000000,,,-1311853870175940672,0.0,10.177957100104033,,,0,26,0.0,16431,44607914787856,7,35.614830017089844,443.68838418766313,0.0799257070432412,1,729734.07860859,0.0015191142447292805,1.56109798E9,,,,0,,5,,1.56109798E9
Raw,1933950583,1951824000000,,,-1311853870175940672,0.0,10.177957100104033,,,0,27,0.0,16431,44607913020626,6,43.169647216796875,142.10071023275447,0.03471978847469226,1,127774.01520061251,6.710089510306716E-4,1.56109798E9,,,,0,,5,,1.56109798E9
Raw,1933950583,1951824000000,,,-1311853870175940672,0.0,10.177957100104033,,,0,33,0.0,16431,44607926113956,16,29.029817581176758,-97.2765881350195,0.16600614324083474,4,-264478.353802989,3.4028234663852886E38,1.56109798E9,,,,0,,5,,1.56109798E9
Fix,gps,34.486310,109.464195,358.171539,0.351262,4.000000,1627820604999
Raw,1933951562,1952824000000,,,-1311853870175941059,0.0,10.05283907136519,,,0,10,0.0,16431,44622931916628,12,37.50590515136719,-316.0898699733482,0.06429235216960211,1,-772031.3955520182,0.0012107945512980223,1.57542003E9,,,,0,,1,,1.57542003E9
Raw,1933951563,1952824000000,,,-1311853870175941059,0.0,10.05283907136519,,,0,12,0.0,16431,44622924135477,42,26.998849868774414,-444.1511898647864,0.20909021254712057,4,-973623.5589256408,3.4028234663852886E38,1.57542003E9,,,,0,,1,,1.57542003E9
Raw,1933951563,1952824000000,,,-1311853870175941059,0.0,10.05283907136519,,,0,15,0.0,16,1952015867292,1000000000,21.725404739379883,415.4895821343855,2.99792458E8,2,524294.2287134954,3.4028234663852886E38,1.57542003E9,,,,0,,1,,1.57542003E9
Raw,1933951563,1952824000000,,,-1311853870175941059,0.0,10.05283907136519,,,0,18,0.0,16431,44622920512213,166,26.58616828918457,566.2860818037557,0.22217383188853257,4,1062188.2250303219,3.4028234663852886E38,1.57542003E9,,,,1,,1,,1.57542003E9
Raw,1933951563,1952824000000,,,-1311853870175941059,0.0,10.05283907136519,,,0,23,0.0,16431,44622931189907,17,34.865760803222656,146.57794361325932,0.08623765151339968,1,101223.15290083541,0.0016408832743763924,1.57542003E9,,,,0,,1,,1.57542003E9
Raw,1933951564,1952824000000,,,-1311853870175941059,0.0,10.05283907136519,,,0,24,0.0,16431,44622925526932,50,25.507001876831055,477.7851212597566,0.24838195953408926,4,618817.8061989977,3.4028234663852886E38,1.57542003E9,,,,0,,1,,1.57542003E9
Raw,1933951564,1952824000000,,,-1311853870175941059,0.0,10.05283907136519,,,0,25,0.0,16431,44622923649578,16,35.180999755859375,-691.1569088576371,0.08187933242280859,4,-1157058.2587087492,3.4028234663852886E38,1.57542003E9,,,,0,,1,,1.57542003E9
Raw,1933951564,1952824000000,,,-1311853870175941059,0.0,10.05283907136519,,,0,31,0.0,17,876732,48,25.756656646728516,-820.6426368545331,0.2437738716208797,4,-14.767416488483605,3.4028234663852886E38,1.57542003E9,,,,0,,1,,1.57542003E9
Raw,1933951565,1952824000000,,,-1311853870175941059,0.0,10.05283907136519,,,0,32,0.0,16431,44622927449923,6,44.78273010253906,-390.1520023061978,0.03134005650841941,1,-557919.9646879501,5.522147403098643E-4,1.57542003E9,,,,0,,1,,1.57542003E9
Raw,1933951566,1952824000000,,,-1311853870175941059,0.0,10.05283907136519,,,0,10,0.0,32995,55404931249393,33,42.34651184082031,-743.8475004980323,0.037619630549747846,1,-1521813.926481799,7.206452428363264E-4,1.59806246E9,,,,0,,3,,1.59806246E9
Raw,1933951567,1952824000000,,,-1311853870175941059,0.0,10.05283907136519,,,0,9,0.0,32995,55404933731353,77,27.778913497924805,-48.245331864415874,0.19292071633531394,4,-411010.5352519402,3.4028234663852886E38,1.59862502E9,,,,0,,3,,1.59862502E9
Raw,1933951567,1952824000000,,,-1311853870175941059,0.0,10.05283907136519,,,0,16,0.0,32995,55404924272324,59,30.025300979614258,565.3281943631821,0.14781792715303055,4,548492.3224416705,3.4028234663852886E38,1.60143744E9,,,,0,,3,,1.60143744E9
Raw,1933951567,1952824000000,,,-1311853870175941059,0.0,10.05283907136519,,,0,23,0.0,32961,55404924486461,33,40.812538146972656,43.04554614532037,0.04327887850357881,4,-1932.2464356224352,3.4028234663852886E38,1.60368755E9,,,,0,,3,,1.60368755E9
Raw,1933951568,1952824000000,,,-1311853870175941059,0.0,10.05283907136519,,,0,7,0.0,32961,55404932990162,79,27.5535888671875,-155.45751417606016,0.1977925938082613,4,-550637.1262528948,3.4028234663852886E38,1.60481254E9,,,,0,,3,,1.60481254E9
Raw,1933951569,1952824000000,,,-1311853870175941059,0.0,10.05283907136519,,,0,8,0.0,65,928041364,67,28.969867706298828,-559.3187074641671,0.16749495414193027,4,-528206.8406008088,3.4028234663852886E38,1.60537498E9,,,,0,,3,,1.60537498E9
Raw,1933951569,1952824000000,,,-1311853870175941059,0.0,10.05283907136519,,,0,193,0.0,35,9592222,48,25.7410945892334,-257.23118872250905,0.2425349377142617,4,-483557.7087409328,3.4028234663852886E38,1.57542003E9,,,,0,,4,,1.57542003E9
Raw,1933951569,1952824000000,,,-1311853870175941059,0.0,10.05283907136519,,,0,194,0.0,35,12480589,26,31.120067596435547,-98.35155733436306,0.13188076745270583,4,-95501.72785892234,3.4028234663852886E38,1.57542003E9,,,,0,,4,,1.57542003E9
Raw,1933951570,1952824000000,,,-1311853870175941059,0.0,10.05283907136519,,,0,6,0.0,16431,44608878662663,18,28.24851417541504,-80.5025833739814,0.18378442126637018,1,-131275.23556105513,0.003344489959999919,1.56109798E9,,,,0,,5,,1.56109798E9
Raw,1933951570,1952824000000,,,-1311853870175941059,0.0,10.05283907136519,,,0,14,0.0,16431,44608924280636,21,26.683292388916016,146.48748877364778,0.21682471681514348,4,187447.04253701773,3.4028234663852886E38,1.56109798E9,,,,0,,5,,1.56109798E9
Raw,1933951570,1952824000000,,,-1311853870175941059,0.0,10.05283907136519,,,0,16,0.0,16431,44608878019070,12,31.52059555053711,-78.4043310206111,0.12703491779323584,1,-129599.05624570449,0.0022946996614336967,1.56109798E9,,,,0,,5,,1.56109798E9
Raw,1933951571,1952824000000,,,-1311853870175941059,0.0,10.05283907136519,,,0,24,0.0,16431,44608924125488,26,24.979515075683594,57.946809386878414,0.26361914745521187,4,-67051.47808453969,3.4028234663852886E38,1.56109798E9,,,,0,,5,,1.56109798E9
Raw,1933951571,1952824000000,,,-1311853870175941059,0.0,10.05283907136519,,,0,25,0.0,16431,44608923485734,6,39.08349609375,-558.7587327034973,0.05245370355663606,1,-870467.3365765675,0.001018960028886795,1.56109798E9,,,,0,,5,,1.56109798E9
Raw,1933951571,1952824000000,,,-1311853870175941059,0.0,10.05283907136519,,,0,26,0.0,16431,44608914786388,7,35.64793395996094,444.0342188740001,0.07963150454927709,1,730177.782688438,0.0015133353881537914,1.56109798E9,,,,0,,5,,1.56109798E9
Raw,1933951573,1952824000000,,,-1311853870175941059,0.0,10.05283907136519,,,0,27,0.0,16431,44608913020146,6,44.37720489501953,141.9133930517051,0.03234201083452724,1,127916.06569372238,5.839161458425224E-4,1.56109798E9,,,,0,,5,,1.56109798E9
Raw,1933951574,1952824000000,,,-1311853870175941059,0.0,10.05283907136519,,,0,33,0.0,16431,44608926114244,17,28.800968170166016,-97.4208165704099,0.17040877118908793,4,-264575.89536125504,3.4028234663852886E38,1.56109798E9,,,,0,,5,,1.56109798E9
Fix,gps,34.486310,109.464189,358.196503,0.478293,4.000000,1627820605999
Raw,1933952490,1953824000000,,,-1311853870175941446,0.0,10.290682299673906,,,0,10,0.0,16431,44623931917676,12,37.3020133972168,-316.01539980584585,0.06576867338142989,4,-772347.540735528,3.4028234663852886E38,1.57542003E9,,,,0,,1,,1.57542003E9
Raw,1933952491,1953824000000,,,-1311853870175941446,0.0,10.290682299673906,,,0,12,0.0,16431,44623924136925,47,25.951541900634766,-444.32177255968304,0.23578929065648557,4,-974067.2565131896,3.4028234663852886E38,1.57542003E9,,,,0,,1,,1.57542003E9
Raw,1933952491,1953824000000,,,-1311853870175941446,0.0,10.290682299673906,,,0,15,0.0,16,1953015865907,1000000000,28.308347702026367,415.30393499370575,2.99792458E8,2,524294.2226828072,3.4028234663852886E38,1.57542003E9,,,,0,,1,,1.57542003E9
Raw,1933952491,1953824000000,,,-1311853870175941446,0.0,10.290682299673906,,,0,18,0.0,16431,44623920510476,25,31.305057525634766,566.7931265094455,0.13059339751595617,4,1062754.9119456795,3.4028234663852886E38,1.57542003E9,,,,0,,1,,1.57542003E9
Raw,1933952492,1953824000000,,,-1311853870175941446,0.0,10.290682299673906,,,0,23,0.0,16431,44623931189442,21,33.01605987548828,146.70486668135027,0.10622656293476718,4,101369.99627483972,3.4028234663852886E38,1.57542003E9,,,,0,,1,,1.57542003E9
Raw,1933952492,1953824000000,,,-1311853870175941446,0.0,10.290682299673906,,,0,24,0.0,16431,44623925525357,44,26.45877456665039,478.33374656240426,0.22270612064433437,4,619295.9840313481,3.4028234663852886E38,1.57542003E9,,,,0,,1,,1.57542003E9
Raw,1933952493,1953824000000,,,-1311853870175941446,0.0,10.290682299673906,,,0,25,0.0,16431,44623923651845,14,36.094383239746094,-691.0012201962409,0.07377232587667126,4,-1157749.2732785672,3.4028234663852886E38,1.57542003E9,,,,0,,1,,1.57542003E9
Raw,1933952493,1953824000000,,,-1311853870175941446,0.0,10.290682299673906,,,0,31,0.0,39,1918879450,33,29.05323600769043,-821.0107273849794,0.1678583283793207,4,-835.6027031669514,3.4028234663852886E38,1.57542003E9,,,,0,,1,,1.57542003E9
Raw,1933952493,1953824000000,,,-1311853870175941446,0.0,10.290682299673906,,,0,32,0.0,16431,44623927451239,6,44.403892517089844,-390.5569359721453,0.031340293654418164,1,-558310.364161798,5.768327391706407E-4,1.57542003E9,,,,0,,1,,1.57542003E9
Raw,1933952494,1953824000000,,,-1311853870175941446,0.0,10.290682299673906,,,0,10,0.0,32995,55405931251859,33,42.40779113769531,-743.8011483571613,0.03736982428302432,1,-1521070.053596328,7.155790226534009E-4,1.59806246E9,,,,0,,3,,1.59806246E9
Raw,1933952494,1953824000000,,,-1311853870175941446,0.0,10.290682299673906,,,0,9,0.0,32995,55405933731526,90,26.417991638183594,-48.36105884553908,0.2252256928697023,4,-411059.3394139427,3.4028234663852886E38,1.59862502E9,,,,0,,3,,1.59862502E9
Raw,1933952494,1953824000000,,,-1311853870175941446,0.0,10.290682299673906,,,0,16,0.0,32995,55405924270386,47,31.925094604492188,565.4464604873162,0.11892902624933827,4,549057.7024842878,3.4028234663852886E38,1.60143744E9,,,,0,,3,,1.60143744E9
Raw,1933952495,1953824000000,,,-1311853870175941446,0.0,10.290682299673906,,,0,23,0.0,32961,55405924486293,33,42.53171920776367,42.70781882332878,0.03565213836993747,4,-1889.4513734140048,3.4028234663852886E38,1.60368755E9,,,,0,,3,,1.60368755E9
Raw,1933952495,1953824000000,,,-1311853870175941446,0.0,10.290682299673906,,,0,7,0.0,32961,55405932990675,93,26.13292121887207,-155.2980594032182,0.23252449753117066,4,-550792.9919344918,3.4028234663852886E38,1.60481254E9,,,,0,,3,,1.60481254E9
Raw,1933952495,1953824000000,,,-1311853870175941446,0.0,10.290682299673906,,,0,8,0.0,65,1928043220,58,30.2315731048584,-560.0217262948631,0.14504521613558818,4,-528766.3741894251,3.4028234663852886E38,1.60537498E9,,,,0,,3,,1.60537498E9
Raw,1933952495,1953824000000,,,-1311853870175941446,0.0,10.290682299673906,,,0,193,0.0,35,9593051,45,26.353742599487305,-257.15317397952833,0.22613508536808558,4,-483814.92034721444,3.4028234663852886E38,1.57542003E9,,,,0,,4,,1.57542003E9
Raw,1933952496,1953824000000,,,-1311853870175941446,0.0,10.290682299673906,,,0,194,0.0,35,12480906,29,30.14440155029297,-98.73230949740764,0.14729186243958203,4,-95600.61982181457,3.4028234663852886E38,1.57542003E9,,,,0,,4,,1.57542003E9
Raw,1933952496,1953824000000,,,-1311853870175941446,0.0,10.290682299673906,,,0,6,0.0,16431,44609878662955,17,28.522329330444336,-80.13967337692651,0.17818537927303013,4,-131355.80792483914,3.4028234663852886E38,1.56109798E9,,,,0,,5,,1.56109798E9
Raw,1933952496,1953824000000,,,-1311853870175941446,0.0,10.290682299673906,,,0,14,0.0,16431,44609924280150,20,27.148746490478516,146.97742408616318,0.20555157820008552,4,187593.83954816282,3.4028234663852886E38,1.56109798E9,,,,0,,5,,1.56109798E9
Raw,1933952497,1953824000000,,,-1311853870175941446,0.0,10.290682299673906,,,0,16,0.0,16431,44609878019332,9,34.02074432373047,-78.83037876837449,0.09607182149166182,1,-129677.52976686253,0.001825133920647204,1.56109798E9,,,,0,,5,,1.56109798E9
Raw,1933952500,1953824000000,,,-1311853870175941446,0.0,10.290682299673906,,,0,24,0.0,16431,44609924125243,32,23.36015510559082,57.785786821036396,0.3174949906036444,4,-66993.35665455414,3.4028234663852886E38,1.56109798E9,,,,0,,5,,1.56109798E9
Raw,1933952500,1953824000000,,,-1311853870175941446,0.0,10.290682299673906,,,0,25,0.0,16431,44609923487601,6,39.68109130859375,-559.179514711728,0.0490082259825505,1,-871026.2412376316,9.512120159342885E-4,1.56109798E9,,,,0,,5,,1.56109798E9
Raw,1933952501,1953824000000,,,-1311853870175941446,0.0,10.290682299673906,,,0,26,0.0,16431,44609914784918,9,33.66340255737305,444.0343892862827,0.09938882002035176,1,730621.8493345759,0.0017930218018591404,1.56109798E9,,,,0,,5,,1.56109798E9
Raw,1933952501,1953824000000,,,-1311853870175941446,0.0,10.290682299673906,,,0,27,0.0,16431,44609913019678,6,44.433616638183594,141.43192722963562,0.032341925545176814,1,128057.64383486456,5.801359075121582E-4,1.56109798E9,,,,0,,5,,1.56109798E9
Raw,1933952501,1953824000000,,,-1311853870175941446,0.0,10.290682299673906,,,0,33,0.0,16431,44609926114571,23,26.00320053100586,-97.31210205471626,0.23475125685491804,4,-264673.2269773997,3.4028234663852886E38,1.56109798E9,,,,0,,5,,1.56109798E9
Fix,gps,34.486309,109.464184,358.273254,0.488132,4.000000,1627820606999
Raw,1933953521,1954824000000,,,-1311853870175941833,0.0,10.408360495461732,,,0,10,0.0,16431,44624931918710,10,39.197654724121094,-316.2345500012875,0.05329389518840022,4,-772663.6789864189,3.4028234663852886E38,1.57542003E9,,,,0,,1,,1.57542003E9
Raw,1933953522,1954824000000,,,-1311853870175941833,0.0,10.408360495461732,,,0,12,0.0,16431,44624924138389,47,26.016183853149414,-444.11155196785035,0.23404677514128347,4,-974510.9841912469,3.4028234663852886E38,1.57542003E9,,,,0,,1,,1.57542003E9
Raw,1933953522,1954824000000,,,-1311853870175941833,0.0,10.408360495461732,,,0,15,0.0,16,1954015864522,1000000000,23.776941299438477,415.30393499370575,2.99792458E8,2,524294.2194350738,3.4028234663852886E38,1.57542003E9,,,,0,,1,,1.57542003E9
Raw,1933953523,1954824000000,,,-1311853870175941833,0.0,10.408360495461732,,,0,18,0.0,16431,44624920508591,23,32.16802978515625,566.9617665043204,0.11859082277146482,4,1063321.594126948,3.4028234663852886E38,1.57542003E9,,,,0,,1,,1.57542003E9
Raw,1933953523,1954824000000,,,-1311853870175941833,0.0,10.408360495461732,,,0,23,0.0,16431,44624931188911,19,33.80343246459961,146.82739311254977,0.09719503647179967,4,101517.7151402537,3.4028234663852886E38,1.57542003E9,,,,0,,1,,1.57542003E9
Raw,1933953523,1954824000000,,,-1311853870175941833,0.0,10.408360495461732,,,0,24,0.0,16431,44624925523723,56,24.4288272857666,478.56250801058536,0.2810767208813083,4,619774.3256690277,3.4028234663852886E38,1.57542003E9,,,,0,,1,,1.57542003E9
Raw,1933953523,1954824000000,,,-1311853870175941833,0.0,10.408360495461732,,,0,25,0.0,16431,44624923654175,15,35.55027389526367,-690.4461533093104,0.07849943611851906,1,-1158440.0506787463,0.0015165334334596992,1.57542003E9,,,,0,,1,,1.57542003E9
Raw,1933953524,1954824000000,,,-1311853870175941833,0.0,10.408360495461732,,,0,31,0.0,39,2918882158,31,29.57073211669922,-821.0463776345023,0.15834647725747153,4,-1656.499562773875,3.4028234663852886E38,1.57542003E9,,,,0,,1,,1.57542003E9
Raw,1933953524,1954824000000,,,-1311853870175941833,0.0,10.408360495461732,,,0,32,0.0,16431,44624927452528,6,44.32322692871094,-390.7060126369761,0.0313405266399608,1,-558700.835029278,5.822147359140217E-4,1.57542003E9,,,,0,,1,,1.57542003E9
Raw,1933953524,1954824000000,,,-1311853870175941833,0.0,10.408360495461732,,,0,10,0.0,32995,55406931254366,33,42.66551971435547,-743.3211992044071,0.03633690368202644,1,-1520326.3277920156,6.946580833755434E-4,1.59806246E9,,,,0,,3,,1.59806246E9
Raw,1933953525,1954824000000,,,-1311853870175941833,0.0,10.408360495461732,,,0,9,0.0,32995,55406933731689,81,27.271015167236328,-48.813997651498966,0.20438918004422357,4,-411107.51107751986,3.4028234663852886E38,1.59862502E9,,,,0,,3,,1.59862502E9
Raw,1933953525,1954824000000,,,-1311853870175941833,0.0,10.408360495461732,,,0,16,0.0,32995,55406924268466,47,31.989255905151367,565.9316242559185,0.11805904159130948,4,549623.256209746,3.4028234663852886E38,1.60143744E9,,,,0,,3,,1.60143744E9
Raw,1933953525,1954824000000,,,-1311853870175941833,0.0,10.408360495461732,,,0,23,0.0,32961,55406924486154,33,41.27570724487305,42.42669394100744,0.04107337078968476,1,-1846.6730580199928,8.12336103990674E-4,1.60368755E9,,,,0,,3,,1.60368755E9
Raw,1933953526,1954824000000,,,-1311853870175941833,0.0,10.408360495461732,,,0,7,0.0,32961,55406932991180,81,27.326562881469727,-155.26971984061947,0.2029688336090142,4,-550949.0866062226,3.4028234663852886E38,1.60481254E9,,,,0,,3,,1.60481254E9
Raw,1933953526,1954824000000,,,-1311853870175941833,0.0,10.408360495461732,,,0,8,0.0,65,928045070,51,31.31499481201172,-559.9297718271646,0.12820606954877112,4,-529325.949200974,3.4028234663852886E38,1.60537498E9,,,,0,,3,,1.60537498E9
Raw,1933953527,1954824000000,,,-1311853870175941833,0.0,10.408360495461732,,,0,193,0.0,35,9593962,57,24.323917388916016,-256.82550524251803,0.28521231411405124,4,-484071.8071448854,3.4028234663852886E38,1.57542003E9,,,,0,,4,,1.57542003E9
Raw,1933953527,1954824000000,,,-1311853870175941833,0.0,10.408360495461732,,,0,194,0.0,35,12481260,30,29.884103775024414,-98.31243919488901,0.1517044421988707,4,-95698.94407115097,3.4028234663852886E38,1.57542003E9,,,,0,,4,,1.57542003E9
Raw,1933953527,1954824000000,,,-1311853870175941833,0.0,10.408360495461732,,,0,6,0.0,16431,44610878663195,15,29.794706344604492,-80.61457832611535,0.15436267410575621,4,-131436.30488585,3.4028234663852886E38,1.56109798E9,,,,0,,5,,1.56109798E9
Raw,1933953528,1954824000000,,,-1311853870175941833,0.0,10.408360495461732,,,0,14,0.0,16431,44610924279668,16,29.023653030395508,147.23297434517121,0.16579331094763639,4,187740.83235664846,3.4028234663852886E38,1.56109798E9,,,,0,,5,,1.56109798E9
Raw,1933953528,1954824000000,,,-1311853870175941833,0.0,10.408360495461732,,,0,16,0.0,16431,44610878019599,9,34.32676696777344,-78.41422345361684,0.09285820197660455,1,-129755.93458478042,0.0017619497375562787,1.56109798E9,,,,0,,5,,1.56109798E9
Raw,1933953528,1954824000000,,,-1311853870175941833,0.0,10.408360495461732,,,0,24,0.0,16431,44610924125107,28,24.40620231628418,58.169001441564745,0.2815557058733198,4,-66935.60482384023,3.4028234663852886E38,1.56109798E9,,,,0,,5,,1.56109798E9
Raw,1933953529,1954824000000,,,-1311853870175941833,0.0,10.408360495461732,,,0,25,0.0,16431,44610923489456,6,40.006736755371094,-558.6412845583197,0.04722828300410631,4,-871584.9697472419,3.4028234663852886E38,1.56109798E9,,,,0,,5,,1.56109798E9
Raw,1933953529,1954824000000,,,-1311853870175941833,0.0,10.408360495461732,,,0,26,0.0,16431,44610914783422,9,33.86491012573242,444.3720782655107,0.09717027343698231,1,731066.1305905592,0.0018581738695502281,1.56109798E9,,,,0,,5,,1.56109798E9
Raw,1933953529,1954824000000,,,-1311853870175941833,0.0,10.408360495461732,,,0,27,0.0,16431,44610913019205,6,44.64580535888672,141.18532361546482,0.032341840255826385,1,128199.10968664175,5.661354516632855E-4,1.56109798E9,,,,0,,5,,1.56109798E9
Raw,1933953530,1954824000000,,,-1311853870175941833,0.0,10.408360495461732,,,0,33,0.0,16431,44610926114934,20,27.17742156982422,-96.98610335807558,0.20520662646238785,4,-264770.41941099474,3.4028234663852886E38,1.56109798E9,,,,0,,5,,1.56109798E9
Fix,gps,34.486308,109.464177,358.238342,0.552395,4.000000,1627820607999
Raw,1933954487,1955824000000,,,-1311853870175942219,0.0,10.056066312638865,,,0,10,0.0,16431,44625931919780,7,42.4395751953125,-316.04501746056417,0.0373608501791767,4,-772979.7720991144,3.4028234663852886E38,1.57542003E9,,,,0,,1,,1.57542003E9
Raw,1933954487,1955824000000,,,-1311853870175942219,0.0,10.056066312638865,,,0,12,0.0,16431,44625924139920,41,27.064289093017578,-443.7699435061222,0.20752724567616876,4,-974954.3305787299,3.4028234663852886E38,1.57542003E9,,,,0,,1,,1.57542003E9
Raw,1933954487,1955824000000,,,-1311853870175942219,0.0,10.056066312638865,,,0,15,0.0,16,1955015863136,1000000000,25.665985107421875,415.30393499370575,2.99792458E8,2,524294.2291782744,3.4028234663852886E38,1.57542003E9,,,,0,,1,,1.57542003E9
Raw,1933954487,1955824000000,,,-1311853870175942219,0.0,10.056066312638865,,,0,18,0.0,16431,44625920506686,24,31.778831481933594,566.2926256354081,0.12385610465406599,4,1063888.207208735,3.4028234663852886E38,1.57542003E9,,,,0,,1,,1.57542003E9
Raw,1933954487,1955824000000,,,-1311853870175942219,0.0,10.056066312638865,,,0,23,0.0,16431,44625931188451,16,35.23518371582031,146.96484765970627,0.08273029547546357,4,101664.65631884837,3.4028234663852886E38,1.57542003E9,,,,0,,1,,1.57542003E9
Raw,1933954488,1955824000000,,,-1311853870175942219,0.0,10.056066312638865,,,0,24,0.0,16431,44625925522085,66,23.087928771972656,478.41380625277634,0.3278308283806761,4,620253.4399333885,3.4028234663852886E38,1.57542003E9,,,,0,,1,,1.57542003E9
Raw,1933954488,1955824000000,,,-1311853870175942219,0.0,10.056066312638865,,,0,25,0.0,16431,44625923656485,15,35.61810302734375,-690.8502349138448,0.07789430609699444,1,-1159130.8278979494,0.0015047370688989758,1.57542003E9,,,,0,,1,,1.57542003E9
Raw,1933954488,1955824000000,,,-1311853870175942219,0.0,10.056066312638865,,,0,31,0.0,39,3918884827,45,26.308752059936523,-820.77998915432,0.22897178420063058,4,-2477.3917571976044,3.4028234663852886E38,1.57542003E9,,,,0,,1,,1.57542003E9
Raw,1933954489,1955824000000,,,-1311853870175942219,0.0,10.056066312638865,,,0,32,0.0,16431,44625927453827,7,42.57371139526367,-390.4657994834033,0.03601786742549096,1,-559091.2667485513,7.121295784600079E-4,1.57542003E9,,,,0,,1,,1.57542003E9
Raw,1933954489,1955824000000,,,-1311853870175942219,0.0,10.056066312638865,,,0,10,0.0,32995,55407931256818,33,43.39924240112305,-743.3825476261482,0.03355790205493289,1,-1519583.2979525886,6.383882719092071E-4,1.59806246E9,,,,0,,3,,1.59806246E9
Raw,1933954489,1955824000000,,,-1311853870175942219,0.0,10.056066312638865,,,0,9,0.0,32995,55407933731953,70,28.550424575805664,-47.88930226327153,0.17673382941693194,4,-411156.6320710317,3.4028234663852886E38,1.59862502E9,,,,0,,3,,1.59862502E9
Raw,1933954489,1955824000000,,,-1311853870175942219,0.0,10.056066312638865,,,0,16,0.0,32995,55407924266628,45,32.45093536376953,565.5556606780153,0.1119871637601011,4,550188.9582631602,3.4028234663852886E38,1.60143744E9,,,,0,,3,,1.60143744E9
Raw,1933954489,1955824000000,,,-1311853870175942219,0.0,10.056066312638865,,,0,23,0.0,32961,55407924486015,33,40.601646423339844,43.045039168779596,0.04432264541367764,1,-1803.7336324294538,8.778874180279672E-4,1.60368755E9,,,,0,,3,,1.60368755E9
Raw,1933954489,1955824000000,,,-1311853870175942219,0.0,10.056066312638865,,,0,7,0.0,32961,55407932991750,68,28.821168899536133,-155.01883887815507,0.1712525616153946,4,-551103.9105491831,3.4028234663852886E38,1.60481254E9,,,,0,,3,,1.60481254E9
Raw,1933954490,1955824000000,,,-1311853870175942219,0.0,10.056066312638865,,,0,8,0.0,65,1928046922,55,30.6487979888916,-559.3876903561693,0.13831121835494387,4,-529885.4436061231,3.4028234663852886E38,1.60537498E9,,,,0,,3,,1.60537498E9
