# 
# Header Description:
# 
# Version: v2.0.0.1 Platform: 10 Manufacturer: HUAWEI Model: BLA-AL00
# 
# Raw,ElapsedRealtimeMillis,TimeNanos,LeapSecond,TimeUncertaintyNanos,FullBiasNanos,BiasNanos,BiasUncertaintyNanos,DriftNanosPerSecond,DriftUncertaintyNanosPerSecond,HardwareClockDiscontinuityCount,Svid,TimeOffsetNanos,State,ReceivedSvTimeNanos,ReceivedSvTimeUncertaintyNanos,Cn0DbHz,PseudorangeRateMetersPerSecond,PseudorangeRateUncertaintyMetersPerSecond,AccumulatedDeltaRangeState,AccumulatedDeltaRangeMeters,AccumulatedDeltaRangeUncertaintyMeters,CarrierFrequencyHz,CarrierCycles,CarrierPhase,CarrierPhaseUncertainty,MultipathIndicator,SnrInDb,ConstellationType,AgcDb,CarrierFrequencyHz
# 
# Fix,Provider,Latitude,Longitude,Altitude,Speed,Accuracy,(UTC)TimeInMs
# 
# Nav,Svid,Type,Status,MessageId,Sub-messageId,Data(Bytes)
# 
Raw,1933747515,1748824000000,,,-1311853870175862084,0.0,11.925555171246952,,,0,10,0.0,16431,44418931695233,6,43.21533203125,-334.660582553671,0.03431153539715151,1,-705665.6165275947,6.614208687096834E-4,1.57542003E9,,,,0,,1,,1.57542003E9
Raw,1933747515,1748824000000,,,-1311853870175862084,0.0,11.925555171246952,,,0,12,0.0,16431,44418923826284,12,37.484100341796875,-463.8096440450347,0.06299332463480839,4,-880929.3911814962,3.4028234663852886E38,1.57542003E9,,,,0,,1,,1.57542003E9
Raw,1933747516,1748824000000,,,-1311853870175862084,0.0,11.925555171246952,,,0,15,0.0,16431,44418916149917,18,34.062164306640625,415.6048149198891,0.09529394101118455,4,525956.8098561778,3.4028234663852886E38,1.57542003E9,,,,0,,1,,1.57542003E9
Raw,1933747516,1748824000000,,,-1311853870175862084,0.0,11.925555171246952,,,0,18,0.0,16431,44418920897628,15,35.904075622558594,565.2056338495261,0.0784940940928629,1,1073437.1518931778,0.0014560017734766006,1.57542003E9,,,,0,,1,,1.57542003E9
Raw,1933747516,1748824000000,,,-1311853870175862084,0.0,11.925555171246952,,,0,23,0.0,16431,44418931282692,12,37.316162109375,126.40720454963076,0.06555090262681887,1,73408.74634639153,0.0012375353835523129,1.57542003E9,,,,0,,1,,1.57542003E9
Raw,1933747516,1748824000000,,,-1311853870175862084,0.0,11.925555171246952,,,0,24,0.0,16,1748005848573,1000000000,30.548404693603516,467.47217890543243,2.99792458E8,2,524290.3287071191,3.4028234663852886E38,1.57542003E9,,,,0,,1,,1.57542003E9
Raw,1933747516,1748824000000,,,-1311853870175862084,0.0,11.925555171246952,,,0,25,0.0,16431,44418923176015,13,36.68016815185547,-700.2331351945745,0.06891835084640183,1,-1015082.495624671,0.001331549254246056,1.57542003E9,,,,0,,1,,1.57542003E9
Raw,1933747516,1748824000000,,,-1311853870175862084,0.0,11.925555171246952,,,0,31,0.0,16431,44418918316306,73,20.346044540405273,-826.782114242726,4.203294571126001,4,-5807.455969754515,3.4028234663852886E38,1.57542003E9,,,,0,,1,,1.57542003E9
Raw,1933747517,1748824000000,,,-1311853870175862084,0.0,11.925555171246952,,,0,32,0.0,16431,44418927182780,19,33.75617218017578,-394.9156731719345,0.09699374528387406,4,-735721.1807365804,3.4028234663852886E38,1.57542003E9,,,,0,,1,,1.57542003E9
Raw,1933747517,1748824000000,,,-1311853870175862084,0.0,11.925555171246952,,,0,10,0.0,32995,55200930735717,33,37.63022232055664,-765.7704271721127,0.06319677925991563,1,-1466655.4996242372,0.0011766769457608461,1.59806246E9,,,,0,,3,,1.59806246E9
Raw,1933747517,1748824000000,,,-1311853870175862084,0.0,11.925555171246952,,,0,9,0.0,32995,55200933686770,33,40.638275146484375,-82.89972182982848,0.04579451493745862,4,-397590.3228926462,3.4028234663852886E38,1.59862502E9,,,,0,,3,,1.59862502E9
Raw,1933747517,1748824000000,,,-1311853870175862084,0.0,11.925555171246952,,,0,16,0.0,16,4650769,1000000000,13.193941116333008,546.3689417784992,2.99792458E8,4,524727.1998690722,3.4028234663852886E38,1.60143744E9,,,,0,,3,,1.60143744E9
Raw,1933747517,1748824000000,,,-1311853870175862084,0.0,11.925555171246952,,,0,23,0.0,32961,55200924505964,40,33.4647102355957,13.86527159155537,0.09977807229479929,4,-7773.86249577184,3.4028234663852886E38,1.60368755E9,,,,0,,3,,1.60368755E9
Raw,1933747518,1748824000000,,,-1311853870175862084,0.0,11.925555171246952,,,0,7,0.0,32995,55200932880867,33,38.55016326904297,-166.00555731547865,0.05742567328288248,4,-359895.46055554564,3.4028234663852886E38,1.60481254E9,,,,0,,3,,1.60481254E9
Raw,1933747518,1748824000000,,,-1311853870175862084,0.0,11.925555171246952,,,0,8,0.0,65,927660446,42,32.97129821777344,-560.7072949078195,0.10613019012923808,4,-534945.5671918298,3.4028234663852886E38,1.60537498E9,,,,0,,3,,1.60537498E9
Raw,1933747518,1748824000000,,,-1311853870175862084,0.0,11.925555171246952,,,0,193,0.0,35,9417604,11,38.231441497802734,-255.890862037293,0.058862432717479374,4,-431197.0307750792,3.4028234663852886E38,1.57542003E9,,,,0,,4,,1.57542003E9
Raw,1933747518,1748824000000,,,-1311853870175862084,0.0,11.925555171246952,,,0,194,0.0,35,12412254,10,38.99119567871094,-101.87410702520748,0.05461303020761468,4,-75003.03289070012,3.4028234663852886E38,1.57542003E9,,,,0,,4,,1.57542003E9
Raw,1933747518,1748824000000,,,-1311853870175862084,0.0,11.925555171246952,,,0,6,0.0,16431,44404878608344,10,32.84461975097656,-79.41831818462123,0.10963841986295908,4,-114988.84401872658,3.4028234663852886E38,1.56109798E9,,,,0,,5,,1.56109798E9
Raw,1933747518,1748824000000,,,-1311853870175862084,0.0,11.925555171246952,,,0,14,0.0,16431,44404924376640,8,35.10995101928711,136.02721648038965,0.08267726630177707,4,158666.09814392767,3.4028234663852886E38,1.56109798E9,,,,0,,5,,1.56109798E9
Raw,1933747519,1748824000000,,,-1311853870175862084,0.0,11.925555171246952,,,0,16,0.0,16431,44404877966111,10,33.35554885864258,-77.76554057923232,0.10345086470983172,4,-113716.16686162422,3.4028234663852886E38,1.56109798E9,,,,0,,5,,1.56109798E9
Raw,1933747519,1748824000000,,,-1311853870175862084,0.0,11.925555171246952,,,0,24,0.0,16431,44404924157990,7,35.49555206298828,37.45448530472888,0.07908200814696914,4,-76776.90463525632,3.4028234663852886E38,1.56109798E9,,,,0,,5,,1.56109798E9
Raw,1933747519,1748824000000,,,-1311853870175862084,0.0,11.925555171246952,,,0,25,0.0,16431,44404923100328,6,38.16647720336914,-573.8703145239506,0.05815529247238507,1,-754929.4649160021,0.0011324211955070496,1.56109798E9,,,,0,,5,,1.56109798E9
Raw,1933747519,1748824000000,,,-1311853870175862084,0.0,11.925555171246952,,,0,26,0.0,16431,44404915085458,166,31.788898468017578,435.27342567218125,0.12274175144546057,4,640532.8834780082,3.4028234663852886E38,1.56109798E9,,,,1,,5,,1.56109798E9
Raw,1933747519,1748824000000,,,-1311853870175862084,0.0,11.925555171246952,,,0,27,0.0,16431,44404913112522,17,28.46605682373047,128.98747656498904,0.17832330671427088,4,100228.39933855819,3.4028234663852886E38,1.56109798E9,,,,0,,5,,1.56109798E9
Raw,1933747519,1748824000000,,,-1311853870175862084,0.0,11.925555171246952,,,0,33,0.0,16431,44404926044189,8,34.43616485595703,-108.38332794298816,0.08958250845625915,4,-243553.30942161073,3.4028234663852886E38,1.56109798E9,,,,0,,5,,1.56109798E9
Fix,gps,34.486349,109.463921,359.017517,0.959195,3.000000,1627820400999
Fix,gps,34.486348,109.463917,359.046051,0.675826,3.000000,1627820401999
Raw,1933748487,1749824000000,,,-1311853870175862470,0.0,11.86209431074536,,,0,10,0.0,16431,44419931696365,6,44.19260025024414,-334.3434793781828,0.03210388712858449,1,-706000.1035104175,5.910367472097278E-4,1.57542003E9,,,,0,,1,,1.57542003E9
Raw,1933748487,1749824000000,,,-1311853870175862470,0.0,11.86209431074536,,,0,12,0.0,16431,44419923827853,10,39.21116638183594,-463.84304485242706,0.05175904051944116,4,-881393.2717429617,3.4028234663852886E38,1.57542003E9,,,,0,,1,,1.57542003E9
Raw,1933748487,1749824000000,,,-1311853870175862470,0.0,11.86209431074536,,,0,15,0.0,16431,44419916148556,12,37.334808349609375,415.42523445647043,0.06628996605171047,4,526372.2579619236,3.4028234663852886E38,1.57542003E9,,,,0,,1,,1.57542003E9
Raw,1933748488,1749824000000,,,-1311853870175862470,0.0,11.86209431074536,,,0,18,0.0,16431,44419920895721,18,34.384368896484375,565.1626558718508,0.09278322223643681,1,1074002.2974479375,0.0017343917861580849,1.57542003E9,,,,0,,1,,1.57542003E9
Raw,1933748488,1749824000000,,,-1311853870175862470,0.0,11.86209431074536,,,0,23,0.0,16431,44419931282288,13,36.605682373046875,126.39991942454901,0.07096513299891871,1,73535.10225245351,0.0013430173275992274,1.57542003E9,,,,0,,1,,1.57542003E9
Raw,1933748488,1749824000000,,,-1311853870175862470,0.0,11.86209431074536,,,0,24,0.0,16,1749005847046,1000000000,24.007373809814453,467.47217890543243,2.99792458E8,2,524290.3250514227,3.4028234663852886E38,1.57542003E9,,,,0,,1,,1.57542003E9
Raw,1933748488,1749824000000,,,-1311853870175862470,0.0,11.86209431074536,,,0,25,0.0,16431,44419923178319,11,38.00745391845703,-700.2508580719664,0.05923352460096962,1,-1015782.7402422649,0.0011428599245846272,1.57542003E9,,,,0,,1,,1.57542003E9
Raw,1933748489,1749824000000,,,-1311853870175862470,0.0,11.86209431074536,,,0,31,0.0,16431,44419918319044,64,22.014204025268555,-825.397003209639,4.203295103664384,4,-6634.016438432647,3.4028234663852886E38,1.57542003E9,,,,0,,1,,1.57542003E9
Raw,1933748489,1749824000000,,,-1311853870175862470,0.0,11.86209431074536,,,0,32,0.0,16431,44419927184064,20,33.28814697265625,-395.753931190113,0.10229216103900302,4,-736116.7474893465,3.4028234663852886E38,1.57542003E9,,,,0,,1,,1.57542003E9
Raw,1933748489,1749824000000,,,-1311853870175862470,0.0,11.86209431074536,,,0,10,0.0,32995,55201930738275,33,36.19074630737305,-765.721552929459,0.07424034390635437,1,-1467421.197424395,0.001388772390782833,1.59806246E9,,,,0,,3,,1.59806246E9
Raw,1933748489,1749824000000,,,-1311853870175862470,0.0,11.86209431074536,,,0,9,0.0,32995,55201933687030,33,42.11883544921875,-82.72579905419258,0.03900348978479792,4,-397673.1149879574,3.4028234663852886E38,1.59862502E9,,,,0,,3,,1.59862502E9
Raw,1933748489,1749824000000,,,-1311853870175862470,0.0,11.86209431074536,,,0,16,0.0,16,4648961,1000000000,19.919334411621094,546.9455146954956,2.99792458E8,4,524727.9609284869,3.4028234663852886E38,1.60143744E9,,,,0,,3,,1.60143744E9
Raw,1933748490,1749824000000,,,-1311853870175862470,0.0,11.86209431074536,,,0,23,0.0,32961,55201924505799,46,32.175941467285156,12.990169372798924,0.11560769252537284,4,-7760.439073532012,3.4028234663852886E38,1.60368755E9,,,,0,,3,,1.60368755E9
Raw,1933748490,1749824000000,,,-1311853870175862470,0.0,11.86209431074536,,,0,7,0.0,32995,55201932881430,33,38.42209243774414,-166.01399272346805,0.0582443428751456,4,-360061.5621547849,3.4028234663852886E38,1.60481254E9,,,,0,,3,,1.60481254E9
Raw,1933748490,1749824000000,,,-1311853870175862470,0.0,11.86209431074536,,,0,8,0.0,32961,55201927662323,38,33.76321029663086,-560.5618650658366,0.09700248224172292,4,-535506.1679145164,3.4028234663852886E38,1.60537498E9,,,,0,,3,,1.60537498E9
Raw,1933748490,1749824000000,,,-1311853870175862470,0.0,11.86209431074536,,,0,193,0.0,35,9418450,9,39.77714157104492,-255.855723024618,0.04954297772837446,4,-431452.86879238987,3.4028234663852886E38,1.57542003E9,,,,0,,4,,1.57542003E9
Raw,1933748490,1749824000000,,,-1311853870175862470,0.0,11.86209431074536,,,0,194,0.0,35,12412585,8,40.56262969970703,-101.93709992547576,0.045944345443654416,4,-75104.93963061452,3.4028234663852886E38,1.57542003E9,,,,0,,4,,1.57542003E9
Raw,1933748490,1749824000000,,,-1311853870175862470,0.0,11.86209431074536,,,0,6,0.0,16431,44405878608620,10,33.19853591918945,-79.33196176040656,0.10539455492018812,4,-115068.24393822846,3.4028234663852886E38,1.56109798E9,,,,0,,5,,1.56109798E9
Raw,1933748491,1749824000000,,,-1311853870175862470,0.0,11.86209431074536,,,0,14,0.0,16431,44405924376173,166,30.992691040039062,135.966677516991,0.1323380764683399,4,158802.02679697558,3.4028234663852886E38,1.56109798E9,,,,1,,5,,1.56109798E9
Raw,1933748491,1749824000000,,,-1311853870175862470,0.0,11.86209431074536,,,0,16,0.0,16431,44405877966344,8,34.997276306152344,-77.51434435404508,0.08619092959118885,4,-113793.73398326729,3.4028234663852886E38,1.56109798E9,,,,0,,5,,1.56109798E9
Raw,1933748491,1749824000000,,,-1311853870175862470,0.0,11.86209431074536,,,0,24,0.0,16431,44405924157871,6,38.22722244262695,37.54861252903075,0.05794411604072189,4,-76739.39946516918,3.4028234663852886E38,1.56109798E9,,,,0,,5,,1.56109798E9
Raw,1933748491,1749824000000,,,-1311853870175862470,0.0,11.86209431074536,,,0,25,0.0,16431,44405923102245,7,36.07478713989258,-573.9359573352135,0.07383861026355132,1,-755503.4178453594,0.0014407631242647767,1.56109798E9,,,,0,,5,,1.56109798E9
Raw,1933748491,1749824000000,,,-1311853870175862470,0.0,11.86209431074536,,,0,26,0.0,16431,44405915084017,14,30.084957122802734,435.36200597668403,0.14875619321687628,4,640968.172821641,3.4028234663852886E38,1.56109798E9,,,,0,,5,,1.56109798E9
Raw,1933748491,1749824000000,,,-1311853870175862470,0.0,11.86209431074536,,,0,27,0.0,16431,44405913112085,21,26.912710189819336,129.0590071206163,0.21278138585728457,4,100358.48469423778,3.4028234663852886E38,1.56109798E9,,,,0,,5,,1.56109798E9
Raw,1933748492,1749824000000,,,-1311853870175862470,0.0,11.86209431074536,,,0,33,0.0,16431,44405926044520,6,37.453521728515625,-108.43768946114204,0.06361205934784053,4,-243661.79785442646,3.4028234663852886E38,1.56109798E9,,,,0,,5,,1.56109798E9
Fix,gps,34.486347,109.463915,359.016632,0.477070,3.000000,1627820402999
Raw,1933749465,1750824000000,,,-1311853870175862859,0.0,11.793279633522628,,,0,10,0.0,16431,44420931697468,8,40.93089294433594,-334.39811355598886,0.04400116280894448,1,-706334.5351089039,8.162462036125362E-4,1.57542003E9,,,,0,,1,,1.57542003E9
Raw,1933749465,1750824000000,,,-1311853870175862859,0.0,11.793279633522628,,,0,12,0.0,16431,44420923829385,14,36.458168029785156,-463.7565776602287,0.0708052716330212,4,-881857.0968506658,3.4028234663852886E38,1.57542003E9,,,,0,,1,,1.57542003E9
Raw,1933749465,1750824000000,,,-1311853870175862859,0.0,11.793279633522628,,,0,15,0.0,16431,44420916147203,12,37.22275924682617,415.3745197611645,0.06711267960732079,4,526787.631023895,3.4028234663852886E38,1.57542003E9,,,,0,,1,,1.57542003E9
Raw,1933749465,1750824000000,,,-1311853870175862859,0.0,11.793279633522628,,,0,18,0.0,16431,44420920893826,17,34.807918548583984,565.2044750460043,0.0885459308143331,1,1074567.5160245537,0.0016518470365554094,1.57542003E9,,,,0,,1,,1.57542003E9
Raw,1933749465,1750824000000,,,-1311853870175862859,0.0,11.793279633522628,,,0,23,0.0,16431,44420931281845,10,39.41883850097656,126.46596270467609,0.0518932568338242,1,73661.53903449507,9.71457629930228E-4,1.57542003E9,,,,0,,1,,1.57542003E9
Raw,1933749465,1750824000000,,,-1311853870175862859,0.0,11.793279633522628,,,0,24,0.0,16,1750005845425,1000000000,30.393657684326172,467.47217890543243,2.99792458E8,2,524290.3360185117,3.4028234663852886E38,1.57542003E9,,,,0,,1,,1.57542003E9
Raw,1933749466,1750824000000,,,-1311853870175862859,0.0,11.793279633522628,,,0,25,0.0,16431,44420923180651,6,42.80640411376953,-700.1717186079204,0.03433256858305862,1,-1016482.9488898541,6.933047552593052E-4,1.57542003E9,,,,0,,1,,1.57542003E9
Raw,1933749466,1750824000000,,,-1311853870175862859,0.0,11.793279633522628,,,0,31,0.0,16431,44420918321777,76,19.736438751220703,-825.9098078504812,4.203295636202768,4,-7460.644140531956,3.4028234663852886E38,1.57542003E9,,,,0,,1,,1.57542003E9
Raw,1933749466,1750824000000,,,-1311853870175862859,0.0,11.793279633522628,,,0,32,0.0,16431,44420927185381,11,38.19208526611328,-395.68515279285,0.05872054036155769,4,-736512.4011651117,3.4028234663852886E38,1.57542003E9,,,,0,,1,,1.57542003E9
Raw,1933749466,1750824000000,,,-1311853870175862859,0.0,11.793279633522628,,,0,10,0.0,32995,55202930740810,33,36.561309814453125,-765.4666843195814,0.07122078470648874,1,-1468186.7395331422,0.0013307693880051374,1.59806246E9,,,,0,,3,,1.59806246E9
Raw,1933749466,1750824000000,,,-1311853870175862859,0.0,11.793279633522628,,,0,9,0.0,32995,55202933687311,33,43.4656867980957,-82.58694712631865,0.03375479564074124,1,-397755.80274026527,6.324105779640377E-4,1.59862502E9,,,,0,,3,,1.59862502E9
Raw,1933749466,1750824000000,,,-1311853870175862859,0.0,11.793279633522628,,,0,16,0.0,16,4647068,1000000000,22.837629318237305,547.2812268922453,2.99792458E8,4,524290.2034921108,3.4028234663852886E38,1.60143744E9,,,,0,,3,,1.60143744E9
Raw,1933749467,1750824000000,,,-1311853870175862859,0.0,11.793279633522628,,,0,23,0.0,32961,55202924505857,38,33.71852111816406,13.596632604165812,0.09692796847264046,4,-7746.83516787374,3.4028234663852886E38,1.60368755E9,,,,0,,3,,1.60368755E9
Raw,1933749467,1750824000000,,,-1311853870175862859,0.0,11.793279633522628,,,0,7,0.0,32995,55202932881952,33,41.63124084472656,-166.1452442635374,0.04096864794872582,1,-360227.7038612569,7.792098913341761E-4,1.60481254E9,,,,0,,3,,1.60481254E9
Raw,1933749468,1750824000000,,,-1311853870175862859,0.0,11.793279633522628,,,0,8,0.0,32961,55202927664196,34,34.76610565185547,-560.7166675833632,0.08657536405745114,1,-536066.7844625524,0.001628846861422062,1.60537498E9,,,,0,,3,,1.60537498E9
Raw,1933749468,1750824000000,,,-1311853870175862859,0.0,11.793279633522628,,,0,193,0.0,35,9419302,13,36.93755340576172,-255.89295810836916,0.06804579086603568,4,-431708.7773777873,3.4028234663852886E38,1.57542003E9,,,,0,,4,,1.57542003E9
Raw,1933749468,1750824000000,,,-1311853870175862859,0.0,11.793279633522628,,,0,194,0.0,35,12412948,10,39.401100158691406,-101.87631386426733,0.0521986509547471,4,-75206.86287197098,3.4028234663852886E38,1.57542003E9,,,,0,,4,,1.57542003E9
Raw,1933749468,1750824000000,,,-1311853870175862859,0.0,11.793279633522628,,,0,6,0.0,16431,44406878608898,12,31.53822898864746,-79.51568324229277,0.12688995086024257,4,-115147.68003567703,3.4028234663852886E38,1.56109798E9,,,,0,,5,,1.56109798E9
Raw,1933749468,1750824000000,,,-1311853870175862859,0.0,11.793279633522628,,,0,14,0.0,16431,44406924375709,166,28.17876434326172,135.98921454136672,0.18266926925019,4,158937.9467002374,3.4028234663852886E38,1.56109798E9,,,,1,,5,,1.56109798E9
Raw,1933749468,1750824000000,,,-1311853870175862859,0.0,11.793279633522628,,,0,16,0.0,16431,44406877966625,11,32.3846435546875,-77.74019175219348,0.11530350493672431,4,-113871.36869872746,3.4028234663852886E38,1.56109798E9,,,,0,,5,,1.56109798E9
Raw,1933749469,1750824000000,,,-1311853870175862859,0.0,11.793279633522628,,,0,24,0.0,16431,44406924157748,6,42.293357849121094,37.623930497639094,0.03656250441505249,1,-76701.86172845316,7.422372582368553E-4,1.56109798E9,,,,0,,5,,1.56109798E9
Raw,1933749469,1750824000000,,,-1311853870175862859,0.0,11.793279633522628,,,0,25,0.0,16431,44406923104174,10,32.96649932861328,-573.7735885123388,0.10536856039035969,1,-756077.2480275626,0.00194281165022403,1.56109798E9,,,,0,,5,,1.56109798E9
Raw,1933749469,1750824000000,,,-1311853870175862859,0.0,11.793279633522628,,,0,26,0.0,16431,44406915082510,10,33.168148040771484,435.20427236789646,0.10511793451378082,1,641403.3822096614,0.002013373887166381,1.56109798E9,,,,0,,5,,1.56109798E9
Raw,1933749469,1750824000000,,,-1311853870175862859,0.0,11.793279633522628,,,0,27,0.0,16431,44406913111634,27,24.75864028930664,128.96999226479284,0.27200597795896775,4,100488.01175560578,3.4028234663852886E38,1.56109798E9,,,,0,,5,,1.56109798E9
Raw,1933749469,1750824000000,,,-1311853870175862859,0.0,11.793279633522628,,,0,33,0.0,16431,44406926044899,6,37.00625228881836,-108.50501935400285,0.06691610221617744,4,-243770.31007550415,3.4028234663852886E38,1.56109798E9,,,,0,,5,,1.56109798E9
Fix,gps,34.486346,109.463914,359.058594,0.429360,3.000000,1627820403999
Raw,1933750505,1751824000000,,,-1311853870175863247,0.0,11.822842531468988,,,0,10,0.0,16431,44421931698607,7,42.2733154296875,-334.29665008292045,0.03800164779100529,1,-706668.8765170702,7.371886749751866E-4,1.57542003E9,,,,0,,1,,1.57542003E9
Raw,1933750505,1751824000000,,,-1311853870175863247,0.0,11.822842531468988,,,0,12,0.0,16431,44421923830925,8,40.87644577026367,-463.59189123031047,0.0428496151226396,1,-882320.7357626482,8.213787223212421E-4,1.57542003E9,,,,0,,1,,1.57542003E9
Raw,1933750506,1751824000000,,,-1311853870175863247,0.0,11.822842531468988,,,0,15,0.0,16431,44421916145805,14,36.41997146606445,415.48828700103763,0.07332972823387224,1,527203.1195627587,0.0013720412971451879,1.57542003E9,,,,0,,1,,1.57542003E9
Raw,1933750506,1751824000000,,,-1311853870175863247,0.0,11.822842531468988,,,0,18,0.0,16431,44421920891957,17,34.699432373046875,565.2059746740913,0.08961120728256461,1,1075132.7573346314,0.0016726077301427722,1.57542003E9,,,,0,,1,,1.57542003E9
Raw,1933750506,1751824000000,,,-1311853870175863247,0.0,11.822842531468988,,,0,23,0.0,16431,44421931281412,10,38.93260192871094,126.60154271672383,0.05476417541794393,1,73788.12973487689,0.001027390593662858,1.57542003E9,,,,0,,1,,1.57542003E9
Raw,1933750506,1751824000000,,,-1311853870175863247,0.0,11.822842531468988,,,0,24,0.0,17,843839,45,26.28754234313965,467.73788573648426,0.22717756253678767,4,524664.3772428976,3.4028234663852886E38,1.57542003E9,,,,0,,1,,1.57542003E9
Raw,1933750506,1751824000000,,,-1311853870175863247,0.0,11.822842531468988,,,0,25,0.0,16431,44421923183021,9,39.80735778808594,-700.1085978984402,0.04825519590646907,1,-1017183.0361850829,9.792116470634937E-4,1.57542003E9,,,,0,,1,,1.57542003E9
Raw,1933750507,1751824000000,,,-1311853870175863247,0.0,11.822842531468988,,,0,31,0.0,16,1751018324775,1000000000,7.0,-826.7091777857672,2.99792458E8,2,-14.85657185175205,3.4028234663852886E38,1.57542003E9,,,,0,,1,,1.57542003E9
Raw,1933750507,1751824000000,,,-1311853870175863247,0.0,11.822842531468988,,,0,32,0.0,16431,44421927186682,18,34.08184051513672,-394.77337891595175,0.09347264309892239,4,-736907.6770648599,3.4028234663852886E38,1.57542003E9,,,,0,,1,,1.57542003E9
Raw,1933750507,1751824000000,,,-1311853870175863247,0.0,11.822842531468988,,,0,10,0.0,32995,55203930743381,33,36.7721061706543,-765.4049269083621,0.06955993478443681,1,-1468952.1578020311,0.0012988620437681675,1.59806246E9,,,,0,,3,,1.59806246E9
Raw,1933750507,1751824000000,,,-1311853870175863247,0.0,11.822842531468988,,,0,9,0.0,32995,55203933687565,33,43.89772415161133,-82.38288693850245,0.032462064956282885,1,-397838.25698951527,6.017238483764231E-4,1.59862502E9,,,,0,,3,,1.59862502E9
Raw,1933750507,1751824000000,,,-1311853870175863247,0.0,11.822842531468988,,,0,16,0.0,17,645118,71,20.60733413696289,547.5261775072747,4.200835575141719,4,524837.6344736769,3.4028234663852886E38,1.60143744E9,,,,0,,3,,1.60143744E9
Raw,1933750507,1751824000000,,,-1311853870175863247,0.0,11.822842531468988,,,0,23,0.0,32961,55203924505877,49,31.592931747436523,14.03065032137171,0.1235775537960197,4,-7733.107236270485,3.4028234663852886E38,1.60368755E9,,,,0,,3,,1.60368755E9
Raw,1933750508,1751824000000,,,-1311853870175863247,0.0,11.822842531468988,,,0,7,0.0,32995,55203932882555,33,39.81092834472656,-166.06530386176314,0.04998032487555193,1,-360393.7556593947,9.608819964341819E-4,1.60481254E9,,,,0,,3,,1.60481254E9
Raw,1933750508,1751824000000,,,-1311853870175863247,0.0,11.822842531468988,,,0,8,0.0,32961,55203927666084,33,35.94221496582031,-560.7386166853639,0.07578658574370978,1,-536627.4341506799,0.0014225738123059273,1.60537498E9,,,,0,,3,,1.60537498E9
Raw,1933750508,1751824000000,,,-1311853870175863247,0.0,11.822842531468988,,,0,193,0.0,35,9420155,13,37.0031852722168,-255.90802255415224,0.06754647788542917,1,-431964.6303479856,0.001282940269447863,1.57542003E9,,,,0,,4,,1.57542003E9
Raw,1933750508,1751824000000,,,-1311853870175863247,0.0,11.822842531468988,,,0,194,0.0,35,12413266,8,40.598777770996094,-101.84695182797293,0.04576292875460691,4,-75308.67800014692,3.4028234663852886E38,1.57542003E9,,,,0,,4,,1.57542003E9
Raw,1933750508,1751824000000,,,-1311853870175863247,0.0,11.822842531468988,,,0,6,0.0,16431,44407878609156,12,31.844907760620117,-79.51400468130902,0.12260409859432364,1,-115227.10138237549,0.0022106007672846317,1.56109798E9,,,,0,,5,,1.56109798E9
Raw,1933750508,1751824000000,,,-1311853870175863247,0.0,11.822842531468988,,,0,14,0.0,16431,44407924375276,22,26.29236602783203,135.79261841152902,0.22678784429125487,4,159074.0073507191,3.4028234663852886E38,1.56109798E9,,,,0,,5,,1.56109798E9
Raw,1933750509,1751824000000,,,-1311853870175863247,0.0,11.822842531468988,,,0,16,0.0,16431,44407877966868,12,31.575654983520508,-77.67202683914786,0.12624328284483077,4,-113948.99521702816,3.4028234663852886E38,1.56109798E9,,,,0,,5,,1.56109798E9
Raw,1933750509,1751824000000,,,-1311853870175863247,0.0,11.822842531468988,,,0,24,0.0,16431,44407924157623,6,40.465484619140625,37.76433743759188,0.0449510947917465,1,-76664.1624323701,9.160864865407348E-4,1.56109798E9,,,,0,,5,,1.56109798E9
Raw,1933750509,1751824000000,,,-1311853870175863247,0.0,11.822842531468988,,,0,25,0.0,16431,44407923106094,7,35.75323486328125,-573.7521165647295,0.0766029837269322,1,-756650.9884614493,0.0014950995100662112,1.56109798E9,,,,0,,5,,1.56109798E9
Raw,1933750510,1751824000000,,,-1311853870175863247,0.0,11.822842531468988,,,0,26,0.0,16431,44407915081033,8,35.19725036621094,435.30467928481266,0.0837837978528797,1,641838.6929485428,0.0015939304139465094,1.56109798E9,,,,0,,5,,1.56109798E9
Raw,1933750510,1751824000000,,,-1311853870175863247,0.0,11.822842531468988,,,0,27,0.0,16431,44407913111219,19,27.65007781982422,128.59379010969405,0.19565511787281709,4,100617.19258052885,3.4028234663852886E38,1.56109798E9,,,,0,,5,,1.56109798E9
Raw,1933750510,1751824000000,,,-1311853870175863247,0.0,11.822842531468988,,,0,33,0.0,16431,44407926045237,7,35.52556610107422,-108.49954059911681,0.07915127142043005,4,-243878.72203770836,3.4028234663852886E38,1.56109798E9,,,,0,,5,,1.56109798E9
Fix,gps,34.486346,109.463913,359.025391,0.393673,3.000000,1627820404999
Raw,1933751553,1752824000000,,,-1311853870175863634,0.0,11.838209703260812,,,0,10,0.0,16431,44422931699722,8,40.91030502319336,-334.139836700459,0.04410098879305194,1,-707003.0792393012,8.624405600130558E-4,1.57542003E9,,,,0,,1,,1.57542003E9
Raw,1933751553,1752824000000,,,-1311853870175863634,0.0,11.838209703260812,,,0,12,0.0,16431,44422923832465,10,39.10462951660156,-463.60157064796294,0.052390123466233035,1,-882784.3177633687,0.0010072430595755577,1.57542003E9,,,,0,,1,,1.57542003E9
Raw,1933751554,1752824000000,,,-1311853870175863634,0.0,11.838209703260812,,,0,15,0.0,16431,44422916144403,11,37.919708251953125,415.40969285629603,0.06216144143391289,1,527618.6199967735,0.0011544639710336924,1.57542003E9,,,,0,,1,,1.57542003E9
Raw,1933751554,1752824000000,,,-1311853870175863634,0.0,11.838209703260812,,,0,18,0.0,16431,44422920890079,20,33.17815017700195,565.2002147389389,0.10604471771873947,1,1075697.9027787591,0.001992774661630392,1.57542003E9,,,,0,,1,,1.57542003E9
Raw,1933751554,1752824000000,,,-1311853870175863634,0.0,11.838209703260812,,,0,23,0.0,16431,44422931281015,9,39.913673400878906,126.73783846035855,0.04913174992470898,1,73914.8097897518,9.176604798994958E-4,1.57542003E9,,,,0,,1,,1.57542003E9
Raw,1933751554,1752824000000,,,-1311853870175863634,0.0,11.838209703260812,,,0,24,0.0,17,842255,33,29.019699096679688,467.67241333750394,0.16614949591685402,4,524290.3290925416,3.4028234663852886E38,1.57542003E9,,,,0,,1,,1.57542003E9
Raw,1933751554,1752824000000,,,-1311853870175863634,0.0,11.838209703260812,,,0,25,0.0,16431,44422923185292,9,40.22858810424805,-700.1417942110934,0.04599837312680935,1,-1017883.1677151165,8.849860168993473E-4,1.57542003E9,,,,0,,1,,1.57542003E9
Raw,1933751554,1752824000000,,,-1311853870175863634,0.0,11.838209703260812,,,0,31,0.0,16,1752018327533,1000000000,18.912952423095703,-826.7091777857672,2.99792458E8,2,-14.875966788080808,3.4028234663852886E38,1.57542003E9,,,,0,,1,,1.57542003E9
Raw,1933751555,1752824000000,,,-1311853870175863634,0.0,11.838209703260812,,,0,32,0.0,16431,44422927188006,22,32.43808364868164,-395.2532258213364,0.11267729190012682,4,-737303.2669882324,3.4028234663852886E38,1.57542003E9,,,,0,,1,,1.57542003E9
Raw,1933751555,1752824000000,,,-1311853870175863634,0.0,11.838209703260812,,,0,10,0.0,32995,55204930745927,33,38.40239715576172,-765.2902053597063,0.0579871684406362,1,-1469717.5475880727,0.0010765853803604841,1.59806246E9,,,,0,,3,,1.59806246E9
Raw,1933751555,1752824000000,,,-1311853870175863634,0.0,11.838209703260812,,,0,9,0.0,32995,55204933687854,33,44.1386833190918,-82.23782348292724,0.032462116961984366,1,-397920.5385388024,5.852604517713189E-4,1.59862502E9,,,,0,,3,,1.59862502E9
Raw,1933751555,1752824000000,,,-1311853870175863634,0.0,11.838209703260812,,,0,16,0.0,17,643432,80,18.88594627380371,548.0866635047923,4.200835308872527,4,525385.3816596435,3.4028234663852886E38,1.60143744E9,,,,0,,3,,1.60143744E9
Raw,1933751555,1752824000000,,,-1311853870175863634,0.0,11.838209703260812,,,0,23,0.0,32961,55204924505772,39,33.603816986083984,14.066903404344316,0.09820567783028294,4,-7719.2559772915065,3.4028234663852886E38,1.60368755E9,,,,0,,3,,1.60368755E9
Raw,1933751555,1752824000000,,,-1311853870175863634,0.0,11.838209703260812,,,0,7,0.0,32995,55204932883085,33,40.0640754699707,-165.79893242280912,0.04861134759203775,1,-360559.6617475278,8.853886392898858E-4,1.60481254E9,,,,0,,3,,1.60481254E9
Raw,1933751556,1752824000000,,,-1311853870175863634,0.0,11.838209703260812,,,0,8,0.0,32961,55204927667950,33,34.93547058105469,-560.5076057950523,0.08493091881387449,1,-537187.9918876466,0.001597394235432148,1.60537498E9,,,,0,,3,,1.60537498E9
Raw,1933751556,1752824000000,,,-1311853870175863634,0.0,11.838209703260812,,,0,193,0.0,35,9421004,19,33.54885482788086,-255.54739608168438,0.09970806013923705,1,-432220.42976420175,0.0019095144234597683,1.57542003E9,,,,0,,4,,1.57542003E9
Raw,1933751556,1752824000000,,,-1311853870175863634,0.0,11.838209703260812,,,0,194,0.0,35,12413625,10,39.240234375,-101.8479146573697,0.053132773204298794,1,-75410.524821031,9.916400304064155E-4,1.57542003E9,,,,0,,4,,1.57542003E9
Raw,1933751556,1752824000000,,,-1311853870175863634,0.0,11.838209703260812,,,0,3,0.0,16,625695837,1000000000,32.99828338623047,-116.53506764674438,2.99792458E8,6,-72.71566925574332,3.4028234663852886E38,1.56109798E9,,,,0,,5,,1.56109798E9
Raw,1933751556,1752824000000,,,-1311853870175863634,0.0,11.838209703260812,,,0,6,0.0,16431,44408878609426,12,31.527793884277344,-79.23613041327854,0.12703856235279565,1,-115306.45306908843,0.0022927988320589066,1.56109798E9,,,,0,,5,,1.56109798E9
Raw,1933751556,1752824000000,,,-1311853870175863634,0.0,11.838209703260812,,,0,14,0.0,16431,44408924374841,20,27.307680130004883,136.40225983196666,0.20185559540264852,4,159210.1220678461,3.4028234663852886E38,1.56109798E9,,,,0,,5,,1.56109798E9
Raw,1933751557,1752824000000,,,-1311853870175863634,0.0,11.838209703260812,,,0,16,0.0,16431,44408877967131,14,30.220979690551758,-77.48560432258222,0.14700553984950637,1,-114026.53853079691,0.002665057545527816,1.56109798E9,,,,0,,5,,1.56109798E9
Raw,1933751557,1752824000000,,,-1311853870175863634,0.0,11.838209703260812,,,0,24,0.0,16431,44408924157491,6,41.699851989746094,37.82365795316983,0.03909522368175489,1,-76626.34474968872,7.947270642034709E-4,1.56109798E9,,,,0,,5,,1.56109798E9
Raw,1933751557,1752824000000,,,-1311853870175863634,0.0,11.838209703260812,,,0,25,0.0,16431,44408923108006,6,37.26556396484375,-573.6092429069859,0.06445160610890632,1,-757224.7267781505,0.0012561854673549533,1.56109798E9,,,,0,,5,,1.56109798E9
Raw,1933751557,1752824000000,,,-1311853870175863634,0.0,11.838209703260812,,,0,26,0.0,16431,44408915079611,8,34.40715789794922,435.46633237610035,0.09150376548722455,1,642274.1602017216,0.0017457175999879837,1.56109798E9,,,,0,,5,,1.56109798E9
Raw,1933751557,1752824000000,,,-1311853870175863634,0.0,11.838209703260812,,,0,27,0.0,16431,44408913110765,25,25.47185707092285,128.62476254205916,0.250749125930924,4,100746.21124013736,3.4028234663852886E38,1.56109798E9,,,,0,,5,,1.56109798E9
Raw,1933751557,1752824000000,,,-1311853870175863634,0.0,11.838209703260812,,,0,33,0.0,16431,44408926045596,8,34.95091247558594,-108.28990792965914,0.08449067598923854,4,-243987.01421996803,3.4028234663852886E38,1.56109798E9,,,,0,,5,,1.56109798E9
Fix,gps,34.486346,109.463913,358.841644,0.425328,3.000000,1627820405999
Raw,1933752566,1753824000000,,,-1311853870175864022,0.0,12.21714492980641,,,0,10,0.0,16431,44423931700820,13,37.117252349853516,-333.7261438431851,0.06709756467024225,4,-707337.1178537282,3.4028234663852886E38,1.57542003E9,,,,0,,1,,1.57542003E9
Raw,1933752567,1753824000000,,,-1311853870175864022,0.0,12.21714492980641,,,0,12,0.0,16431,44423923834042,22,32.395164489746094,-463.8458396138619,0.11262576049064299,4,-883248.2122870542,3.4028234663852886E38,1.57542003E9,,,,0,,1,,1.57542003E9
Raw,1933752567,1753824000000,,,-1311853870175864022,0.0,12.21714492980641,,,0,15,0.0,16431,44423916143015,12,37.307159423828125,414.8158401338426,0.06649104505637404,1,528033.5830705517,0.0012388186296448112,1.57542003E9,,,,0,,1,,1.57542003E9
Raw,1933752568,1753824000000,,,-1311853870175864022,0.0,12.21714492980641,,,0,18,0.0,16431,44423920888154,22,32.607418060302734,565.2661983747671,0.11299117335153147,1,1076263.2561509858,0.002006405033171177,1.57542003E9,,,,0,,1,,1.57542003E9
Raw,1933752569,1753824000000,,,-1311853870175864022,0.0,12.21714492980641,,,0,23,0.0,16431,44423931280585,6,42.638214111328125,126.67948077417736,0.036449643721925745,1,74041.42592136566,7.068604463711381E-4,1.57542003E9,,,,0,,1,,1.57542003E9
Raw,1933752570,1753824000000,,,-1311853870175864022,0.0,12.21714492980641,,,0,24,0.0,51,5840743,15,35.484737396240234,467.2426335607513,0.07948227730921847,4,524757.6826475816,3.4028234663852886E38,1.57542003E9,,,,0,,1,,1.57542003E9
Raw,1933752570,1753824000000,,,-1311853870175864022,0.0,12.21714492980641,,,0,25,0.0,16431,44423923187677,6,42.8604736328125,-700.3711009785789,0.03412432111250287,1,-1018583.4569068458,6.890023942105472E-4,1.57542003E9,,,,0,,1,,1.57542003E9
Raw,1933752571,1753824000000,,,-1311853870175864022,0.0,12.21714492980641,,,0,31,0.0,16,1753018330228,1000000000,17.59861183166504,-826.3378835044077,2.99792458E8,2,-14.862822786478066,3.4028234663852886E38,1.57542003E9,,,,0,,1,,1.57542003E9
Raw,1933752571,1753824000000,,,-1311853870175864022,0.0,12.21714492980641,,,0,32,0.0,16431,44423927189357,20,33.30746841430664,-395.596299828695,0.10206867797814129,4,-737698.582988755,3.4028234663852886E38,1.57542003E9,,,,0,,1,,1.57542003E9
Raw,1933752571,1753824000000,,,-1311853870175864022,0.0,12.21714492980641,,,0,10,0.0,32995,55205930748479,33,37.496315002441406,-765.0399037990028,0.06415089666157286,1,-1470482.810941052,0.0011949578765779734,1.59806246E9,,,,0,,3,,1.59806246E9
Raw,1933752572,1753824000000,,,-1311853870175864022,0.0,12.21714492980641,,,0,9,0.0,32995,55205933688120,33,41.94672393798828,-82.35268988202324,0.03973496869818549,1,-398002.92457715713,7.53263768274337E-4,1.59862502E9,,,,0,,3,,1.59862502E9
Raw,1933752572,1753824000000,,,-1311853870175864022,0.0,12.21714492980641,,,0,16,0.0,17,641518,68,21.24628448486328,547.717789077846,4.200835042603336,4,525934.6354632536,3.4028234663852886E38,1.60143744E9,,,,0,,3,,1.60143744E9
Raw,1933752572,1753824000000,,,-1311853870175864022,0.0,12.21714492980641,,,0,23,0.0,32961,55205924505641,46,32.21077346801758,14.43255916930282,0.11514823671438162,4,-7704.792740457494,3.4028234663852886E38,1.60368755E9,,,,0,,3,,1.60368755E9
Raw,1933752573,1753824000000,,,-1311853870175864022,0.0,12.21714492980641,,,0,7,0.0,32995,55205932883639,33,43.2650260925293,-166.00497791371777,0.03434156972987101,1,-360725.74591125955,6.456023547798395E-4,1.60481254E9,,,,0,,3,,1.60481254E9
Raw,1933752573,1753824000000,,,-1311853870175864022,0.0,12.21714492980641,,,0,8,0.0,32961,55205927669797,33,36.81871032714844,-560.0876076833217,0.068645187779029,1,-537748.3315575909,0.001286027138121426,1.60537498E9,,,,0,,3,,1.60537498E9
Raw,1933752573,1753824000000,,,-1311853870175864022,0.0,12.21714492980641,,,0,193,0.0,35,9421876,14,36.39616012573242,-256.0815704227664,0.07231357011057582,1,-432476.54587108985,0.0013758076820522547,1.57542003E9,,,,0,,4,,1.57542003E9
Raw,1933752574,1753824000000,,,-1311853870175864022,0.0,12.21714492980641,,,0,194,0.0,35,12413957,17,34.508544921875,-101.86038031584292,0.08999387771543266,4,-75512.71580966291,3.4028234663852886E38,1.57542003E9,,,,0,,4,,1.57542003E9
Raw,1933752574,1753824000000,,,-1311853870175864022,0.0,12.21714492980641,,,0,6,0.0,16431,44409878609662,14,29.97896385192871,-79.39051542071275,0.15118343660006228,4,-115385.8084283381,3.4028234663852886E38,1.56109798E9,,,,0,,5,,1.56109798E9
Raw,1933752574,1753824000000,,,-1311853870175864022,0.0,12.21714492980641,,,0,14,0.0,16431,44409924374346,7,35.88474655151367,135.7421337728046,0.07568843226296196,4,159345.93497262278,3.4028234663852886E38,1.56109798E9,,,,0,,5,,1.56109798E9
Raw,1933752575,1753824000000,,,-1311853870175864022,0.0,12.21714492980641,,,0,16,0.0,16431,44409877967383,13,31.052021026611328,-77.36877818223616,0.13388728887136392,4,-114104.06397448457,3.4028234663852886E38,1.56109798E9,,,,0,,5,,1.56109798E9
Raw,1933752575,1753824000000,,,-1311853870175864022,0.0,12.21714492980641,,,0,24,0.0,16431,44409924157362,6,44.870819091796875,37.563187039501315,0.0307478114194938,1,-76588.72403779505,5.516576347872615E-4,1.56109798E9,,,,0,,5,,1.56109798E9
Raw,1933752575,1753824000000,,,-1311853870175864022,0.0,12.21714492980641,,,0,25,0.0,16431,44409923109923,9,33.99756622314453,-573.3192012019767,0.09363806283419424,1,-757798.2483200119,0.0018300104420632124,1.56109798E9,,,,0,,5,,1.56109798E9
Raw,1933752575,1753824000000,,,-1311853870175864022,0.0,12.21714492980641,,,0,26,0.0,16431,44409915078140,6,37.471519470214844,435.0864493156971,0.06510758522511134,1,642709.1992535951,0.001226749736815691,1.56109798E9,,,,0,,5,,1.56109798E9
Raw,1933752576,1753824000000,,,-1311853870175864022,0.0,12.21714492980641,,,0,27,0.0,16431,44409913110351,32,23.329132080078125,129.41303863774698,0.32024451955959443,4,100875.87498009876,3.4028234663852886E38,1.56109798E9,,,,0,,5,,1.56109798E9
Raw,1933752576,1753824000000,,,-1311853870175864022,0.0,12.21714492980641,,,0,33,0.0,16431,44409926045966,6,39.663394927978516,-108.40189436117896,0.04956707509021285,1,-244095.45879294147,9.531519608572125E-4,1.56109798E9,,,,0,,5,,1.56109798E9
Fix,gps,34.486346,109.463911,358.758514,0.694582,3.000000,1627820406999
Raw,1933753509,1754824000000,,,-1311853870175864409,0.0,12.306458712763556,,,0,10,0.0,16431,44424931701915,12,37.71824645996094,-333.76833792436037,0.06275282114796585,4,-707671.1078134617,3.4028234663852886E38,1.57542003E9,,,,0,,1,,1.57542003E9
Raw,1933753509,1754824000000,,,-1311853870175864409,0.0,12.306458712763556,,,0,12,0.0,16431,44424923835564,23,31.89722442626953,-464.4840676947081,0.119230517862422,4,-883712.6794904587,3.4028234663852886E38,1.57542003E9,,,,0,,1,,1.57542003E9
Raw,1933753509,1754824000000,,,-1311853870175864409,0.0,12.306458712763556,,,0,15,0.0,16431,44424916141647,16,35.30436706542969,414.3369475372406,0.0829809130311302,1,528447.9982848659,0.0015600818442180753,1.57542003E9,,,,0,,1,,1.57542003E9
Raw,1933753509,1754824000000,,,-1311853870175864409,0.0,12.306458712763556,,,0,18,0.0,16431,44424920886270,20,33.2971076965332,565.7203471079335,0.10465270398969712,4,1076828.6235835652,3.4028234663852886E38,1.57542003E9,,,,0,,1,,1.57542003E9
Raw,1933753510,1754824000000,,,-1311853870175864409,0.0,12.306458712763556,,,0,23,0.0,16431,44424931280177,6,43.3138542175293,126.52866590406393,0.033873616187257746,1,74167.9168772294,6.539607420563698E-4,1.57542003E9,,,,0,,1,,1.57542003E9
Raw,1933753510,1754824000000,,,-1311853870175864409,0.0,12.306458712763556,,,0,24,0.0,51,5839165,14,36.502681732177734,467.1480547439005,0.0708083753332856,4,525224.7663482745,3.4028234663852886E38,1.57542003E9,,,,0,,1,,1.57542003E9
Raw,1933753510,1754824000000,,,-1311853870175864409,0.0,12.306458712763556,,,0,25,0.0,16431,44424923189991,7,42.224578857421875,-700.6412385289786,0.03667314342461195,1,-1019284.0532757918,7.41336727514863E-4,1.57542003E9,,,,0,,1,,1.57542003E9
Raw,1933753510,1754824000000,,,-1311853870175864409,0.0,12.306458712763556,,,0,31,0.0,16,1754018332985,1000000000,16.92418670654297,-826.3378835044077,2.99792458E8,2,-14.856360711506682,3.4028234663852886E38,1.57542003E9,,,,0,,1,,1.57542003E9
Raw,1933753510,1754824000000,,,-1311853870175864409,0.0,12.306458712763556,,,0,32,0.0,16431,44424927190664,19,33.701812744140625,-395.0850970633094,0.09759595466520349,4,-738093.515332704,3.4028234663852886E38,1.57542003E9,,,,0,,1,,1.57542003E9
Raw,1933753510,1754824000000,,,-1311853870175864409,0.0,12.306458712763556,,,0,10,0.0,32995,55206930751075,33,35.8930549621582,-765.2110658956603,0.07676384360229815,4,-1471247.9496519966,3.4028234663852886E38,1.59806246E9,,,,0,,3,,1.59806246E9
Raw,1933753511,1754824000000,,,-1311853870175864409,0.0,12.306458712763556,,,0,9,0.0,32995,55206933688390,33,40.820884704589844,-82.25949140466162,0.04489329357489208,1,-398085.3897656909,8.135053212754428E-4,1.59862502E9,,,,0,,3,,1.59862502E9
Raw,1933753511,1754824000000,,,-1311853870175864409,0.0,12.306458712763556,,,0,16,0.0,17,639688,166,24.05145263671875,547.2469058585268,0.293354759425406,4,526481.6222057962,3.4028234663852886E38,1.60143744E9,,,,1,,3,,1.60143744E9
Raw,1933753511,1754824000000,,,-1311853870175864409,0.0,12.306458712763556,,,0,23,0.0,32961,55206924505611,36,34.343162536621094,15.182948354258471,0.09025835791088616,4,-7689.781722613761,3.4028234663852886E38,1.60368755E9,,,,0,,3,,1.60368755E9
Raw,1933753512,1754824000000,,,-1311853870175864409,0.0,12.306458712763556,,,0,7,0.0,32995,55206932884199,33,45.467655181884766,-166.08500352163333,0.03231755567346266,1,-360891.92371693754,5.009955493733287E-4,1.60481254E9,,,,0,,3,,1.60481254E9
Raw,1933753512,1754824000000,,,-1311853870175864409,0.0,12.306458712763556,,,0,8,0.0,32961,55206927671683,33,37.263938903808594,-559.995312391058,0.06528445453562132,1,-538308.3854309521,0.0012217677431181073,1.60537498E9,,,,0,,3,,1.60537498E9
Raw,1933753512,1754824000000,,,-1311853870175864409,0.0,12.306458712763556,,,0,193,0.0,35,9422722,9,39.735801696777344,-256.41172717910285,0.049772019158610514,1,-432732.9737176775,9.873120579868555E-4,1.57542003E9,,,,0,,4,,1.57542003E9
Raw,1933753512,1754824000000,,,-1311853870175864409,0.0,12.306458712763556,,,0,194,0.0,35,12414315,18,34.11045837402344,-102.47866163900909,0.09410975038617386,4,-75615.15890013013,3.4028234663852886E38,1.57542003E9,,,,0,,4,,1.57542003E9
Raw,1933753512,1754824000000,,,-1311853870175864409,0.0,12.306458712763556,,,0,6,0.0,16431,44410878609936,12,31.738571166992188,-79.23900186024059,0.12407319725432969,4,-115465.30495406492,3.4028234663852886E38,1.56109798E9,,,,0,,5,,1.56109798E9
Raw,1933753512,1754824000000,,,-1311853870175864409,0.0,12.306458712763556,,,0,14,0.0,16431,44410924373916,6,37.71454620361328,135.55138278426057,0.06146053771254023,4,159481.43065098,3.4028234663852886E38,1.56109798E9,,,,0,,5,,1.56109798E9
Raw,1933753513,1754824000000,,,-1311853870175864409,0.0,12.306458712763556,,,0,16,0.0,16431,44410877967656,10,32.83366394042969,-77.69653212538776,0.10965731665464934,4,-114181.57508700699,3.4028234663852886E38,1.56109798E9,,,,0,,5,,1.56109798E9
Raw,1933753513,1754824000000,,,-1311853870175864409,0.0,12.306458712763556,,,0,24,0.0,16431,44410924157236,6,44.866668701171875,37.576027604996284,0.03074778853698515,1,-76551.28549635936,5.519214901141822E-4,1.56109798E9,,,,0,,5,,1.56109798E9
Raw,1933753513,1754824000000,,,-1311853870175864409,0.0,12.306458712763556,,,0,25,0.0,16431,44410923111836,9,34.03113555908203,-573.4490553613286,0.0932793815913055,4,-758371.8012631728,3.4028234663852886E38,1.56109798E9,,,,0,,5,,1.56109798E9
Raw,1933753513,1754824000000,,,-1311853870175864409,0.0,12.306458712763556,,,0,26,0.0,16431,44410915076715,6,38.01014709472656,434.9332486736271,0.061355598527863126,1,643143.9814527654,0.0011529874755069613,1.56109798E9,,,,0,,5,,1.56109798E9
Raw,1933753513,1754824000000,,,-1311853870175864409,0.0,12.306458712763556,,,0,27,0.0,16431,44410913109925,20,27.150480270385742,130.96206924548045,0.20709895168150516,4,101006.01667829764,3.4028234663852886E38,1.56109798E9,,,,0,,5,,1.56109798E9
Raw,1933753513,1754824000000,,,-1311853870175864409,0.0,12.306458712763556,,,0,33,0.0,16431,44410926046324,6,41.09394836425781,-108.49067063980675,0.04220548914591621,1,-244203.99397826588,8.521443232893944E-4,1.56109798E9,,,,0,,5,,1.56109798E9
Fix,gps,34.486346,109.463912,358.805878,0.939367,3.000000,1627820407999
Raw,1933754523,1755824000000,,,-1311853870175864797,0.0,12.557174323343268,,,0,10,0.0,16431,44425931703023,10,39.37134552001953,-334.09120103500095,0.052242389829920965,4,-708004.8815524178,3.4028234663852886E38,1.57542003E9,,,,0,,1,,1.57542003E9
Raw,1933754523,1755824000000,,,-1311853870175864797,0.0,12.557174323343268,,,0,12,0.0,16431,44425923837098,17,34.771907806396484,-464.11137603263114,0.08583005162746954,4,-884176.8982244523,3.4028234663852886E38,1.57542003E9,,,,0,,1,,1.57542003E9
Raw,1933754524,1755824000000,,,-1311853870175864797,0.0,12.557174323343268,,,0,15,0.0,16431,44425916140251,13,36.86995315551758,413.9928851386428,0.06977314151868583,1,528862.4557640647,0.0013027710374444723,1.57542003E9,,,,0,,1,,1.57542003E9
Raw,1933754524,1755824000000,,,-1311853870175864797,0.0,12.557174323343268,,,0,18,0.0,16431,44425920884402,22,32.54991149902344,565.5942079363426,0.11371609122562015,4,1077393.9482360454,3.4028234663852886E38,1.57542003E9,,,,0,,1,,1.57542003E9
Raw,1933754524,1755824000000,,,-1311853870175864797,0.0,12.557174323343268,,,0,23,0.0,16431,44425931279751,6,43.27535629272461,126.55415958154299,0.034014996807076855,1,74294.5124654504,6.568658282049E-4,1.57542003E9,,,,0,,1,,1.57542003E9
Raw,1933754525,1755824000000,,,-1311853870175864797,0.0,12.557174323343268,,,0,24,0.0,39,1925837600,15,35.770179748535156,466.91533973076275,0.07694613814758666,4,525691.9796443632,3.4028234663852886E38,1.57542003E9,,,,0,,1,,1.57542003E9
Raw,1933754525,1755824000000,,,-1311853870175864797,0.0,12.557174323343268,,,0,25,0.0,16431,44425923192332,7,42.130897521972656,-700.4147946878411,0.03706503758869473,1,-1019984.6249548438,7.493754383176565E-4,1.57542003E9,,,,0,,1,,1.57542003E9
Raw,1933754525,1755824000000,,,-1311853870175864797,0.0,12.557174323343268,,,0,31,0.0,16,1755018335801,1000000000,24.449277877807617,-826.1522704461845,2.99792458E8,2,-14.84656312602133,3.4028234663852886E38,1.57542003E9,,,,0,,1,,1.57542003E9
Raw,1933754525,1755824000000,,,-1311853870175864797,0.0,12.557174323343268,,,0,32,0.0,16431,44425927191986,15,35.59405517578125,-394.34591674624266,0.07874440377477676,4,-738488.3129355048,3.4028234663852886E38,1.57542003E9,,,,0,,1,,1.57542003E9
Raw,1933754526,1755824000000,,,-1311853870175864797,0.0,12.557174323343268,,,0,10,0.0,32995,55207930753576,33,37.987144470214844,-765.2850248263148,0.060733481364006636,4,-1472013.117531172,3.4028234663852886E38,1.59806246E9,,,,0,,3,,1.59806246E9
Raw,1933754526,1755824000000,,,-1311853870175864797,0.0,12.557174323343268,,,0,9,0.0,32995,55207933688666,33,42.03369140625,-82.78179653025956,0.03936375200101169,1,-398167.70169291086,7.45759520214051E-4,1.59862502E9,,,,0,,3,,1.59862502E9
Raw,1933754526,1755824000000,,,-1311853870175864797,0.0,12.557174323343268,,,0,16,0.0,17,637910,88,26.559221267700195,546.716071598184,0.21999733087469675,4,527029.0311514537,3.4028234663852886E38,1.60143744E9,,,,0,,3,,1.60143744E9
Raw,1933754526,1755824000000,,,-1311853870175864797,0.0,12.557174323343268,,,0,23,0.0,32961,55207924505621,37,33.95164489746094,15.377604979304671,0.09438250156839095,4,-7674.646192232787,3.4028234663852886E38,1.60368755E9,,,,0,,3,,1.60368755E9
Raw,1933754526,1755824000000,,,-1311853870175864797,0.0,12.557174323343268,,,0,7,0.0,32995,55207932884735,33,44.177955627441406,-166.45174779504703,0.032317651363953384,1,-361058.01078926673,5.81190746743232E-4,1.60481254E9,,,,0,,3,,1.60481254E9
Raw,1933754526,1755824000000,,,-1311853870175864797,0.0,12.557174323343268,,,0,8,0.0,32961,55207927673515,33,36.44144058227539,-560.0861421376912,0.07163190433829514,1,-538868.3502578398,0.0013431160477921367,1.60537498E9,,,,0,,3,,1.60537498E9
Raw,1933754527,1755824000000,,,-1311853870175864797,0.0,12.557174323343268,,,0,193,0.0,35,9423588,14,36.46727752685547,-256.6500998800234,0.07173802093205378,1,-432989.4254005952,0.0013645888539031148,1.57542003E9,,,,0,,4,,1.57542003E9
Raw,1933754527,1755824000000,,,-1311853870175864797,0.0,12.557174323343268,,,0,194,0.0,35,12414630,19,33.76240158081055,-102.35418398717366,0.09786617629010053,4,-75717.77466633507,3.4028234663852886E38,1.57542003E9,,,,0,,4,,1.57542003E9
Raw,1933754527,1755824000000,,,-1311853870175864797,0.0,12.557174323343268,,,0,6,0.0,16431,44411878610195,13,30.68227195739746,-79.03742117113643,0.13968483454703018,4,-115544.57487506446,3.4028234663852886E38,1.56109798E9,,,,0,,5,,1.56109798E9
Raw,1933754527,1755824000000,,,-1311853870175864797,0.0,12.557174323343268,,,0,14,0.0,16431,44411924373458,7,35.81916046142578,135.29809048799717,0.07625599336573646,4,159616.97555555002,3.4028234663852886E38,1.56109798E9,,,,0,,5,,1.56109798E9
Raw,1933754527,1755824000000,,,-1311853870175864797,0.0,12.557174323343268,,,0,16,0.0,16431,44411877967898,10,32.958091735839844,-77.52912761956185,0.10814363454687737,4,-114258.9786398069,3.4028234663852886E38,1.56109798E9,,,,0,,5,,1.56109798E9
Raw,1933754527,1755824000000,,,-1311853870175864797,0.0,12.557174323343268,,,0,24,0.0,16431,44411924157115,6,43.918190002441406,37.34658024737766,0.030747767734704556,1,-76513.73418784041,6.156035815365613E-4,1.56109798E9,,,,0,,5,,1.56109798E9
Raw,1933754528,1755824000000,,,-1311853870175864797,0.0,12.557174323343268,,,0,25,0.0,16431,44411923113732,7,36.16490936279297,-573.3162701107158,0.07308427796470479,4,-758945.2339840143,3.4028234663852886E38,1.56109798E9,,,,0,,5,,1.56109798E9
Raw,1933754528,1755824000000,,,-1311853870175864797,0.0,12.557174323343268,,,0,26,0.0,16431,44411915075272,8,35.01069641113281,435.22141584352744,0.08554281373704781,4,643578.8806299858,3.4028234663852886E38,1.56109798E9,,,,0,,5,,1.56109798E9
Raw,1933754528,1755824000000,,,-1311853870175864797,0.0,12.557174323343268,,,0,27,0.0,16431,44411913109496,18,28.28485870361328,130.62276987018174,0.18203218692567524,4,101136.255078251,3.4028234663852886E38,1.56109798E9,,,,0,,5,,1.56109798E9
Raw,1933754529,1755824000000,,,-1311853870175864797,0.0,12.557174323343268,,,0,33,0.0,16431,44411926046691,6,39.73777770996094,-108.69582998684581,0.04915382114441766,1,-244312.43939798165,9.450244251638651E-4,1.56109798E9,,,,0,,5,,1.56109798E9
Fix,gps,34.486344,109.463918,358.873047,1.070850,4.000000,1627820408999
Raw,1933755518,1756824000000,,,-1311853870175865185,0.0,12.95886088511738,,,0,10,0.0,16431,44426931704156,9,40.190643310546875,-333.5285337602659,0.04772957636182523,4,-708338.4993630999,3.4028234663852886E38,1.57542003E9,,,,0,,1,,1.57542003E9
Raw,1933755519,1756824000000,,,-1311853870175865185,0.0,12.95886088511738,,,0,12,0.0,16431,44426923838666,11,38.1632080078125,-464.24872833241807,0.05830977020806524,4,-884641.0018852185,3.4028234663852886E38,1.57542003E9,,,,0,,1,,1.57542003E9
Raw,1933755519,1756824000000,,,-1311853870175865185,0.0,12.95886088511738,,,0,15,0.0,16431,44426916138880,16,35.27410125732422,414.49035267404975,0.08325989657661281,1,529276.9416402016,0.0015655274037271738,1.57542003E9,,,,0,,1,,1.57542003E9
Raw,1933755519,1756824000000,,,-1311853870175865185,0.0,12.95886088511738,,,0,18,0.0,16431,44426920882505,24,31.79410743713379,565.5388580269496,0.12371254395524078,4,1077959.3242631184,3.4028234663852886E38,1.57542003E9,,,,0,,1,,1.57542003E9
Raw,1933755521,1756824000000,,,-1311853870175865185,0.0,12.95886088511738,,,0,23,0.0,16431,44426931279316,7,41.778053283691406,126.91850104177183,0.04003255780343007,1,74421.25449595001,7.804440101608634E-4,1.57542003E9,,,,0,,1,,1.57542003E9
Raw,1933755522,1756824000000,,,-1311853870175865185,0.0,12.95886088511738,,,0,24,0.0,39,2925836025,19,33.85616683959961,467.3820308079296,0.0956560421490027,4,526159.2146766635,3.4028234663852886E38,1.57542003E9,,,,0,,1,,1.57542003E9
Raw,1933755523,1756824000000,,,-1311853870175865185,0.0,12.95886088511738,,,0,25,0.0,16431,44426923194668,6,42.858333587646484,-700.4111137825366,0.03413385063724231,1,-1020685.1156416534,6.891722441650927E-4,1.57542003E9,,,,0,,1,,1.57542003E9
Raw,1933755523,1756824000000,,,-1311853870175865185,0.0,12.95886088511738,,,0,31,0.0,16,1756018338557,1000000000,23.09838104248047,-826.1522704461845,2.99792458E8,2,-14.865944996171123,3.4028234663852886E38,1.57542003E9,,,,0,,1,,1.57542003E9
Raw,1933755523,1756824000000,,,-1311853870175865185,0.0,12.95886088511738,,,0,32,0.0,16431,44426927193308,15,35.83498001098633,-394.9831223533931,0.07662587455649622,4,-738883.0830279875,3.4028234663852886E38,1.57542003E9,,,,0,,1,,1.57542003E9
Raw,1933755524,1756824000000,,,-1311853870175865185,0.0,12.95886088511738,,,0,10,0.0,32995,55208930756125,33,39.7460823059082,-764.6471375700339,0.049955000179158576,4,-1472778.1367945166,3.4028234663852886E38,1.59806246E9,,,,0,,3,,1.59806246E9
Raw,1933755524,1756824000000,,,-1311853870175865185,0.0,12.95886088511738,,,0,9,0.0,32995,55208933688963,33,43.24184036254883,-82.00864452465373,0.03457202779541542,4,-398249.8013018079,3.4028234663852886E38,1.59862502E9,,,,0,,3,,1.59862502E9
Raw,1933755524,1756824000000,,,-1311853870175865185,0.0,12.95886088511738,,,0,16,0.0,51,4636138,114,24.36148452758789,546.780282946273,0.28309710493975326,4,527576.8139456161,3.4028234663852886E38,1.60143744E9,,,,0,,3,,1.60143744E9
Raw,1933755525,1756824000000,,,-1311853870175865185,0.0,12.95886088511738,,,0,23,0.0,32961,55208924505471,36,34.31575393676758,15.18418171315389,0.09054106922505095,4,-7659.245381930529,3.4028234663852886E38,1.60368755E9,,,,0,,3,,1.60368755E9
Raw,1933755525,1756824000000,,,-1311853870175865185,0.0,12.95886088511738,,,0,7,0.0,32995,55208932885318,33,42.01973342895508,-166.1146382175799,0.03927858330380973,4,-361224.0179677685,3.4028234663852886E38,1.60481254E9,,,,0,,3,,1.60481254E9
Raw,1933755525,1756824000000,,,-1311853870175865185,0.0,12.95886088511738,,,0,8,0.0,32961,55208927675427,33,35.1578483581543,-559.8775234213151,0.0828202694994824,1,-539428.3181441939,0.0015570165123790503,1.60537498E9,,,,0,,3,,1.60537498E9
Raw,1933755526,1756824000000,,,-1311853870175865185,0.0,12.95886088511738,,,0,193,0.0,35,9424454,16,34.92074203491211,-256.0364793327867,0.0853886438751204,4,-433245.6190769733,3.4028234663852886E38,1.57542003E9,,,,0,,4,,1.57542003E9
Raw,1933755526,1756824000000,,,-1311853870175865185,0.0,12.95886088511738,,,0,194,0.0,35,12414989,12,37.4224853515625,-102.2171299088813,0.06498176055071933,4,-75820.45846270224,3.4028234663852886E38,1.57542003E9,,,,0,,4,,1.57542003E9
Raw,1933755526,1756824000000,,,-1311853870175865185,0.0,12.95886088511738,,,0,4,0.0,16,364821647,1000000000,25.774524688720703,-116.53506764674438,2.99792458E8,6,-42.30005134434718,3.4028234663852886E38,1.56109798E9,,,,0,,5,,1.56109798E9
Raw,1933755527,1756824000000,,,-1311853870175865185,0.0,12.95886088511738,,,0,6,0.0,16431,44412878610456,13,30.96771240234375,-79.42198204869743,0.13527732222329386,4,-115623.79590347473,3.4028234663852886E38,1.56109798E9,,,,0,,5,,1.56109798E9
Raw,1933755527,1756824000000,,,-1311853870175865185,0.0,12.95886088511738,,,0,14,0.0,16431,44412924373006,8,35.36970520019531,135.81533436880147,0.08026389387929017,4,159752.62678157096,3.4028234663852886E38,1.56109798E9,,,,0,,5,,1.56109798E9
Raw,1933755527,1756824000000,,,-1311853870175865185,0.0,12.95886088511738,,,0,16,0.0,16431,44412877968166,11,32.18441390991211,-77.34739996138222,0.11791732813500089,4,-114336.3736114647,3.4028234663852886E38,1.56109798E9,,,,0,,5,,1.56109798E9
Raw,1933755528,1756824000000,,,-1311853870175865185,0.0,12.95886088511738,,,0,24,0.0,16431,44412924156988,6,42.285118103027344,37.70255446453015,0.0365963622069449,1,-76476.05511253365,7.048163679428399E-4,1.56109798E9,,,,0,,5,,1.56109798E9
Raw,1933755528,1756824000000,,,-1311853870175865185,0.0,12.95886088511738,,,0,25,0.0,16431,44412923115657,6,36.9522819519043,-573.4119054837188,0.0667995095939124,4,-759518.5134031847,3.4028234663852886E38,1.56109798E9,,,,0,,5,,1.56109798E9
Raw,1933755528,1756824000000,,,-1311853870175865185,0.0,12.95886088511738,,,0,26,0.0,16431,44412915073800,6,37.09111404418945,435.02462373956473,0.06790016242051958,4,644013.8259665694,3.4028234663852886E38,1.56109798E9,,,,0,,5,,1.56109798E9
Raw,1933755529,1756824000000,,,-1311853870175865185,0.0,12.95886088511738,,,0,27,0.0,16431,44412913109063,20,27.055538177490234,130.04767101942997,0.2093489929176917,4,101265.85018905385,3.4028234663852886E38,1.56109798E9,,,,0,,5,,1.56109798E9
Raw,1933755529,1756824000000,,,-1311853870175865185,0.0,12.95886088511738,,,0,33,0.0,16431,44412926047051,6,38.067840576171875,-108.32229478396994,0.05934313181741169,4,-244420.7932481078,3.4028234663852886E38,1.56109798E9,,,,0,,5,,1.56109798E9
Fix,gps,34.486338,109.463934,358.879517,1.157351,4.000000,1627820409999
Raw,1933756492,1757824000000,,,-1311853870175865571,0.0,12.813636618359546,,,0,10,0.0,16431,44427931705266,9,39.930233001708984,-333.5333393866356,0.049118353256007385,4,-708672.1413918039,3.4028234663852886E38,1.57542003E9,,,,0,,1,,1.57542003E9
Raw,1933756492,1757824000000,,,-1311853870175865571,0.0,12.813636618359546,,,0,12,0.0,16431,44427923840215,12,37.62284469604492,-464.25513583424436,0.06200849058562821,4,-885104.9575014026,3.4028234663852886E38,1.57542003E9,,,,0,,1,,1.57542003E9
Raw,1933756492,1757824000000,,,-1311853870175865571,0.0,12.813636618359546,,,0,15,0.0,16431,44427916137513,16,34.95246505737305,414.73584860838355,0.0862910468072246,1,529691.3645013637,0.0016245852457359433,1.57542003E9,,,,0,,1,,1.57542003E9
Raw,1933756492,1757824000000,,,-1311853870175865571,0.0,12.813636618359546,,,0,18,0.0,16431,44427920880586,25,31.435571670532227,565.3707633513791,0.1287673733255434,4,1078524.6779696352,3.4028234663852886E38,1.57542003E9,,,,0,,1,,1.57542003E9
Raw,1933756493,1757824000000,,,-1311853870175865571,0.0,12.813636618359546,,,0,23,0.0,16431,44427931278895,7,41.93568420410156,126.93990482446816,0.03934902398635218,1,74548.06933711747,7.664085133001208E-4,1.57542003E9,,,,0,,1,,1.57542003E9
Raw,1933756493,1757824000000,,,-1311853870175865571,0.0,12.813636618359546,,,0,24,0.0,39,3925834480,17,34.53778839111328,467.10507676622524,0.0885154263500722,4,526626.414800623,3.4028234663852886E38,1.57542003E9,,,,0,,1,,1.57542003E9
Raw,1933756493,1757824000000,,,-1311853870175865571,0.0,12.813636618359546,,,0,25,0.0,16431,44427923197005,7,41.71192169189453,-700.4300636283633,0.03886919442174863,1,-1021385.5538899992,7.864088984206319E-4,1.57542003E9,,,,0,,1,,1.57542003E9
Raw,1933756493,1757824000000,,,-1311853870175865571,0.0,12.813636618359546,,,0,31,0.0,16,1757018341311,1000000000,22.494922637939453,-825.5952267767757,2.99792458E8,2,-14.849465838556725,3.4028234663852886E38,1.57542003E9,,,,0,,1,,1.57542003E9
Raw,1933756493,1757824000000,,,-1311853870175865571,0.0,12.813636618359546,,,0,32,0.0,16431,44427927194607,18,34.38056564331055,-395.00449205363293,0.09035769296117163,4,-739277.8425753831,3.4028234663852886E38,1.57542003E9,,,,0,,1,,1.57542003E9
Raw,1933756494,1757824000000,,,-1311853870175865571,0.0,12.813636618359546,,,0,10,0.0,32995,55209930758692,33,37.615909576416016,-765.0523779780901,0.06330194726967925,4,-1473543.1079056223,3.4028234663852886E38,1.59806246E9,,,,0,,3,,1.59806246E9
Raw,1933756494,1757824000000,,,-1311853870175865571,0.0,12.813636618359546,,,0,9,0.0,32995,55209933689224,33,43.16534423828125,-81.69204406539922,0.03485609957873097,4,-398331.77231654956,3.4028234663852886E38,1.59862502E9,,,,0,,3,,1.59862502E9
Raw,1933756494,1757824000000,,,-1311853870175865571,0.0,12.813636618359546,,,0,16,0.0,51,4634260,101,25.354455947875977,548.089833173249,0.25260452294153346,4,528124.3955001014,3.4028234663852886E38,1.60143744E9,,,,0,,3,,1.60143744E9
Raw,1933756494,1757824000000,,,-1311853870175865571,0.0,12.813636618359546,,,0,23,0.0,32961,55209924505430,34,34.82297134399414,15.447120409690008,0.08545122545605499,4,-7643.699632988574,3.4028234663852886E38,1.60368755E9,,,,0,,3,,1.60368755E9
Raw,1933756494,1757824000000,,,-1311853870175865571,0.0,12.813636618359546,,,0,7,0.0,32995,55209932885856,33,42.79420852661133,-166.20495672736536,0.03612573141081937,4,-361390.07175313,3.4028234663852886E38,1.60481254E9,,,,0,,3,,1.60481254E9
