# 
# Header Description:
# 
# Version: v2.0.0.1 Platform: 10 Manufacturer: HUAWEI Model: BLA-AL00
# 
# Raw,ElapsedRealtimeMillis,TimeNanos,LeapSecond,TimeUncertaintyNanos,FullBiasNanos,BiasNanos,BiasUncertaintyNanos,DriftNanosPerSecond,DriftUncertaintyNanosPerSecond,HardwareClockDiscontinuityCount,Svid,TimeOffsetNanos,State,ReceivedSvTimeNanos,ReceivedSvTimeUncertaintyNanos,Cn0DbHz,PseudorangeRateMetersPerSecond,PseudorangeRateUncertaintyMetersPerSecond,AccumulatedDeltaRangeState,AccumulatedDeltaRangeMeters,AccumulatedDeltaRangeUncertaintyMeters,CarrierFrequencyHz,CarrierCycles,CarrierPhase,CarrierPhaseUncertainty,MultipathIndicator,SnrInDb,ConstellationType,AgcDb,CarrierFrequencyHz
# 
# Fix,Provider,Latitude,Longitude,Altitude,Speed,Accuracy,(UTC)TimeInMs
# 
# Nav,Svid,Type,Status,MessageId,Sub-messageId,Data(Bytes)
# 
Fix,gps,34.486748,109.464240,362.251068,0.905584,3.000000,1627819426000
Raw,1932772549,773825000000,,,-1311853870175484019,0.0,6.916120404386899,,,0,10,0.0,16431,43443931474628,14,36.01310348510742,-413.1434480747248,0.07586686590497249,4,-339686.5833999523,3.4028234663852886E38,1.57542003E9,,,,0,,1,,1.57542003E9
Raw,1932772549,773825000000,,,-1311853870175484019,0.0,6.916120404386899,,,0,12,0.0,16431,43443923183177,7,41.75838088989258,-542.6316300084904,0.038662428073571065,4,-438189.6122310661,3.4028234663852886E38,1.57542003E9,,,,0,,1,,1.57542003E9
Raw,1932772549,773825000000,,,-1311853870175484019,0.0,6.916120404386899,,,0,15,0.0,16431,43443918501215,19,33.53059768676758,415.8037883010693,0.10154757252838603,4,320079.6079496543,3.4028234663852886E38,1.57542003E9,,,,0,,1,,1.57542003E9
Raw,1932772549,773825000000,,,-1311853870175484019,0.0,6.916120404386899,,,0,18,0.0,16431,43443923709667,9,39.76783752441406,546.5218356784605,0.04856739653360184,1,406951.4325032399,9.331981418654323E-4,1.57542003E9,,,,0,,1,,1.57542003E9
Raw,1932772549,773825000000,,,-1311853870175484019,0.0,6.916120404386899,,,0,23,0.0,16431,43443932539168,6,43.42179870605469,32.2054951691821,0.03370677357599337,1,-3455.837243426654,6.458841380663216E-4,1.57542003E9,,,,0,,1,,1.57542003E9
Raw,1932772549,773825000000,,,-1311853870175484019,0.0,6.916120404386899,,,0,24,0.0,16431,43443928278216,10,39.07202911376953,409.3820740904109,0.05338421869073301,4,293508.1466987273,3.4028234663852886E38,1.57542003E9,,,,0,,1,,1.57542003E9
Raw,1932772550,773825000000,,,-1311853870175484019,0.0,6.916120404386899,,,0,25,0.0,16431,43443921847539,166,30.251598358154297,-727.2900386245119,0.14360005674008802,4,-564639.7304848699,3.4028234663852886E38,1.57542003E9,,,,1,,1,,1.57542003E9
Raw,1932772550,773825000000,,,-1311853870175484019,0.0,6.916120404386899,,,0,31,0.0,16,773016589029,1000000000,7.0,-847.6878840843397,2.99792458E8,2,-13.548970949056786,3.4028234663852886E38,1.57542003E9,,,,0,,1,,1.57542003E9
Raw,1932772550,773825000000,,,-1311853870175484019,0.0,6.916120404386899,,,0,32,0.0,16431,43443926849587,10,39.082557678222656,-423.19583004893207,0.0530643669847983,4,-336034.10054835875,3.4028234663852886E38,1.57542003E9,,,,0,,1,,1.57542003E9
Raw,1932772550,773825000000,,,-1311853870175484019,0.0,6.916120404386899,,,0,10,0.0,32995,54225929095794,33,36.96393966674805,-852.3646106034867,0.06778635314339782,4,-675233.7075663852,3.4028234663852886E38,1.59806246E9,,,,0,,3,,1.59806246E9
Raw,1932772550,773825000000,,,-1311853870175484019,0.0,6.916120404386899,,,0,9,0.0,32995,54225934152161,33,43.83662414550781,-244.95652833564498,0.03254563187787922,1,-237233.01708571252,6.059716106392443E-4,1.59862502E9,,,,0,,3,,1.59862502E9
Raw,1932772550,773825000000,,,-1311853870175484019,0.0,6.916120404386899,,,0,16,0.0,32995,54225927274779,33,35.50641632080078,448.24217528613235,0.07954475071829398,4,305563.28053337056,3.4028234663852886E38,1.60143744E9,,,,0,,3,,1.60143744E9
Raw,1932772551,773825000000,,,-1311853870175484019,0.0,6.916120404386899,,,0,23,0.0,32995,54225925306674,37,34.12428665161133,-136.12085802968608,0.0926850937184257,4,-151063.69945543987,3.4028234663852886E38,1.60368755E9,,,,0,,3,,1.60368755E9
Raw,1932772551,773825000000,,,-1311853870175484019,0.0,6.916120404386899,,,0,7,0.0,32995,54225933263705,36,34.35396957397461,-210.81272339109353,0.0917225305908479,4,-174775.15827017787,3.4028234663852886E38,1.60481254E9,,,,0,,3,,1.60481254E9
Raw,1932772551,773825000000,,,-1311853870175484019,0.0,6.916120404386899,,,0,8,0.0,32961,54225926829529,81,27.305667877197266,-563.0394892427623,0.20234373339812073,4,-665844.5348945498,3.4028234663852886E38,1.60537498E9,,,,0,,3,,1.60537498E9
Raw,1932772551,773825000000,,,-1311853870175484019,0.0,6.916120404386899,,,0,193,0.0,35,9600672,8,41.346988677978516,-245.69950884661398,0.041664234607179024,1,-186294.37545331506,8.201532764360309E-4,1.57542003E9,,,,0,,4,,1.57542003E9
Raw,1932772551,773825000000,,,-1311853870175484019,0.0,6.916120404386899,,,0,194,0.0,35,13059513,11,38.00291442871094,-114.37214383212205,0.06104157978140656,4,-92172.96499659776,3.4028234663852886E38,1.57542003E9,,,,0,,4,,1.57542003E9
Raw,1932772551,773825000000,,,-1311853870175484019,0.0,6.916120404386899,,,0,6,0.0,16431,43429879357134,14,30.40569305419922,-74.71844967749524,0.14423036584204185,4,-39695.03173570623,3.4028234663852886E38,1.56109798E9,,,,0,,5,,1.56109798E9
Raw,1932772552,773825000000,,,-1311853870175484019,0.0,6.916120404386899,,,0,14,0.0,16431,43429925741859,6,41.953250885009766,89.76537707792471,0.038277639968538696,1,49204.67132356764,7.71877181250602E-4,1.56109798E9,,,,0,,5,,1.56109798E9
Raw,1932772552,773825000000,,,-1311853870175484019,0.0,6.916120404386899,,,0,16,0.0,16431,43429878717807,11,32.31153869628906,-74.77227439695889,0.11638584759595394,4,-39272.94048624474,3.4028234663852886E38,1.56109798E9,,,,0,,5,,1.56109798E9
Raw,1932772552,773825000000,,,-1311853870175484019,0.0,6.916120404386899,,,0,24,0.0,16431,43429925117400,6,42.45502471923828,-62.65856841102379,0.03607470341652588,1,-64545.87600964617,7.285500760190189E-4,1.56109798E9,,,,0,,5,,1.56109798E9
Raw,1932772552,773825000000,,,-1311853870175484019,0.0,6.916120404386899,,,0,25,0.0,16431,43429922124849,6,40.7626838684082,-638.0832304059254,0.04309857265631495,4,-162681.8055187648,3.4028234663852886E38,1.56109798E9,,,,0,,5,,1.56109798E9
Raw,1932772552,773825000000,,,-1311853870175484019,0.0,6.916120404386899,,,0,26,0.0,16431,43429917427292,10,32.99416732788086,388.75530323789303,0.10761160373935491,4,238306.44197177805,3.4028234663852886E38,1.56109798E9,,,,0,,5,,1.56109798E9
Raw,1932772552,773825000000,,,-1311853870175484019,0.0,6.916120404386899,,,0,27,0.0,16431,43429914414565,8,35.3750114440918,55.84669953962762,0.08202159505932483,4,9802.83275872436,3.4028234663852886E38,1.56109798E9,,,,0,,5,,1.56109798E9
Raw,1932772553,773825000000,,,-1311853870175484019,0.0,6.916120404386899,,,0,33,0.0,16431,43429926611202,7,35.61164093017578,-155.71761444301399,0.07848328522786702,4,-113740.76621339748,3.4028234663852886E38,1.56109798E9,,,,0,,5,,1.56109798E9
Fix,gps,34.486748,109.464239,362.094086,0.740328,3.000000,1627819427000
Raw,1932773508,774825000000,,,-1311853870175484405,0.0,7.375793127567484,,,0,10,0.0,16431,43444931475991,12,37.31474304199219,-413.0144800592425,0.06559605189661691,4,-340099.68280376506,3.4028234663852886E38,1.57542003E9,,,,0,,1,,1.57542003E9
Raw,1932773508,774825000000,,,-1311853870175484405,0.0,7.375793127567484,,,0,12,0.0,16431,43444923185004,7,41.46680450439453,-542.5297234634872,0.03996309898853159,4,-438732.1849876075,3.4028234663852886E38,1.57542003E9,,,,0,,1,,1.57542003E9
Raw,1932773508,774825000000,,,-1311853870175484405,0.0,7.375793127567484,,,0,15,0.0,16431,43444918499869,17,34.751197814941406,415.8901532458981,0.0886707861024495,4,320495.5100891156,3.4028234663852886E38,1.57542003E9,,,,0,,1,,1.57542003E9
Raw,1932773508,774825000000,,,-1311853870175484405,0.0,7.375793127567484,,,0,18,0.0,16431,43444923707867,7,42.25908279418945,546.5366956295045,0.03662319714890927,1,407497.95594789775,7.383977063000202E-4,1.57542003E9,,,,0,,1,,1.57542003E9
Raw,1932773508,774825000000,,,-1311853870175484405,0.0,7.375793127567484,,,0,23,0.0,16431,43444932539068,6,44.55648422241211,32.33456330188045,0.032255471267034236,1,-3423.5589556698214,5.667875520884991E-4,1.57542003E9,,,,0,,1,,1.57542003E9
Raw,1932773509,774825000000,,,-1311853870175484405,0.0,7.375793127567484,,,0,24,0.0,16431,43444928276847,10,38.71664047241211,409.3316661372137,0.055551333715565476,4,293917.42418112606,3.4028234663852886E38,1.57542003E9,,,,0,,1,,1.57542003E9
Raw,1932773509,774825000000,,,-1311853870175484405,0.0,7.375793127567484,,,0,25,0.0,16431,43444921850047,166,26.720748901367188,-726.9711631612845,0.2154578072783202,4,-565366.8647105966,3.4028234663852886E38,1.57542003E9,,,,1,,1,,1.57542003E9
Raw,1932773509,774825000000,,,-1311853870175484405,0.0,7.375793127567484,,,0,31,0.0,16,774016591796,1000000000,7.0,-847.6878840843397,2.99792458E8,2,-13.542341913959637,3.4028234663852886E38,1.57542003E9,,,,0,,1,,1.57542003E9
Raw,1932773509,774825000000,,,-1311853870175484405,0.0,7.375793127567484,,,0,32,0.0,16431,43444926850986,14,36.42329788208008,-423.6472862680332,0.07163082261970433,4,-336457.7349074506,3.4028234663852886E38,1.57542003E9,,,,0,,1,,1.57542003E9
Raw,1932773509,774825000000,,,-1311853870175484405,0.0,7.375793127567484,,,0,10,0.0,32995,54226929098655,33,40.542118072509766,-852.372585898313,0.04545158934189067,4,-676086.0988848844,3.4028234663852886E38,1.59806246E9,,,,0,,3,,1.59806246E9
Raw,1932773510,774825000000,,,-1311853870175484405,0.0,7.375793127567484,,,0,9,0.0,32995,54226934152979,33,44.84569549560547,-244.79746551105302,0.032545779574071426,1,-237477.90018577615,5.39508939255029E-4,1.59862502E9,,,,0,,3,,1.59862502E9
Raw,1932773510,774825000000,,,-1311853870175484405,0.0,7.375793127567484,,,0,16,0.0,32995,54226927273331,36,34.16490173339844,447.81576967257547,0.09261095439039391,4,306011.025769928,3.4028234663852886E38,1.60143744E9,,,,0,,3,,1.60143744E9
Raw,1932773510,774825000000,,,-1311853870175484405,0.0,7.375793127567484,,,0,23,0.0,32995,54226925307028,48,31.88334083557129,-136.4793117455506,0.11968485631238746,4,-151200.1919793536,3.4028234663852886E38,1.60368755E9,,,,0,,3,,1.60368755E9
Raw,1932773510,774825000000,,,-1311853870175484405,0.0,7.375793127567484,,,0,7,0.0,32995,54226933264390,33,37.965816497802734,-211.23486869758506,0.06132967056533259,4,-174986.43613390098,3.4028234663852886E38,1.60481254E9,,,,0,,3,,1.60481254E9
Raw,1932773510,774825000000,,,-1311853870175484405,0.0,7.375793127567484,,,0,8,0.0,32961,54226926831393,68,28.84041976928711,-563.7103001520443,0.1697705072950355,4,-666408.2900946861,3.4028234663852886E38,1.60537498E9,,,,0,,3,,1.60537498E9
Raw,1932773510,774825000000,,,-1311853870175484405,0.0,7.375793127567484,,,0,193,0.0,35,9601484,8,41.14302062988281,-245.66936291381955,0.042613334498757344,1,-186540.05631403942,8.396404446102679E-4,1.57542003E9,,,,0,,4,,1.57542003E9
Raw,1932773511,774825000000,,,-1311853870175484405,0.0,7.375793127567484,,,0,194,0.0,35,13059907,12,37.729373931884766,-114.36886339568173,0.06291945157596818,4,-92287.34611647183,3.4028234663852886E38,1.57542003E9,,,,0,,4,,1.57542003E9
Raw,1932773511,774825000000,,,-1311853870175484405,0.0,7.375793127567484,,,0,6,0.0,16431,43430879357362,14,30.159648895263672,-74.74499139051238,0.1482743791147042,4,-39769.876877049,3.4028234663852886E38,1.56109798E9,,,,0,,5,,1.56109798E9
Raw,1932773511,774825000000,,,-1311853870175484405,0.0,7.375793127567484,,,0,14,0.0,16431,43430925741561,6,42.40277099609375,89.85053209554695,0.036399098340542,1,49294.47146631532,7.329460349865258E-4,1.56109798E9,,,,0,,5,,1.56109798E9
Raw,1932773511,774825000000,,,-1311853870175484405,0.0,7.375793127567484,,,0,16,0.0,16431,43430878718060,11,32.34639358520508,-74.8346367717815,0.11593328150029497,4,-39347.83469157447,3.4028234663852886E38,1.56109798E9,,,,0,,5,,1.56109798E9
Raw,1932773511,774825000000,,,-1311853870175484405,0.0,7.375793127567484,,,0,24,0.0,16431,43430925117604,6,41.95054244995117,-62.512043670125166,0.03817696109092694,1,-64608.48355958312,7.721178117208183E-4,1.56109798E9,,,,0,,5,,1.56109798E9
Raw,1932773511,774825000000,,,-1311853870175484405,0.0,7.375793127567484,,,0,25,0.0,16431,43430922126978,6,42.57648468017578,-638.0603951600551,0.03504861844493071,1,-163319.95320233545,7.184332353062928E-4,1.56109798E9,,,,0,,5,,1.56109798E9
Raw,1932773512,774825000000,,,-1311853870175484405,0.0,7.375793127567484,,,0,26,0.0,16431,43430917425999,14,29.982648849487305,389.08777760127305,0.15090779806129895,4,238696.21740835346,3.4028234663852886E38,1.56109798E9,,,,0,,5,,1.56109798E9
Raw,1932773512,774825000000,,,-1311853870175484405,0.0,7.375793127567484,,,0,27,0.0,16431,43430914414369,11,32.643646240234375,55.82626284663513,0.11137205696480429,4,9858.6368999607,3.4028234663852886E38,1.56109798E9,,,,0,,5,,1.56109798E9
Raw,1932773512,774825000000,,,-1311853870175484405,0.0,7.375793127567484,,,0,33,0.0,16431,43430926611728,7,36.421165466308594,-155.9772375555765,0.07160510267997972,4,-113896.78645998033,3.4028234663852886E38,1.56109798E9,,,,0,,5,,1.56109798E9
Fix,gps,34.486748,109.464238,362.149597,0.625469,3.000000,1627819428000
Raw,1932774540,775825000000,,,-1311853870175484791,0.0,7.616446871071166,,,0,10,0.0,16431,43445931477364,11,38.31671905517578,-412.967446269241,0.05867440506365956,4,-340512.66808969725,3.4028234663852886E38,1.57542003E9,,,,0,,1,,1.57542003E9
Raw,1932774540,775825000000,,,-1311853870175484791,0.0,7.616446871071166,,,0,12,0.0,16431,43445923186811,8,40.77394104003906,-542.557671077836,0.04323426177216394,4,-439274.70120765583,3.4028234663852886E38,1.57542003E9,,,,0,,1,,1.57542003E9
Raw,1932774541,775825000000,,,-1311853870175484791,0.0,7.616446871071166,,,0,15,0.0,16431,43445918498454,13,36.763694763183594,415.8633985175277,0.07102039217708472,4,320911.3665398441,3.4028234663852886E38,1.57542003E9,,,,0,,1,,1.57542003E9
Raw,1932774541,775825000000,,,-1311853870175484791,0.0,7.616446871071166,,,0,18,0.0,16431,43445923706033,6,43.299293518066406,546.6172665567244,0.03256463892165662,1,408044.55156453047,6.550580728799105E-4,1.57542003E9,,,,0,,1,,1.57542003E9
Raw,1932774542,775825000000,,,-1311853870175484791,0.0,7.616446871071166,,,0,23,0.0,16431,43445932538952,6,44.04820251464844,32.451677012953425,0.03225545046475364,1,-3391.180730320105,6.0094433138147E-4,1.57542003E9,,,,0,,1,,1.57542003E9
Raw,1932774542,775825000000,,,-1311853870175484791,0.0,7.616446871071166,,,0,24,0.0,16431,43445928275477,10,38.87408447265625,409.4301303541081,0.05457995458147255,4,294326.7917607998,3.4028234663852886E38,1.57542003E9,,,,0,,1,,1.57542003E9
Raw,1932774543,775825000000,,,-1311853870175484791,0.0,7.616446871071166,,,0,25,0.0,16431,43445921852464,50,25.37217140197754,-727.0848622362446,0.25159115232383644,4,-566094.1002408259,3.4028234663852886E38,1.57542003E9,,,,0,,1,,1.57542003E9
Raw,1932774543,775825000000,,,-1311853870175484791,0.0,7.616446871071166,,,0,31,0.0,16,775016594684,1000000000,7.0,-847.6878840843397,2.99792458E8,2,-13.56222901926262,3.4028234663852886E38,1.57542003E9,,,,0,,1,,1.57542003E9
Raw,1932774543,775825000000,,,-1311853870175484791,0.0,7.616446871071166,,,0,32,0.0,16431,43445926852387,11,38.4552001953125,-423.5186249946596,0.05694711265739508,4,-336881.32953035505,3.4028234663852886E38,1.57542003E9,,,,0,,1,,1.57542003E9
Raw,1932774544,775825000000,,,-1311853870175484791,0.0,7.616446871071166,,,0,10,0.0,32995,54227929101516,33,40.30281066894531,-852.2072859841774,0.04667605734258462,1,-676938.3737847247,8.650232339277864E-4,1.59806246E9,,,,0,,3,,1.59806246E9
Raw,1932774544,775825000000,,,-1311853870175484791,0.0,7.616446871071166,,,0,9,0.0,32995,54227934153789,33,43.738502502441406,-244.68250538520158,0.0328710856379775,1,-237722.63160189058,6.128557142801583E-4,1.59862502E9,,,,0,,3,,1.59862502E9
Raw,1932774544,775825000000,,,-1311853870175484791,0.0,7.616446871071166,,,0,16,0.0,32995,54227927271769,38,33.742427825927734,447.9038387402304,0.09716129517267857,4,306458.883428926,3.4028234663852886E38,1.60143744E9,,,,0,,3,,1.60143744E9
Raw,1932774545,775825000000,,,-1311853870175484791,0.0,7.616446871071166,,,0,23,0.0,32995,54227925307440,54,30.797243118286133,-136.3677172622808,0.13549926591539174,4,-151336.48117933725,3.4028234663852886E38,1.60368755E9,,,,0,,3,,1.60368755E9
Raw,1932774545,775825000000,,,-1311853870175484791,0.0,7.616446871071166,,,0,7,0.0,32995,54227933265070,33,36.53316116333008,-211.32189825031605,0.07189976282411686,4,-175197.65856053712,3.4028234663852886E38,1.60481254E9,,,,0,,3,,1.60481254E9
Raw,1932774546,775825000000,,,-1311853870175484791,0.0,7.616446871071166,,,0,8,0.0,32961,54227926833219,53,30.989473342895508,-563.7480635138716,0.1328287773047811,4,-666972.0422347555,3.4028234663852886E38,1.60537498E9,,,,0,,3,,1.60537498E9
Raw,1932774546,775825000000,,,-1311853870175484791,0.0,7.616446871071166,,,0,193,0.0,35,9602312,7,42.100215911865234,-245.71096055200564,0.038347148708910594,1,-186785.74275178454,7.52027437556535E-4,1.57542003E9,,,,0,,4,,1.57542003E9
Raw,1932774547,775825000000,,,-1311853870175484791,0.0,7.616446871071166,,,0,194,0.0,35,13060300,10,39.35152816772461,-114.35587797974654,0.052601062751897465,4,-92401.69889652527,3.4028234663852886E38,1.57542003E9,,,,0,,4,,1.57542003E9
Raw,1932774547,775825000000,,,-1311853870175484791,0.0,7.616446871071166,,,0,6,0.0,16431,43431879357645,13,30.5695743560791,-74.82164283523218,0.14159975936378322,4,-39844.69984094648,3.4028234663852886E38,1.56109798E9,,,,0,,5,,1.56109798E9
Raw,1932774548,775825000000,,,-1311853870175484791,0.0,7.616446871071166,,,0,14,0.0,16431,43431925741256,6,42.17551803588867,89.85046393063391,0.0373365489549885,1,49384.31575403669,7.523757521994412E-4,1.56109798E9,,,,0,,5,,1.56109798E9
Raw,1932774551,775825000000,,,-1311853870175484791,0.0,7.616446871071166,,,0,16,0.0,16431,43431878718298,12,31.687599182128906,-74.8499823978309,0.12480323248944414,4,-39422.69120710836,3.4028234663852886E38,1.56109798E9,,,,0,,5,,1.56109798E9
Raw,1932774552,775825000000,,,-1311853870175484791,0.0,7.616446871071166,,,0,24,0.0,16431,43431925117811,6,43.64856719970703,-62.47811458465671,0.0315613615705031,1,-64670.9695959704,6.350124604068696E-4,1.56109798E9,,,,0,,5,,1.56109798E9
Raw,1932774552,775825000000,,,-1311853870175484791,0.0,7.616446871071166,,,0,25,0.0,16431,43431922129107,6,42.91594696044922,-637.9940025347487,0.03372032210134329,1,-163957.96174791266,6.908971117809415E-4,1.56109798E9,,,,0,,5,,1.56109798E9
Raw,1932774553,775825000000,,,-1311853870175484791,0.0,7.616446871071166,,,0,26,0.0,16431,43431917424704,17,28.407329559326172,387.93654038484556,0.18029275014800084,4,239085.26073141492,3.4028234663852886E38,1.56109798E9,,,,0,,5,,1.56109798E9
Raw,1932774553,775825000000,,,-1311853870175484791,0.0,7.616446871071166,,,0,27,0.0,16431,43431914414188,10,32.79725646972656,56.13798525429982,0.1094651451865355,4,9914.600825757394,3.4028234663852886E38,1.56109798E9,,,,0,,5,,1.56109798E9
Raw,1932774553,775825000000,,,-1311853870175484791,0.0,7.616446871071166,,,0,33,0.0,16431,43431926612240,6,37.238014221191406,-155.9407693270971,0.06528488722305764,4,-114052.74084304519,3.4028234663852886E38,1.56109798E9,,,,0,,5,,1.56109798E9
Fix,gps,34.486747,109.464237,362.170929,0.528090,3.000000,1627819429000
Raw,1932775496,776825000000,,,-1311853870175485177,0.0,7.836727162887068,,,0,10,0.0,16431,43446931478709,12,37.430686950683594,-412.8618247364768,0.06475410871282686,4,-340925.5836964465,3.4028234663852886E38,1.57542003E9,,,,0,,1,,1.57542003E9
Raw,1932775496,776825000000,,,-1311853870175485177,0.0,7.836727162887068,,,0,12,0.0,16431,43446923188631,10,39.439598083496094,-542.4494933608325,0.050318440983846885,4,-439817.1354318075,3.4028234663852886E38,1.57542003E9,,,,0,,1,,1.57542003E9
Raw,1932775496,776825000000,,,-1311853870175485177,0.0,7.836727162887068,,,0,15,0.0,16431,43446918497049,11,38.19721221923828,415.88320042476744,0.060721336992596714,4,321327.23688280577,3.4028234663852886E38,1.57542003E9,,,,0,,1,,1.57542003E9
Raw,1932775496,776825000000,,,-1311853870175485177,0.0,7.836727162887068,,,0,18,0.0,16431,43446923704222,6,43.74275588989258,546.6198227409636,0.030976621944415278,1,408591.15380299627,6.224530516192317E-4,1.57542003E9,,,,0,,1,,1.57542003E9
Raw,1932775497,776825000000,,,-1311853870175485177,0.0,7.836727162887068,,,0,23,0.0,16431,43446932538841,6,44.759891510009766,32.528677802852584,0.03225543174270111,1,-3358.7000087625547,5.536684766411781E-4,1.57542003E9,,,,0,,1,,1.57542003E9
Raw,1932775497,776825000000,,,-1311853870175485177,0.0,7.836727162887068,,,0,24,0.0,16431,43446928274135,10,39.314727783203125,409.51765410245866,0.05195352104070078,1,294736.23510759877,9.831716306507587E-4,1.57542003E9,,,,0,,1,,1.57542003E9
Raw,1932775497,776825000000,,,-1311853870175485177,0.0,7.836727162887068,,,0,25,0.0,16431,43446921854875,46,26.227787017822266,-727.5319559009108,0.22802103676842933,4,-566821.3579615199,3.4028234663852886E38,1.57542003E9,,,,0,,1,,1.57542003E9
Raw,1932775497,776825000000,,,-1311853870175485177,0.0,7.836727162887068,,,0,31,0.0,16,776016597512,1000000000,7.0,-847.6878840843397,2.99792458E8,2,-13.55559998414787,3.4028234663852886E38,1.57542003E9,,,,0,,1,,1.57542003E9
Raw,1932775498,776825000000,,,-1311853870175485177,0.0,7.836727162887068,,,0,32,0.0,16431,43446926853817,12,37.804771423339844,-423.52274897189886,0.06127960779685859,4,-337304.88549569424,3.4028234663852886E38,1.57542003E9,,,,0,,1,,1.57542003E9
Raw,1932775498,776825000000,,,-1311853870175485177,0.0,7.836727162887068,,,0,10,0.0,32995,54228929104357,33,40.38065719604492,-852.1570484432627,0.04627471062220059,1,-677790.5966885067,8.573049562983215E-4,1.59806246E9,,,,0,,3,,1.59806246E9
Raw,1932775498,776825000000,,,-1311853870175485177,0.0,7.836727162887068,,,0,9,0.0,32995,54228934154593,33,44.34318161010742,-244.4623497572925,0.03254607080599972,1,-237967.18082386875,5.716423620469868E-4,1.59862502E9,,,,0,,3,,1.59862502E9
Raw,1932775498,776825000000,,,-1311853870175485177,0.0,7.836727162887068,,,0,16,0.0,32995,54228927270313,34,34.68899154663086,448.12189829706335,0.08726426902337803,4,306906.8829412491,3.4028234663852886E38,1.60143744E9,,,,0,,3,,1.60143744E9
Raw,1932775498,776825000000,,,-1311853870175485177,0.0,7.836727162887068,,,0,23,0.0,32995,54228925308018,41,33.10114288330078,-136.1300262104907,0.10415275861976059,4,-151472.65016629666,3.4028234663852886E38,1.60368755E9,,,,0,,3,,1.60368755E9
Raw,1932775498,776825000000,,,-1311853870175485177,0.0,7.836727162887068,,,0,7,0.0,32995,54228933265791,33,35.331417083740234,-211.15995545814792,0.08221462358139908,4,-175408.81801163795,3.4028234663852886E38,1.60481254E9,,,,0,,3,,1.60481254E9
Raw,1932775498,776825000000,,,-1311853870175485177,0.0,7.836727162887068,,,0,8,0.0,32961,54228926835142,60,29.93929672241211,-563.6295588125417,0.14974217139148904,4,-667535.7936354581,3.4028234663852886E38,1.60537498E9,,,,0,,3,,1.60537498E9
Raw,1932775499,776825000000,,,-1311853870175485177,0.0,7.836727162887068,,,0,193,0.0,35,9603135,8,41.10218048095703,-245.69616876587475,0.042806321416270415,1,-187031.4428924534,8.435978088527918E-4,1.57542003E9,,,,0,,4,,1.57542003E9
Raw,1932775499,776825000000,,,-1311853870175485177,0.0,7.836727162887068,,,0,194,0.0,35,13060664,9,39.7274169921875,-114.37381387249167,0.0504728396708608,4,-92516.06092515458,3.4028234663852886E38,1.57542003E9,,,,0,,4,,1.57542003E9
Raw,1932775499,776825000000,,,-1311853870175485177,0.0,7.836727162887068,,,0,6,0.0,16431,43432879357881,12,31.493032455444336,-74.74898755853968,0.12766918764941448,4,-39919.51528806029,3.4028234663852886E38,1.56109798E9,,,,0,,5,,1.56109798E9
Raw,1932775499,776825000000,,,-1311853870175485177,0.0,7.836727162887068,,,0,14,0.0,16431,43432925740950,6,43.37480926513672,89.91356759888589,0.03265455053883368,1,49474.20880588358,6.553452112711966E-4,1.56109798E9,,,,0,,5,,1.56109798E9
Raw,1932775499,776825000000,,,-1311853870175485177,0.0,7.836727162887068,,,0,16,0.0,16431,43432878718550,10,33.07108688354492,-74.88144902581558,0.10692272373616474,4,-39497.55235955603,3.4028234663852886E38,1.56109798E9,,,,0,,5,,1.56109798E9
Raw,1932775499,776825000000,,,-1311853870175485177,0.0,7.836727162887068,,,0,24,0.0,16431,43432925118024,6,42.15371322631836,-62.31928607695335,0.037315692588466426,1,-64733.33732783433,7.542669191025198E-4,1.56109798E9,,,,0,,5,,1.56109798E9
Raw,1932775500,776825000000,,,-1311853870175485177,0.0,7.836727162887068,,,0,25,0.0,16431,43432922131240,6,41.58062744140625,-637.9095462074852,0.039260743267973575,1,-164595.94947077276,8.057107916101813E-4,1.56109798E9,,,,0,,5,,1.56109798E9
Raw,1932775500,776825000000,,,-1311853870175485177,0.0,7.836727162887068,,,0,26,0.0,16431,43432917423399,15,29.53765296936035,388.38598573901186,0.1586753363509028,4,239473.5165493167,3.4028234663852886E38,1.56109798E9,,,,0,,5,,1.56109798E9
Raw,1932775500,776825000000,,,-1311853870175485177,0.0,7.836727162887068,,,0,27,0.0,16431,43432914414032,10,32.83076477050781,56.068861772164496,0.10905364279276619,1,9970.595569668414,0.0020931176841259003,1.56109798E9,,,,0,,5,,1.56109798E9
Raw,1932775501,776825000000,,,-1311853870175485177,0.0,7.836727162887068,,,0,33,0.0,16431,43432926612771,7,36.525238037109375,-155.7989011018209,0.07076659603294355,4,-114208.64208632096,3.4028234663852886E38,1.56109798E9,,,,0,,5,,1.56109798E9
Fix,gps,34.486747,109.464237,362.216797,0.459644,3.000000,1627819430000
Raw,1932776544,777825000000,,,-1311853870175485565,0.0,8.427791869071656,,,0,10,0.0,16431,43447931480063,13,36.57859420776367,-412.7899448356702,0.07121601682377693,4,-341338.4283140311,3.4028234663852886E38,1.57542003E9,,,,0,,1,,1.57542003E9
Raw,1932776545,777825000000,,,-1311853870175485565,0.0,8.427791869071656,,,0,12,0.0,16431,43447923190427,8,40.58725357055664,-542.3239335910025,0.04416175641511885,1,-440359.48628153553,8.951210766099393E-4,1.57542003E9,,,,0,,1,,1.57542003E9
Raw,1932776546,777825000000,,,-1311853870175485565,0.0,8.427791869071656,,,0,15,0.0,16431,43447918495662,11,37.972110748291016,415.8204205398524,0.06222793384359887,4,321743.11429519916,3.4028234663852886E38,1.57542003E9,,,,0,,1,,1.57542003E9
Raw,1932776546,777825000000,,,-1311853870175485565,0.0,8.427791869071656,,,0,18,0.0,16431,43447923702393,6,44.24955749511719,546.6711168380305,0.030665971087186647,1,409137.8089813865,5.871736793778837E-4,1.57542003E9,,,,0,,1,,1.57542003E9
Raw,1932776546,777825000000,,,-1311853870175485565,0.0,8.427791869071656,,,0,23,0.0,16431,43447932538742,6,44.30440902709961,32.62465613057435,0.03225541302064858,1,-3326.1192710587093,5.834773764945567E-4,1.57542003E9,,,,0,,1,,1.57542003E9
Raw,1932776546,777825000000,,,-1311853870175485565,0.0,8.427791869071656,,,0,24,0.0,16431,43447928272767,11,38.1058235168457,409.5559287011338,0.05948929280131096,1,295145.74753375736,0.001129989861510694,1.57542003E9,,,,0,,1,,1.57542003E9
Raw,1932776547,777825000000,,,-1311853870175485565,0.0,8.427791869071656,,,0,25,0.0,16431,43447921857295,48,25.806804656982422,-727.2585464346848,0.23932869052744643,4,-567548.5879990703,3.4028234663852886E38,1.57542003E9,,,,0,,1,,1.57542003E9
Raw,1932776547,777825000000,,,-1311853870175485565,0.0,8.427791869071656,,,0,31,0.0,16,777016600279,1000000000,7.0,-847.6878840843397,2.99792458E8,2,-13.548970949050723,3.4028234663852886E38,1.57542003E9,,,,0,,1,,1.57542003E9
Raw,1932776547,777825000000,,,-1311853870175485565,0.0,8.427791869071656,,,0,32,0.0,16431,43447926855211,12,37.60494613647461,-423.49568750141975,0.0626773005485027,4,-337728.40849534,3.4028234663852886E38,1.57542003E9,,,,0,,1,,1.57542003E9
Raw,1932776548,777825000000,,,-1311853870175485565,0.0,8.427791869071656,,,0,10,0.0,32995,54229929107186,33,40.30197525024414,-852.0803629160864,0.046681399368240784,1,-678642.7186113552,8.651063544675708E-4,1.59806246E9,,,,0,,3,,1.59806246E9
Raw,1932776548,777825000000,,,-1311853870175485565,0.0,8.427791869071656,,,0,9,0.0,32995,54229934155419,33,44.65190505981445,-244.31467047317915,0.03254621850219193,1,-238211.57316447326,5.516812088899314E-4,1.59862502E9,,,,0,,3,,1.59862502E9
Raw,1932776549,777825000000,,,-1311853870175485565,0.0,8.427791869071656,,,0,16,0.0,32995,54229927268821,49,31.567293167114258,448.115354465411,0.12443744518750499,4,307354.96766456706,3.4028234663852886E38,1.60143744E9,,,,0,,3,,1.60143744E9
Raw,1932776549,777825000000,,,-1311853870175485565,0.0,8.427791869071656,,,0,23,0.0,32995,54229925308391,36,34.309593200683594,-135.8878021919831,0.09074915027736197,4,-151608.62092429498,3.4028234663852886E38,1.60368755E9,,,,0,,3,,1.60368755E9
Raw,1932776550,777825000000,,,-1311853870175485565,0.0,8.427791869071656,,,0,7,0.0,32995,54229933266560,33,35.309139251708984,-211.05953150000346,0.08241975070986596,4,-175619.9256181767,3.4028234663852886E38,1.60481254E9,,,,0,,3,,1.60481254E9
Raw,1932776551,777825000000,,,-1311853870175485565,0.0,8.427791869071656,,,0,8,0.0,32961,54229926837110,83,27.0606689453125,-563.9178963947247,0.20809857615218663,4,-668099.5074923518,3.4028234663852886E38,1.60537498E9,,,,0,,3,,1.60537498E9
Raw,1932776551,777825000000,,,-1311853870175485565,0.0,8.427791869071656,,,0,193,0.0,35,9603952,8,41.07101821899414,-245.72041843369072,0.04295410497805591,1,-187277.14933276456,8.466296712867916E-4,1.57542003E9,,,,0,,4,,1.57542003E9
Raw,1932776551,777825000000,,,-1311853870175485565,0.0,8.427791869071656,,,0,194,0.0,35,13061064,12,37.878265380859375,-114.29218638911954,0.06189021713909129,1,-92630.38141351959,0.0011599852005019784,1.57542003E9,,,,0,,4,,1.57542003E9
Raw,1932776552,777825000000,,,-1311853870175485565,0.0,8.427791869071656,,,0,6,0.0,16431,43433879358118,11,31.999614715576172,-74.77189096932301,0.12063350687470498,4,-39994.34191578885,3.4028234663852886E38,1.56109798E9,,,,0,,5,,1.56109798E9
Raw,1932776552,777825000000,,,-1311853870175485565,0.0,8.427791869071656,,,0,14,0.0,16431,43433925740656,6,43.05311584472656,89.96366880997442,0.033847621657429314,1,49564.16004774311,6.800718256272376E-4,1.56109798E9,,,,0,,5,,1.56109798E9
Raw,1932776552,777825000000,,,-1311853870175485565,0.0,8.427791869071656,,,0,16,0.0,16431,43433878718798,10,33.01255416870117,-74.87052559850002,0.10762297842638291,4,-39572.41092251428,3.4028234663852886E38,1.56109798E9,,,,0,,5,,1.56109798E9
Raw,1932776553,777825000000,,,-1311853870175485565,0.0,8.427791869071656,,,0,24,0.0,16431,43433925118229,6,41.98878479003906,-62.21510878828431,0.03801340107954007,1,-64795.596138875415,7.687258184887469E-4,1.56109798E9,,,,0,,5,,1.56109798E9
Raw,1932776553,777825000000,,,-1311853870175485565,0.0,8.427791869071656,,,0,25,0.0,16431,43433922133357,6,41.63357162475586,-637.849561084005,0.03902486620833481,1,-165233.84707872852,8.008147124201059E-4,1.56109798E9,,,,0,,5,,1.56109798E9
Raw,1932776554,777825000000,,,-1311853870175485565,0.0,8.427791869071656,,,0,26,0.0,16431,43433917422128,16,29.081871032714844,388.27123010789956,0.16705489437736354,4,239861.83883815,3.4028234663852886E38,1.56109798E9,,,,0,,5,,1.56109798E9
Raw,1932776554,777825000000,,,-1311853870175485565,0.0,8.427791869071656,,,0,27,0.0,16431,43433914413863,10,32.95124816894531,56.15266627244702,0.10758705704825572,1,10026.698443918018,0.0020642844028770924,1.56109798E9,,,,0,,5,,1.56109798E9
Raw,1932776554,777825000000,,,-1311853870175485565,0.0,8.427791869071656,,,0,33,0.0,16431,43433926613293,9,34.27829360961914,-155.84484425321364,0.0913080409895855,4,-114364.48948864626,3.4028234663852886E38,1.56109798E9,,,,0,,5,,1.56109798E9
Fix,gps,34.486747,109.464237,362.215424,0.323596,3.000000,1627819431000
Raw,1932777518,778825000000,,,-1311853870175485948,0.0,8.495123351376842,,,0,10,0.0,16431,43448931481484,20,33.12150192260742,-412.64431049894824,0.10502161995463738,1,-341751.087195411,0.0020058138761669397,1.57542003E9,,,,0,,1,,1.57542003E9
Raw,1932777518,778825000000,,,-1311853870175485948,0.0,8.495123351376842,,,0,12,0.0,16431,43448923192223,8,40.8352165222168,-542.5129889773345,0.04293533716050532,1,-440901.8997076979,8.699284517206252E-4,1.57542003E9,,,,0,,1,,1.57542003E9
Raw,1932777519,778825000000,,,-1311853870175485948,0.0,8.495123351376842,,,0,15,0.0,16431,43448918494286,13,36.86070251464844,415.95835224140023,0.07026783223254468,1,322158.97718780144,0.0013041592901572585,1.57542003E9,,,,0,,1,,1.57542003E9
Raw,1932777519,778825000000,,,-1311853870175485948,0.0,8.495123351376842,,,0,18,0.0,16431,43448923700556,6,44.95124053955078,546.0297531711842,0.030665640330925226,1,409684.27850277256,5.416048225015402E-4,1.57542003E9,,,,0,,1,,1.57542003E9
Raw,1932777519,778825000000,,,-1311853870175485948,0.0,8.495123351376842,,,0,23,0.0,16431,43448932538620,9,40.20345687866211,32.73884940115403,0.04781244016633754,4,-3293.3984963294665,3.4028234663852886E38,1.57542003E9,,,,0,,1,,1.57542003E9
Raw,1932777520,778825000000,,,-1311853870175485948,0.0,8.495123351376842,,,0,24,0.0,16431,43448928271413,11,37.92599105834961,410.20168900487147,0.06070241939862586,1,295555.475717028,0.0011536289239302278,1.57542003E9,,,,0,,1,,1.57542003E9
Raw,1932777521,778825000000,,,-1311853870175485948,0.0,8.495123351376842,,,0,25,0.0,16431,43448921859701,23,31.936859130859375,-727.8625557291821,0.11833542901217414,4,-568276.0169522711,3.4028234663852886E38,1.57542003E9,,,,0,,1,,1.57542003E9
Raw,1932777521,778825000000,,,-1311853870175485948,0.0,8.495123351376842,,,0,31,0.0,16,778016603167,1000000000,7.0,-847.6878840843397,2.99792458E8,2,-13.542341913962312,3.4028234663852886E38,1.57542003E9,,,,0,,1,,1.57542003E9
Raw,1932777522,778825000000,,,-1311853870175485948,0.0,8.495123351376842,,,0,32,0.0,16431,43448926856626,15,35.42039489746094,-423.2187334597154,0.08024815903424998,1,-338151.8505130973,0.001451342017389834,1.57542003E9,,,,0,,1,,1.57542003E9
Raw,1932777522,778825000000,,,-1311853870175485948,0.0,8.495123351376842,,,0,10,0.0,32995,54230929110031,33,39.83967590332031,-852.5894184867111,0.04914425625580121,1,-679494.9508468478,9.123985073529184E-4,1.59806246E9,,,,0,,3,,1.59806246E9
Raw,1932777522,778825000000,,,-1311853870175485948,0.0,8.495123351376842,,,0,9,0.0,32995,54230934156229,33,41.9714469909668,-244.15514753542413,0.03971323863587853,1,-238455.78137993126,7.511231815442443E-4,1.59862502E9,,,,0,,3,,1.59862502E9
Raw,1932777523,778825000000,,,-1311853870175485948,0.0,8.495123351376842,,,0,16,0.0,32995,54230927267273,64,29.351350784301758,448.29149260072086,0.16022074609703452,1,307803.15856342367,0.002871496370062232,1.60143744E9,,,,0,,3,,1.60143744E9
Raw,1932777523,778825000000,,,-1311853870175485948,0.0,8.495123351376842,,,0,23,0.0,32995,54230925308903,33,36.09944152832031,-136.04708655254245,0.0740278444496455,4,-151744.55864164955,3.4028234663852886E38,1.60368755E9,,,,0,,3,,1.60368755E9
Raw,1932777523,778825000000,,,-1311853870175485948,0.0,8.495123351376842,,,0,7,0.0,32995,54230933267195,38,33.72834777832031,-210.56770461115104,0.09839523653195437,1,-175830.81722261474,0.0017311876872554421,1.60481254E9,,,,0,,3,,1.60481254E9
Raw,1932777524,778825000000,,,-1311853870175485948,0.0,8.495123351376842,,,0,8,0.0,32961,54230926838886,88,26.583786010742188,-563.508123019951,0.21977426385944687,4,-668663.185014803,3.4028234663852886E38,1.60537498E9,,,,0,,3,,1.60537498E9
Raw,1932777524,778825000000,,,-1311853870175485948,0.0,8.495123351376842,,,0,193,0.0,35,9604758,10,38.97056198120117,-245.65196381976466,0.054232610581506746,1,-187522.81288093302,0.001022910582832992,1.57542003E9,,,,0,,4,,1.57542003E9
Raw,1932777524,778825000000,,,-1311853870175485948,0.0,8.495123351376842,,,0,194,0.0,35,13061452,20,33.166500091552734,-114.28319714121164,0.10477378990457015,1,-92744.73910628448,0.0019954496528953314,1.57542003E9,,,,0,,4,,1.57542003E9
Raw,1932777525,778825000000,,,-1311853870175485948,0.0,8.495123351376842,,,0,6,0.0,16431,43434879358387,15,29.602907180786133,-74.33499647977123,0.1578592545623454,1,-40069.009055326525,0.002861608983948827,1.56109798E9,,,,0,,5,,1.56109798E9
Raw,1932777525,778825000000,,,-1311853870175485948,0.0,8.495123351376842,,,0,14,0.0,16431,43434925740362,6,41.393455505371094,90.22852357961318,0.040756797523171434,1,49654.166883316284,8.232615073211491E-4,1.56109798E9,,,,0,,5,,1.56109798E9
Raw,1932777525,778825000000,,,-1311853870175485948,0.0,8.495123351376842,,,0,16,0.0,16431,43434878719048,14,30.247169494628906,-74.52518510778265,0.14670791746061285,1,-39647.247890499275,0.0026570346672087908,1.56109798E9,,,,0,,5,,1.56109798E9
Raw,1932777525,778825000000,,,-1311853870175485948,0.0,8.495123351376842,,,0,24,0.0,16431,43434925118443,6,42.388099670410156,-62.04006555189022,0.03634679308622013,1,-64857.71525157992,7.341851596720517E-4,1.56109798E9,,,,0,,5,,1.56109798E9
Raw,1932777526,778825000000,,,-1311853870175485948,0.0,8.495123351376842,,,0,25,0.0,16431,43434922135492,6,38.327457427978516,-638.2994495101061,0.05692408453277914,1,-165871.8343941176,0.001111626741476357,1.56109798E9,,,,0,,5,,1.56109798E9
Raw,1932777526,778825000000,,,-1311853870175485948,0.0,8.495123351376842,,,0,26,0.0,16431,43434917420784,14,30.368215560913086,388.67227837380347,0.1444906772604646,4,240250.34271108045,3.4028234663852886E38,1.56109798E9,,,,0,,5,,1.56109798E9
Raw,1932777527,778825000000,,,-1311853870175485948,0.0,8.495123351376842,,,0,27,0.0,16431,43434914413646,13,31.042844772338867,56.11830689596496,0.13338616193188974,4,10082.79975623544,3.4028234663852886E38,1.56109798E9,,,,0,,5,,1.56109798E9
Raw,1932777527,778825000000,,,-1311853870175485948,0.0,8.495123351376842,,,0,33,0.0,16431,43434926613784,7,36.180973052978516,-155.51497719775762,0.07357984653480465,1,-114520.17854169663,0.001423256704583764,1.56109798E9,,,,0,,5,,1.56109798E9
Fix,gps,34.486746,109.464236,362.160187,0.379335,3.000000,1627819432000
Raw,1932778453,779825000000,,,-1311853870175486335,0.0,9.429626811211707,,,0,10,0.0,16431,43449931482878,18,34.28773498535156,-412.4881106007042,0.0920860379628341,1,-342163.97685613035,0.0017537957755848765,1.57542003E9,,,,0,,1,,1.57542003E9
Raw,1932778453,779825000000,,,-1311853870175486335,0.0,9.429626811211707,,,0,12,0.0,16431,43449923194052,8,40.48381042480469,-542.7821040540387,0.044684621737812236,1,-441444.42280759267,8.593603852204978E-4,1.57542003E9,,,,0,,1,,1.57542003E9
Raw,1932778453,779825000000,,,-1311853870175486335,0.0,9.429626811211707,,,0,15,0.0,16431,43449918492884,12,37.39451599121094,415.9513994202696,0.0662774264369693,1,322575.0841928915,0.0012264219112694263,1.57542003E9,,,,0,,1,,1.57542003E9
Raw,1932778454,779825000000,,,-1311853870175486335,0.0,9.429626811211707,,,0,18,0.0,16431,43449923698749,6,43.850563049316406,545.8431858041783,0.030665315815347982,1,410230.15827980824,6.14775053691119E-4,1.57542003E9,,,,0,,1,,1.57542003E9
Raw,1932778454,779825000000,,,-1311853870175486335,0.0,9.429626811211707,,,0,23,0.0,16431,43449932538533,9,39.592750549316406,32.65510667532395,0.05113084908965165,4,-3260.788001661304,3.4028234663852886E38,1.57542003E9,,,,0,,1,,1.57542003E9
Raw,1932778454,779825000000,,,-1311853870175486335,0.0,9.429626811211707,,,0,24,0.0,16431,43449928270029,13,37.03645706176758,409.91120422792756,0.06708783336338106,1,295965.54841520684,0.0012780353426933289,1.57542003E9,,,,0,,1,,1.57542003E9
Raw,1932778454,779825000000,,,-1311853870175486335,0.0,9.429626811211707,,,0,25,0.0,16431,43449921862141,7,42.00008010864258,-727.9823896463163,0.03737950566441209,4,-569003.9085367122,3.4028234663852886E38,1.57542003E9,,,,0,,1,,1.57542003E9
Raw,1932778454,779825000000,,,-1311853870175486335,0.0,9.429626811211707,,,0,31,0.0,16,779016605934,1000000000,7.0,-847.6878840843397,2.99792458E8,2,-13.562229019256558,3.4028234663852886E38,1.57542003E9,,,,0,,1,,1.57542003E9
Raw,1932778454,779825000000,,,-1311853870175486335,0.0,9.429626811211707,,,0,32,0.0,16431,43449926858020,17,34.715187072753906,-424.00355018606615,0.08693127443656495,4,-338575.5950697521,3.4028234663852886E38,1.57542003E9,,,,0,,1,,1.57542003E9
Raw,1932778454,779825000000,,,-1311853870175486335,0.0,9.429626811211707,,,0,10,0.0,32995,54231929112883,33,42.02629089355469,-852.8355619877188,0.038572129533974986,1,-680347.6976531274,7.47708894778043E-4,1.59806246E9,,,,0,,3,,1.59806246E9
Raw,1932778455,779825000000,,,-1311853870175486335,0.0,9.429626811211707,,,0,9,0.0,32995,54231934157063,33,41.27497100830078,-244.25328796898157,0.04281634811551602,1,-238699.94213089338,7.72068917285651E-4,1.59862502E9,,,,0,,3,,1.59862502E9
Raw,1932778455,779825000000,,,-1311853870175486335,0.0,9.429626811211707,,,0,16,0.0,32995,54231927265808,66,29.064409255981445,448.84461678762955,0.16555791234045125,4,308251.6017117611,3.4028234663852886E38,1.60143744E9,,,,0,,3,,1.60143744E9
Raw,1932778455,779825000000,,,-1311853870175486335,0.0,9.429626811211707,,,0,23,0.0,32995,54231925309383,33,35.021812438964844,-135.2636842481374,0.08368020249552888,4,-151879.7530595552,3.4028234663852886E38,1.60368755E9,,,,0,,3,,1.60368755E9
Raw,1932778455,779825000000,,,-1311853870175486335,0.0,9.429626811211707,,,0,7,0.0,32995,54231933267869,33,35.68011474609375,-210.5401319038241,0.07907371219746884,4,-176041.5508713104,3.4028234663852886E38,1.60481254E9,,,,0,,3,,1.60481254E9
Raw,1932778455,779825000000,,,-1311853870175486335,0.0,9.429626811211707,,,0,8,0.0,32961,54231926840832,65,29.141565322875977,-563.964657525074,0.16402891143325093,4,-669227.1482593548,3.4028234663852886E38,1.60537498E9,,,,0,,3,,1.60537498E9
Raw,1932778456,779825000000,,,-1311853870175486335,0.0,9.429626811211707,,,0,193,0.0,35,9605591,8,40.49657440185547,-246.05577276464692,0.045773126032553374,1,-187768.54565040537,9.045150363817811E-4,1.57542003E9,,,,0,,4,,1.57542003E9
Raw,1932778456,779825000000,,,-1311853870175486335,0.0,9.429626811211707,,,0,194,0.0,35,13061821,23,32.13847351074219,-115.08536183793251,0.11764297933763429,4,-92859.38848301327,3.4028234663852886E38,1.57542003E9,,,,0,,4,,1.57542003E9
Raw,1932778456,779825000000,,,-1311853870175486335,0.0,9.429626811211707,,,0,6,0.0,16431,43435879358639,16,29.278348922729492,-74.68489549904854,0.16373691398102963,4,-40143.74118497555,3.4028234663852886E38,1.56109798E9,,,,0,,5,,1.56109798E9
Raw,1932778456,779825000000,,,-1311853870175486335,0.0,9.429626811211707,,,0,14,0.0,16431,43435925740055,6,40.229820251464844,90.08531761791846,0.04645148424221984,1,49744.25241127703,9.412816143594682E-4,1.56109798E9,,,,0,,5,,1.56109798E9
Raw,1932778457,779825000000,,,-1311853870175486335,0.0,9.429626811211707,,,0,16,0.0,16431,43435878719293,15,29.53057098388672,-74.45494116488914,0.15903531565610052,4,-39722.06440646556,3.4028234663852886E38,1.56109798E9,,,,0,,5,,1.56109798E9
Raw,1932778457,779825000000,,,-1311853870175486335,0.0,9.429626811211707,,,0,24,0.0,16431,43435925118637,6,43.97467041015625,-62.221895457439416,0.030920722056007016,1,-64919.7471439219,6.11613504588604E-4,1.56109798E9,,,,0,,5,,1.56109798E9
Raw,1932778457,779825000000,,,-1311853870175486335,0.0,9.429626811211707,,,0,25,0.0,16431,43435922137613,6,40.38745880126953,-638.6502943175519,0.044986637568366905,1,-166510.33849375005,9.243526728823781E-4,1.56109798E9,,,,0,,5,,1.56109798E9
Raw,1932778457,779825000000,,,-1311853870175486335,0.0,9.429626811211707,,,0,26,0.0,16431,43435917419523,10,33.01248550415039,389.1670533951451,0.10739007609286888,4,240639.3869034529,3.4028234663852886E38,1.56109798E9,,,,0,,5,,1.56109798E9
Raw,1932778457,779825000000,,,-1311853870175486335,0.0,9.429626811211707,,,0,27,0.0,16431,43435914413441,13,31.021678924560547,56.1998108304322,0.13370524395344252,4,10138.763385951213,3.4028234663852886E38,1.56109798E9,,,,0,,5,,1.56109798E9
Raw,1932778457,779825000000,,,-1311853870175486335,0.0,9.429626811211707,,,0,33,0.0,16431,43435926614316,7,35.64239501953125,-155.52373638908398,0.07821065885933348,4,-114675.72547976185,3.4028234663852886E38,1.56109798E9,,,,0,,5,,1.56109798E9
Raw,1932779458,780825000000,,,-1311853870175486718,0.0,10.00688388728453,,,0,10,0.0,16431,43450931484278,17,34.71041488647461,-412.46023115126854,0.0878105119490013,4,-342576.39061030064,3.4028234663852886E38,1.57542003E9,,,,0,,1,,1.57542003E9
Raw,1932779458,780825000000,,,-1311853870175486718,0.0,10.00688388728453,,,0,12,0.0,16431,43450923195875,15,35.83763885498047,-542.6368446243384,0.07588379064046258,1,-441986.7852672408,0.0014671813696622849,1.57542003E9,,,,0,,1,,1.57542003E9
Raw,1932779459,780825000000,,,-1311853870175486718,0.0,10.00688388728453,,,0,15,0.0,16431,43450918491517,12,37.371124267578125,415.9470709482912,0.06644694422151787,1,322991.1865962776,0.0012297291541472077,1.57542003E9,,,,0,,1,,1.57542003E9
Raw,1932779459,780825000000,,,-1311853870175486718,0.0,10.00688388728453,,,0,18,0.0,16431,43450923696920,6,43.804779052734375,545.8259059987213,0.030759641676466776,1,410776.0935245537,6.180242635309696E-4,1.57542003E9,,,,0,,1,,1.57542003E9
Raw,1932779459,780825000000,,,-1311853870175486718,0.0,10.00688388728453,,,0,23,0.0,16431,43450932538412,9,39.49571228027344,32.978466111737646,0.05167992112543551,4,-3227.939114334103,3.4028234663852886E38,1.57542003E9,,,,0,,1,,1.57542003E9
Raw,1932779459,780825000000,,,-1311853870175486718,0.0,10.00688388728453,,,0,24,0.0,16431,43450928268658,12,37.58488464355469,410.32176149920133,0.06307363807972005,1,296375.75160186755,0.001199834980070591,1.57542003E9,,,,0,,1,,1.57542003E9
Raw,1932779459,780825000000,,,-1311853870175486718,0.0,10.00688388728453,,,0,25,0.0,16431,43450921864551,10,38.9166259765625,-727.9173603192708,0.05316739652011701,4,-569731.754512168,3.4028234663852886E38,1.57542003E9,,,,0,,1,,1.57542003E9
Raw,1932779459,780825000000,,,-1311853870175486718,0.0,10.00688388728453,,,0,31,0.0,16,780016608822,1000000000,7.0,-847.6878840843397,2.99792458E8,2,-13.55559998415331,3.4028234663852886E38,1.57542003E9,,,,0,,1,,1.57542003E9
Raw,1932779459,780825000000,,,-1311853870175486718,0.0,10.00688388728453,,,0,32,0.0,16431,43450926859454,21,32.95414352416992,-423.68726498953447,0.10619324600217017,4,-338999.3150400412,3.4028234663852886E38,1.57542003E9,,,,0,,1,,1.57542003E9
Raw,1932779459,780825000000,,,-1311853870175486718,0.0,10.00688388728453,,,0,10,0.0,32995,54232929115714,33,41.999568939208984,-852.601142851755,0.03868643390537485,1,-681200.3130525954,7.500127539969981E-4,1.59806246E9,,,,0,,3,,1.59806246E9
Raw,1932779460,780825000000,,,-1311853870175486718,0.0,10.00688388728453,,,0,9,0.0,32995,54232934157866,33,41.18141174316406,-243.6699496843654,0.043252588581365964,1,-238943.84932328374,8.226456702686846E-4,1.59862502E9,,,,0,,3,,1.59862502E9
Raw,1932779460,780825000000,,,-1311853870175486718,0.0,10.00688388728453,,,0,16,0.0,32995,54232927264330,61,29.734106063842773,448.7889260536713,0.15336952330479514,4,308700.4234824096,3.4028234663852886E38,1.60143744E9,,,,0,,3,,1.60143744E9
Raw,1932779460,780825000000,,,-1311853870175486718,0.0,10.00688388728453,,,0,23,0.0,32995,54232925309758,40,33.46348571777344,-135.2060422935432,0.09993660231473889,4,-152015.21392329122,3.4028234663852886E38,1.60368755E9,,,,0,,3,,1.60368755E9
Raw,1932779460,780825000000,,,-1311853870175486718,0.0,10.00688388728453,,,0,7,0.0,32995,54232933268605,33,34.940284729003906,-210.86652254871478,0.08589200913998635,4,-176252.15213726714,3.4028234663852886E38,1.60481254E9,,,,0,,3,,1.60481254E9
Raw,1932779460,780825000000,,,-1311853870175486718,0.0,10.00688388728453,,,0,8,0.0,32961,54232926842651,75,27.939334869384766,-564.3035393902803,0.18819641856180225,4,-669791.017404903,3.4028234663852886E38,1.60537498E9,,,,0,,3,,1.60537498E9
Raw,1932779460,780825000000,,,-1311853870175486718,0.0,10.00688388728453,,,0,193,0.0,35,9606411,9,39.646793365478516,-245.4718891607264,0.05030026395106513,1,-188014.17482864202,9.974815184250474E-4,1.57542003E9,,,,0,,4,,1.57542003E9
Raw,1932779460,780825000000,,,-1311853870175486718,0.0,10.00688388728453,,,0,194,0.0,35,13062237,28,30.3953914642334,-115.07980639751929,0.14326509009707478,4,-92974.16255765683,3.4028234663852886E38,1.57542003E9,,,,0,,4,,1.57542003E9
Raw,1932779460,780825000000,,,-1311853870175486718,0.0,10.00688388728453,,,0,6,0.0,16431,43436879358874,17,28.84180450439453,-74.5740167473657,0.17199703363324026,4,-40218.383043709706,3.4028234663852886E38,1.56109798E9,,,,0,,5,,1.56109798E9
Raw,1932779461,780825000000,,,-1311853870175486718,0.0,10.00688388728453,,,0,14,0.0,16431,43436925739758,6,40.39653015136719,90.16701326620364,0.045587994056192044,1,49834.43624904353,9.233879391103983E-4,1.56109798E9,,,,0,,5,,1.56109798E9
Raw,1932779461,780825000000,,,-1311853870175486718,0.0,10.00688388728453,,,0,16,0.0,16431,43436878719529,15,29.41105842590332,-74.6976252965598,0.16119207946611014,4,-39796.731610207724,3.4028234663852886E38,1.56109798E9,,,,0,,5,,1.56109798E9
Raw,1932779461,780825000000,,,-1311853870175486718,0.0,10.00688388728453,,,0,24,0.0,16431,43436925118851,6,41.756568908691406,-61.717462319980626,0.039018563117315275,1,-64981.600857134916,7.895546732470393E-4,1.56109798E9,,,,0,,5,,1.56109798E9
Raw,1932779461,780825000000,,,-1311853870175486718,0.0,10.00688388728453,,,0,25,0.0,16431,43436922139743,6,39.85193634033203,-638.4857442174598,0.04782346537505158,1,-167148.74292677888,9.83136473223567E-4,1.56109798E9,,,,0,,5,,1.56109798E9
Raw,1932779461,780825000000,,,-1311853870175486718,0.0,10.00688388728453,,,0,26,0.0,16431,43436917418231,8,34.94112014770508,388.9394507504858,0.08663042353372347,4,241028.48728818842,3.4028234663852886E38,1.56109798E9,,,,0,,5,,1.56109798E9
Raw,1932779461,780825000000,,,-1311853870175486718,0.0,10.00688388728453,,,0,27,0.0,16431,43436914413257,15,29.76122283935547,56.289762953810026,0.15418144463723404,4,10194.768408087539,3.4028234663852886E38,1.56109798E9,,,,0,,5,,1.56109798E9
Raw,1932779462,780825000000,,,-1311853870175486718,0.0,10.00688388728453,,,0,33,0.0,16431,43436926614839,6,36.724151611328125,-155.46489302789735,0.0691917052947561,4,-114831.18364197429,3.4028234663852886E38,1.56109798E9,,,,0,,5,,1.56109798E9
Fix,gps,34.486743,109.464237,362.077545,0.625788,3.000000,1627819433000
Fix,gps,34.486737,109.464241,361.997864,0.840067,3.000000,1627819434000
Raw,1932780523,781825000000,,,-1311853870175487102,0.0,8.839999173775649,,,0,10,0.0,16431,43451931485599,12,37.366241455078125,-412.53269045383604,0.06522223075391292,4,-342988.8630418037,3.4028234663852886E38,1.57542003E9,,,,0,,1,,1.57542003E9
Raw,1932780524,781825000000,,,-1311853870175487102,0.0,8.839999173775649,,,0,12,0.0,16431,43451923197647,11,38.05754089355469,-542.3274781664809,0.05889972288566955,4,-442529.2178828855,3.4028234663852886E38,1.57542003E9,,,,0,,1,,1.57542003E9
Raw,1932780524,781825000000,,,-1311853870175487102,0.0,8.839999173775649,,,0,15,0.0,16431,43451918490100,9,39.4927864074707,416.01513361396724,0.05276711487649932,4,323407.16760414164,3.4028234663852886E38,1.57542003E9,,,,0,,1,,1.57542003E9
Raw,1932780524,781825000000,,,-1311853870175487102,0.0,8.839999173775649,,,0,18,0.0,16431,43451923695106,6,44.27696990966797,545.9654395757257,0.030664660543509317,4,411322.0639015237,3.4028234663852886E38,1.57542003E9,,,,0,,1,,1.57542003E9
Raw,1932780525,781825000000,,,-1311853870175487102,0.0,8.839999173775649,,,0,23,0.0,16431,43451932538327,15,35.46221923828125,33.030667654209395,0.08089061666806985,4,-3195.0676611712574,3.4028234663852886E38,1.57542003E9,,,,0,,1,,1.57542003E9
Raw,1932780525,781825000000,,,-1311853870175487102,0.0,8.839999173775649,,,0,24,0.0,16431,43451928267292,8,40.645320892333984,410.1458619410871,0.044784535091498184,4,296785.86162841925,3.4028234663852886E38,1.57542003E9,,,,0,,1,,1.57542003E9
Raw,1932780525,781825000000,,,-1311853870175487102,0.0,8.839999173775649,,,0,25,0.0,16431,43451921866993,12,37.70782470703125,-727.8307908797028,0.0610565823861699,4,-570459.6587402638,3.4028234663852886E38,1.57542003E9,,,,0,,1,,1.57542003E9
Raw,1932780526,781825000000,,,-1311853870175487102,0.0,8.839999173775649,,,0,31,0.0,16,781016611650,1000000000,7.0,-847.6878840843397,2.99792458E8,2,-13.548970949044337,3.4028234663852886E38,1.57542003E9,,,,0,,1,,1.57542003E9
Raw,1932780526,781825000000,,,-1311853870175487102,0.0,8.839999173775649,,,0,32,0.0,16431,43451926860839,19,33.529666900634766,-423.3895206493512,0.09946429901525372,4,-339422.7902997901,3.4028234663852886E38,1.57542003E9,,,,0,,1,,1.57542003E9
Raw,1932780526,781825000000,,,-1311853870175487102,0.0,8.839999173775649,,,0,10,0.0,32995,54233929118571,33,39.44945526123047,-852.593781041146,0.05132866629671831,4,-682052.9521759577,3.4028234663852886E38,1.59806246E9,,,,0,,3,,1.59806246E9
Raw,1932780527,781825000000,,,-1311853870175487102,0.0,8.839999173775649,,,0,9,0.0,32995,54233934158700,33,39.40031814575195,-243.95709438057008,0.05251716715426777,4,-239187.8484190309,3.4028234663852886E38,1.59862502E9,,,,0,,3,,1.59862502E9
Raw,1932780527,781825000000,,,-1311853870175487102,0.0,8.839999173775649,,,0,16,0.0,32995,54233927262803,43,32.67967987060547,448.95068139232853,0.10963531616269467,4,309149.4091070293,3.4028234663852886E38,1.60143744E9,,,,0,,3,,1.60143744E9
Raw,1932780527,781825000000,,,-1311853870175487102,0.0,8.839999173775649,,,0,23,0.0,32995,54233925310362,53,30.963947296142578,-135.57230089195144,0.13294214973401042,4,-152150.83593658,3.4028234663852886E38,1.60368755E9,,,,0,,3,,1.60368755E9
Raw,1932780528,781825000000,,,-1311853870175487102,0.0,8.839999173775649,,,0,7,0.0,32995,54233933269325,36,34.22324752807617,-210.92154867477086,0.09307822353797568,4,-176463.04937724513,3.4028234663852886E38,1.60481254E9,,,,0,,3,,1.60481254E9
Raw,1932780528,781825000000,,,-1311853870175487102,0.0,8.839999173775649,,,0,8,0.0,32961,54233926844502,90,26.38895034790039,-564.1731058291675,0.22473289516337736,4,-670354.9395751869,3.4028234663852886E38,1.60537498E9,,,,0,,3,,1.60537498E9
Raw,1932780528,781825000000,,,-1311853870175487102,0.0,8.839999173775649,,,0,193,0.0,35,9607218,12,37.461666107177734,-246.05059223125545,0.06419428605843278,4,-188260.15631698587,3.4028234663852886E38,1.57542003E9,,,,0,,4,,1.57542003E9
Raw,1932780529,781825000000,,,-1311853870175487102,0.0,8.839999173775649,,,0,194,0.0,35,13062570,22,32.43977355957031,-115.01988943895219,0.11371229688964007,4,-93089.08684302896,3.4028234663852886E38,1.57542003E9,,,,0,,4,,1.57542003E9
Raw,1932780529,781825000000,,,-1311853870175487102,0.0,8.839999173775649,,,0,6,0.0,16431,43437879359125,15,29.665878295898438,-74.77521400883398,0.15674421903893654,4,-40293.08600368673,3.4028234663852886E38,1.56109798E9,,,,0,,5,,1.56109798E9
Raw,1932780532,781825000000,,,-1311853870175487102,0.0,8.839999173775649,,,0,14,0.0,16431,43437925739461,7,36.56427001953125,90.21383404085185,0.07029756285196753,4,49924.55689850772,3.4028234663852886E38,1.56109798E9,,,,0,,5,,1.56109798E9
Raw,1932780533,781825000000,,,-1311853870175487102,0.0,8.839999173775649,,,0,16,0.0,16431,43437878719774,13,30.727306365966797,-74.81743365185162,0.13899951589427745,4,-39871.521900137326,3.4028234663852886E38,1.56109798E9,,,,0,,5,,1.56109798E9
Raw,1932780533,781825000000,,,-1311853870175487102,0.0,8.839999173775649,,,0,24,0.0,16431,43437925119048,6,39.736671447753906,-62.00320111485374,0.048993086082735254,4,-65043.601067571246,3.4028234663852886E38,1.56109798E9,,,,0,,5,,1.56109798E9
Raw,1932780533,781825000000,,,-1311853870175487102,0.0,8.839999173775649,,,0,25,0.0,16431,43437922141884,6,39.659507751464844,-638.5224169406783,0.04888653680154029,4,-167787.2215270698,3.4028234663852886E38,1.56109798E9,,,,0,,5,,1.56109798E9
Raw,1932780534,781825000000,,,-1311853870175487102,0.0,8.839999173775649,,,0,26,0.0,16431,43437917416936,9,33.77345275878906,389.1132371962956,0.09864439792797952,4,241417.55789501974,3.4028234663852886E38,1.56109798E9,,,,0,,5,,1.56109798E9
Raw,1932780534,781825000000,,,-1311853870175487102,0.0,8.839999173775649,,,0,27,0.0,16431,43437914413058,14,30.489837646484375,56.18573477588828,0.1419841023000109,4,10250.884650786462,3.4028234663852886E38,1.56109798E9,,,,0,,5,,1.56109798E9
Raw,1932780534,781825000000,,,-1311853870175487102,0.0,8.839999173775649,,,0,33,0.0,16431,43437926615344,7,36.238487243652344,-155.50446275992033,0.07310239259064477,4,-114986.67601921508,3.4028234663852886E38,1.56109798E9,,,,0,,5,,1.56109798E9
Fix,gps,34.486732,109.464244,362.005676,0.991860,3.000000,1627819435000
Raw,1932781505,782825000000,,,-1311853870175487489,0.0,9.761695464199159,,,0,10,0.0,16431,43452931486984,19,33.817359924316406,-412.4054606436364,0.09709613410895052,4,-343401.2459637355,3.4028234663852886E38,1.57542003E9,,,,0,,1,,1.57542003E9
Raw,1932781505,782825000000,,,-1311853870175487489,0.0,9.761695464199159,,,0,12,0.0,16431,43452923199485,6,42.999267578125,-542.3945183584613,0.03359458479652977,4,-443071.6401567316,3.4028234663852886E38,1.57542003E9,,,,0,,1,,1.57542003E9
Raw,1932781505,782825000000,,,-1311853870175487489,0.0,9.761695464199159,,,0,15,0.0,16431,43452918488743,15,35.616851806640625,415.96554363972655,0.08057342349359486,4,323823.11414892913,3.4028234663852886E38,1.57542003E9,,,,0,,1,,1.57542003E9
Raw,1932781505,782825000000,,,-1311853870175487489,0.0,9.761695464199159,,,0,18,0.0,16431,43452923693303,8,41.335838317871094,545.847855100722,0.04065296918027797,4,411867.94347941777,3.4028234663852886E38,1.57542003E9,,,,0,,1,,1.57542003E9
Raw,1932781506,782825000000,,,-1311853870175487489,0.0,9.761695464199159,,,0,23,0.0,16431,43452932538192,10,39.130531311035156,33.00381919908355,0.05380211570555646,4,-3162.0846013961977,3.4028234663852886E38,1.57542003E9,,,,0,,1,,1.57542003E9
Raw,1932781506,782825000000,,,-1311853870175487489,0.0,9.761695464199159,,,0,24,0.0,16431,43452928265942,13,36.66738510131836,410.3245221781797,0.06993457137654002,4,297196.20350697497,3.4028234663852886E38,1.57542003E9,,,,0,,1,,1.57542003E9
Raw,1932781506,782825000000,,,-1311853870175487489,0.0,9.761695464199159,,,0,25,0.0,16431,43452921869406,11,38.52080154418945,-727.7372686190042,0.055631568111810886,4,-571187.581069922,3.4028234663852886E38,1.57542003E9,,,,0,,1,,1.57542003E9
Raw,1932781507,782825000000,,,-1311853870175487489,0.0,9.761695464199159,,,0,31,0.0,16,782016614416,1000000000,7.0,-847.6878840843397,2.99792458E8,2,-13.54234191394719,3.4028234663852886E38,1.57542003E9,,,,0,,1,,1.57542003E9
Raw,1932781507,782825000000,,,-1311853870175487489,0.0,9.761695464199159,,,0,32,0.0,16431,43452926862197,32,29.32624626159668,-423.7009320546001,0.16060781829247595,4,-339846.4328098125,3.4028234663852886E38,1.57542003E9,,,,0,,1,,1.57542003E9
Raw,1932781507,782825000000,,,-1311853870175487489,0.0,9.761695464199159,,,0,10,0.0,32995,54234929121393,33,37.826255798339844,-852.6218649853208,0.061539170333180016,4,-682904.9985639646,3.4028234663852886E38,1.59806246E9,,,,0,,3,,1.59806246E9
Raw,1932781507,782825000000,,,-1311853870175487489,0.0,9.761695464199159,,,0,9,0.0,32995,54234934159447,33,35.68626022338867,-243.98214498611435,0.07917986207487643,4,-239431.6160523784,3.4028234663852886E38,1.59862502E9,,,,0,,3,,1.59862502E9
Raw,1932781507,782825000000,,,-1311853870175487489,0.0,9.761695464199159,,,0,16,0.0,32995,54234927261310,47,32.0221061706543,449.1165947906816,0.11815462391017606,4,309598.55412315927,3.4028234663852886E38,1.60143744E9,,,,0,,3,,1.60143744E9
Raw,1932781508,782825000000,,,-1311853870175487489,0.0,9.761695464199159,,,0,23,0.0,32995,54234925310756,33,35.0867919921875,-135.07696351007718,0.08306391413069442,4,-152285.74553975588,3.4028234663852886E38,1.60368755E9,,,,0,,3,,1.60368755E9
Raw,1932781508,782825000000,,,-1311853870175487489,0.0,9.761695464199159,,,0,7,0.0,32995,54234933269987,37,34.0299072265625,-210.91379491591192,0.09511969278802923,4,-176673.87145963585,3.4028234663852886E38,1.60481254E9,,,,0,,3,,1.60481254E9
Raw,1932781508,782825000000,,,-1311853870175487489,0.0,9.761695464199159,,,0,8,0.0,32961,54234926846415,88,26.549762725830078,-563.9649301847262,0.22063334812244517,4,-670918.834126783,3.4028234663852886E38,1.60537498E9,,,,0,,3,,1.60537498E9
Raw,1932781508,782825000000,,,-1311853870175487489,0.0,9.761695464199159,,,0,193,0.0,35,9608054,11,38.412498474121094,-245.80530079166078,0.05771734621952654,4,-188505.97245083665,3.4028234663852886E38,1.57542003E9,,,,0,,4,,1.57542003E9
Raw,1932781508,782825000000,,,-1311853870175487489,0.0,9.761695464199159,,,0,194,0.0,35,13062978,8,41.06026077270508,-114.96724908485271,0.043627395752170034,4,-93203.98424349591,3.4028234663852886E38,1.57542003E9,,,,0,,4,,1.57542003E9
