# 
# Header Description:
# 
# Version: v2.0.0.1 Platform: 10 Manufacturer: HUAWEI Model: BLA-AL00
# 
# Raw,ElapsedRealtimeMillis,TimeNanos,LeapSecond,TimeUncertaintyNanos,FullBiasNanos,BiasNanos,BiasUncertaintyNanos,DriftNanosPerSecond,DriftUncertaintyNanosPerSecond,HardwareClockDiscontinuityCount,Svid,TimeOffsetNanos,State,ReceivedSvTimeNanos,ReceivedSvTimeUncertaintyNanos,Cn0DbHz,PseudorangeRateMetersPerSecond,PseudorangeRateUncertaintyMetersPerSecond,AccumulatedDeltaRangeState,AccumulatedDeltaRangeMeters,AccumulatedDeltaRangeUncertaintyMeters,CarrierFrequencyHz,CarrierCycles,CarrierPhase,CarrierPhaseUncertainty,MultipathIndicator,SnrInDb,ConstellationType,AgcDb,CarrierFrequencyHz
# 
# Fix,Provider,Latitude,Longitude,Altitude,Speed,Accuracy,(UTC)TimeInMs
# 
# Nav,Svid,Type,Status,MessageId,Sub-messageId,Data(Bytes)
# 
Fix,gps,34.486409,109.463890,360.134064,1.121937,3.000000,1627820150999
Raw,1933497539,1498824000000,,,-1311853870175765282,0.0,13.36936947435548,,,0,10,0.0,16431,44168931407253,8,41.01709747314453,-356.0939147398012,0.04353520836549615,1,-619331.8712552388,8.081850246526301E-4,1.57542003E9,,,,0,,1,,1.57542003E9
Raw,1933497540,1498824000000,,,-1311853870175765282,0.0,13.36936947435548,,,0,12,0.0,16431,44168923430203,22,32.35331726074219,-486.4861338328344,0.11309369531120372,4,-762157.9594143148,3.4028234663852886E38,1.57542003E9,,,,0,,1,,1.57542003E9
Raw,1933497540,1498824000000,,,-1311853870175765282,0.0,13.36936947435548,,,0,15,0.0,16431,44168916496568,23,32.23995590209961,414.85060423949585,0.11692159785124634,4,721021.9044506282,3.4028234663852886E38,1.57542003E9,,,,0,,1,,1.57542003E9
Raw,1933497540,1498824000000,,,-1311853870175765282,0.0,13.36936947435548,,,0,18,0.0,16431,44168921367819,18,34.10488510131836,562.7123658250564,0.092181736774472,1,809230.5610117898,0.0017911066533997655,1.57542003E9,,,,0,,1,,1.57542003E9
Raw,1933497541,1498824000000,,,-1311853870175765282,0.0,13.36936947435548,,,0,23,0.0,16431,44168931377986,12,37.70602035522461,101.9427150101879,0.06277998476596358,1,44849.548091816265,0.0011832178570330143,1.57542003E9,,,,0,,1,,1.57542003E9
Raw,1933497541,1498824000000,,,-1311853870175765282,0.0,13.36936947435548,,,0,24,0.0,16431,44168926232908,64,22.024620056152344,454.30401283836636,4.201121281984289,4,553669.1663562212,3.4028234663852886E38,1.57542003E9,,,,0,,1,,1.57542003E9
Raw,1933497541,1498824000000,,,-1311853870175765282,0.0,13.36936947435548,,,0,25,0.0,16431,44168922588168,7,41.76988220214844,-709.4535303226035,0.03850500057450287,4,-838868.1202723369,3.4028234663852886E38,1.57542003E9,,,,0,,1,,1.57542003E9
Raw,1933497542,1498824000000,,,-1311853870175765282,0.0,13.36936947435548,,,0,31,0.0,16,1498017624339,1000000000,28.545764923095703,-833.5782242382875,2.99792458E8,2,-14.15213884045808,3.4028234663852886E38,1.57542003E9,,,,0,,1,,1.57542003E9
Raw,1933497542,1498824000000,,,-1311853870175765282,0.0,13.36936947435548,,,0,32,0.0,16431,44168926849846,15,35.878387451171875,-402.5216164169344,0.07618857733479217,4,-635912.6846348236,3.4028234663852886E38,1.57542003E9,,,,0,,1,,1.57542003E9
Raw,1933497542,1498824000000,,,-1311853870175765282,0.0,13.36936947435548,,,0,10,0.0,32995,54950930086658,45,32.364749908447266,-790.8229413339436,0.11414310379979925,4,-1272088.5168674586,3.4028234663852886E38,1.59806246E9,,,,0,,3,,1.59806246E9
Raw,1933497542,1498824000000,,,-1311853870175765282,0.0,13.36936947435548,,,0,9,0.0,32995,54950933600313,33,40.65128707885742,-124.70854343714802,0.04571408499977564,1,-371666.0016491823,8.29545606393367E-4,1.59862502E9,,,,0,,3,,1.59862502E9
Raw,1933497543,1498824000000,,,-1311853870175765282,0.0,13.36936947435548,,,0,16,0.0,16,5097650,1000000000,7.0,523.8354619782692,2.99792458E8,6,524709.720694002,3.4028234663852886E38,1.60143744E9,,,,0,,3,,1.60143744E9
Raw,1933497543,1498824000000,,,-1311853870175765282,0.0,13.36936947435548,,,0,23,0.0,32961,54950924501428,48,31.87808609008789,-24.285560903005177,0.119611782061122,4,-6419.81205982736,3.4028234663852886E38,1.60368755E9,,,,0,,3,,1.60368755E9
Raw,1933497543,1498824000000,,,-1311853870175765282,0.0,13.36936947435548,,,0,7,0.0,32995,54950932737079,33,41.575416564941406,-178.8335293427623,0.04119181065446642,4,-316786.4968768115,3.4028234663852886E38,1.60481254E9,,,,0,,3,,1.60481254E9
Raw,1933497543,1498824000000,,,-1311853870175765282,0.0,13.36936947435548,,,0,8,0.0,32961,54950927192366,33,35.01130676269531,-562.025876985774,0.08411904740690901,4,-540609.2679556599,3.4028234663852886E38,1.60537498E9,,,,0,,3,,1.60537498E9
Raw,1933497544,1498824000000,,,-1311853870175765282,0.0,13.36936947435548,,,0,193,0.0,35,9205324,13,36.863372802734375,-253.56519449277425,0.06857639047665337,4,-367547.2933724866,3.4028234663852886E38,1.57542003E9,,,,0,,4,,1.57542003E9
Raw,1933497550,1498824000000,,,-1311853870175765282,0.0,13.36936947435548,,,0,194,0.0,35,12325980,17,34.7940673828125,-105.3028277132446,0.08714009605006506,1,-49130.34245991473,0.0016544829122722149,1.57542003E9,,,,0,,4,,1.57542003E9
Raw,1933497550,1498824000000,,,-1311853870175765282,0.0,13.36936947435548,,,0,6,0.0,16431,44154878542734,8,34.86699676513672,-78.16025802883712,0.08754829504167627,4,-95321.22900316205,3.4028234663852886E38,1.56109798E9,,,,0,,5,,1.56109798E9
Raw,1933497551,1498824000000,,,-1311853870175765282,0.0,13.36936947435548,,,0,14,0.0,16431,44154924484935,13,31.168062210083008,123.59305871761296,0.12972822234520037,4,126205.55886210584,3.4028234663852886E38,1.56109798E9,,,,0,,5,,1.56109798E9
Raw,1933497551,1498824000000,,,-1311853870175765282,0.0,13.36936947435548,,,0,16,0.0,16431,44154877901802,11,32.0109748840332,-76.78337790900036,0.120218434809586,4,-94436.32227386074,3.4028234663852886E38,1.56109798E9,,,,0,,5,,1.56109798E9
Raw,1933497551,1498824000000,,,-1311853870175765282,0.0,13.36936947435548,,,0,24,0.0,16431,44154924178795,7,35.989013671875,12.053252228677763,0.07475950226264616,1,-82998.86848379679,0.0014550612540915608,1.56109798E9,,,,0,,5,,1.56109798E9
Raw,1933497551,1498824000000,,,-1311853870175765282,0.0,13.36936947435548,,,0,25,0.0,16431,44154922614331,8,34.81977462768555,-591.6886909589889,0.08514222005922123,1,-609226.5954566116,0.0016647273441776633,1.56109798E9,,,,0,,5,,1.56109798E9
Raw,1933497552,1498824000000,,,-1311853870175765282,0.0,13.36936947435548,,,0,26,0.0,16431,44154915443997,166,20.196510314941406,424.23425433426905,4.202778008894327,4,533054.3590904518,3.4028234663852886E38,1.56109798E9,,,,1,,5,,1.56109798E9
Raw,1933497552,1498824000000,,,-1311853870175765282,0.0,13.36936947435548,,,0,27,0.0,16431,44154913212582,11,32.36130905151367,111.41605308930087,0.11474989800377128,4,70250.76968808912,3.4028234663852886E38,1.56109798E9,,,,0,,5,,1.56109798E9
Raw,1933497552,1498824000000,,,-1311853870175765282,0.0,13.36936947435548,,,0,33,0.0,16431,44154925948322,6,37.021583557128906,-121.55122135040205,0.06678264726526409,4,-214815.5610859304,3.4028234663852886E38,1.56109798E9,,,,0,,5,,1.56109798E9
Fix,gps,34.486408,109.463889,360.218903,0.907498,3.000000,1627820151999
Raw,1933498515,1499824000000,,,-1311853870175765671,0.0,13.556635358336468,,,0,10,0.0,16431,44169931408413,6,42.89382553100586,-356.22649549567495,0.03547445361002827,1,-619688.074035812,6.863620365038514E-4,1.57542003E9,,,,0,,1,,1.57542003E9
Raw,1933498515,1499824000000,,,-1311853870175765671,0.0,13.556635358336468,,,0,12,0.0,16431,44169923431841,24,31.723037719726562,-485.9452111653609,0.12155910851012597,4,-762644.0751942504,3.4028234663852886E38,1.57542003E9,,,,0,,1,,1.57542003E9
Raw,1933498516,1499824000000,,,-1311853870175765671,0.0,13.556635358336468,,,0,15,0.0,16431,44169916495155,24,31.608055114746094,415.33546126598935,0.12552055337066043,4,721437.3133398346,3.4028234663852886E38,1.57542003E9,,,,0,,1,,1.57542003E9
Raw,1933498516,1499824000000,,,-1311853870175765671,0.0,13.556635358336468,,,0,18,0.0,16431,44169921365896,25,31.365976333618164,562.2259069231063,0.12626282866767552,4,809792.6361120818,3.4028234663852886E38,1.57542003E9,,,,0,,1,,1.57542003E9
Raw,1933498516,1499824000000,,,-1311853870175765671,0.0,13.556635358336468,,,0,23,0.0,16431,44169931377626,12,37.35930633544922,101.95919387791668,0.06525325527518863,1,44951.52319948484,0.0012314035557210445,1.57542003E9,,,,0,,1,,1.57542003E9
Raw,1933498517,1499824000000,,,-1311853870175765671,0.0,13.556635358336468,,,0,24,0.0,16431,44169926231455,44,26.523334503173828,454.2735772046915,0.2211913152134104,4,554123.2980608703,3.4028234663852886E38,1.57542003E9,,,,0,,1,,1.57542003E9
Raw,1933498517,1499824000000,,,-1311853870175765671,0.0,13.556635358336468,,,0,25,0.0,16431,44169922590560,9,40.25581359863281,-709.3926590552537,0.04574923253306479,4,-839577.5630526135,3.4028234663852886E38,1.57542003E9,,,,0,,1,,1.57542003E9
Raw,1933498518,1499824000000,,,-1311853870175765671,0.0,13.556635358336468,,,0,31,0.0,16,1499017627149,1000000000,25.748746871948242,-833.5782242382875,2.99792458E8,2,-14.145620144879018,3.4028234663852886E38,1.57542003E9,,,,0,,1,,1.57542003E9
Raw,1933498518,1499824000000,,,-1311853870175765671,0.0,13.556635358336468,,,0,32,0.0,16431,44169926851188,12,37.88491439819336,-402.3326973604285,0.060727656725440726,4,-636314.9178711666,3.4028234663852886E38,1.57542003E9,,,,0,,1,,1.57542003E9
Raw,1933498518,1499824000000,,,-1311853870175765671,0.0,13.556635358336468,,,0,10,0.0,32995,54951930089296,36,34.39163589477539,-790.6438039424597,0.0907649600106123,4,-1272879.2265718458,3.4028234663852886E38,1.59806246E9,,,,0,,3,,1.59806246E9
Raw,1933498518,1499824000000,,,-1311853870175765671,0.0,13.556635358336468,,,0,9,0.0,32995,54951933600713,33,42.286224365234375,-124.57824620586132,0.03829049577794488,1,-371790.6491226468,7.24389567039907E-4,1.59862502E9,,,,0,,3,,1.59862502E9
Raw,1933498518,1499824000000,,,-1311853870175765671,0.0,13.556635358336468,,,0,16,0.0,16,5095920,1000000000,12.342044830322266,523.7442232421577,2.99792458E8,4,524709.5493398146,3.4028234663852886E38,1.60143744E9,,,,0,,3,,1.60143744E9
Raw,1933498518,1499824000000,,,-1311853870175765671,0.0,13.556635358336468,,,0,23,0.0,32961,54951924501469,37,34.00859832763672,-22.948212172427816,0.09377018227869355,4,-6443.4141066261745,3.4028234663852886E38,1.60368755E9,,,,0,,3,,1.60368755E9
Raw,1933498518,1499824000000,,,-1311853870175765671,0.0,13.556635358336468,,,0,7,0.0,32995,54951932737714,33,41.00061798095703,-178.7347924662157,0.04385331684031721,4,-316965.2905172161,3.4028234663852886E38,1.60481254E9,,,,0,,3,,1.60481254E9
Raw,1933498519,1499824000000,,,-1311853870175765671,0.0,13.556635358336468,,,0,8,0.0,32961,54951927194262,33,35.07439422607422,-562.2398125653676,0.08351999997222964,4,-541171.4992764692,3.4028234663852886E38,1.60537498E9,,,,0,,3,,1.60537498E9
Raw,1933498519,1499824000000,,,-1311853870175765671,0.0,13.556635358336468,,,0,193,0.0,35,9206156,8,41.022647857666016,-253.60580373972118,0.04311277645350353,4,-367800.87436926784,3.4028234663852886E38,1.57542003E9,,,,0,,4,,1.57542003E9
Raw,1933498519,1499824000000,,,-1311853870175765671,0.0,13.556635358336468,,,0,194,0.0,35,12326330,7,41.58898162841797,-105.29914680794013,0.0410572157385766,1,-49235.623789276324,7.976185879670084E-4,1.57542003E9,,,,0,,4,,1.57542003E9
Raw,1933498519,1499824000000,,,-1311853870175765671,0.0,13.556635358336468,,,0,6,0.0,16431,44155878542983,6,37.498191833496094,-78.21011214211586,0.06553949465614192,4,-95399.44810399548,3.4028234663852886E38,1.56109798E9,,,,0,,5,,1.56109798E9
Raw,1933498519,1499824000000,,,-1311853870175765671,0.0,13.556635358336468,,,0,14,0.0,16431,44155924484539,6,38.256378173828125,123.65547221612036,0.05781119778864782,4,126329.19411800448,3.4028234663852886E38,1.56109798E9,,,,0,,5,,1.56109798E9
Raw,1933498519,1499824000000,,,-1311853870175765671,0.0,13.556635358336468,,,0,16,0.0,16431,44155877902063,9,33.787628173828125,-76.79595433545728,0.09857589185753218,4,-94513.22554563462,3.4028234663852886E38,1.56109798E9,,,,0,,5,,1.56109798E9
Raw,1933498520,1499824000000,,,-1311853870175765671,0.0,13.556635358336468,,,0,24,0.0,16431,44155924178759,6,39.12702560424805,12.226521047179133,0.052319279219447096,1,-82986.692867077,0.0010138660436496139,1.56109798E9,,,,0,,5,,1.56109798E9
Raw,1933498520,1499824000000,,,-1311853870175765671,0.0,13.556635358336468,,,0,25,0.0,16431,44155922616308,9,33.64369201660156,-591.6102331440734,0.09741971774402353,1,-609818.3106512867,0.0019061071798205376,1.56109798E9,,,,0,,5,,1.56109798E9
Raw,1933498520,1499824000000,,,-1311853870175765671,0.0,13.556635358336468,,,0,26,0.0,16431,44155915442567,166,24.915790557861328,424.5512552623877,0.26759048588039613,4,533478.7103323775,3.4028234663852886E38,1.56109798E9,,,,1,,5,,1.56109798E9
Raw,1933498520,1499824000000,,,-1311853870175765671,0.0,13.556635358336468,,,0,27,0.0,16431,44155913212188,12,31.475563049316406,111.80874263274256,0.126813747945976,4,70362.58730044343,3.4028234663852886E38,1.56109798E9,,,,0,,5,,1.56109798E9
Raw,1933498520,1499824000000,,,-1311853870175765671,0.0,13.556635358336468,,,0,33,0.0,16431,44155925948730,6,39.19407653808594,-121.4259342402242,0.05224110424898035,4,-214937.0671373479,3.4028234663852886E38,1.56109798E9,,,,0,,5,,1.56109798E9
Fix,gps,34.486408,109.463888,360.223083,0.755590,3.000000,1627820152999
Raw,1933499471,1500824000000,,,-1311853870175766059,0.0,13.656301285122945,,,0,10,0.0,16431,44170931409624,6,43.052734375,-356.02091011792936,0.034868757766471525,1,-620044.1596822721,6.739189848303795E-4,1.57542003E9,,,,0,,1,,1.57542003E9
Raw,1933499471,1500824000000,,,-1311853870175766059,0.0,13.656301285122945,,,0,12,0.0,16431,44170923433452,19,33.50020980834961,-485.85625595383635,0.09918147952922984,4,-763130.074980414,3.4028234663852886E38,1.57542003E9,,,,0,,1,,1.57542003E9
Raw,1933499471,1500824000000,,,-1311853870175766059,0.0,13.656301285122945,,,0,15,0.0,16431,44170916493793,28,30.4783878326416,415.51817731540814,0.14254226909286982,4,721852.8044978625,3.4028234663852886E38,1.57542003E9,,,,0,,1,,1.57542003E9
Raw,1933499471,1500824000000,,,-1311853870175766059,0.0,13.656301285122945,,,0,18,0.0,16431,44170921364027,37,27.958555221557617,561.7030138751334,0.18679767321476015,4,810354.9290299616,3.4028234663852886E38,1.57542003E9,,,,0,,1,,1.57542003E9
Raw,1933499472,1500824000000,,,-1311853870175766059,0.0,13.656301285122945,,,0,23,0.0,16431,44170931377283,13,36.68739318847656,102.16263206090133,0.07033675434860387,1,45053.59608847803,0.0013304423773661256,1.57542003E9,,,,0,,1,,1.57542003E9
Raw,1933499472,1500824000000,,,-1311853870175766059,0.0,13.656301285122945,,,0,24,0.0,16431,44170926229923,44,26.442726135253906,454.21417148297223,0.22324285276727074,4,554577.4171163817,3.4028234663852886E38,1.57542003E9,,,,0,,1,,1.57542003E9
Raw,1933499472,1500824000000,,,-1311853870175766059,0.0,13.656301285122945,,,0,25,0.0,16431,44170922592925,9,40.00688934326172,-709.4174710836023,0.04706619163372927,4,-840286.9709040276,3.4028234663852886E38,1.57542003E9,,,,0,,1,,1.57542003E9
Raw,1933499472,1500824000000,,,-1311853870175766059,0.0,13.656301285122945,,,0,31,0.0,16,1500017629898,1000000000,7.0,-833.5782242382875,2.99792458E8,2,-14.165176231403827,3.4028234663852886E38,1.57542003E9,,,,0,,1,,1.57542003E9
Raw,1933499472,1500824000000,,,-1311853870175766059,0.0,13.656301285122945,,,0,32,0.0,16431,44170926852484,13,36.67985153198242,-402.9852059905577,0.06958217242239023,4,-636717.8294249267,3.4028234663852886E38,1.57542003E9,,,,0,,1,,1.57542003E9
Raw,1933499473,1500824000000,,,-1311853870175766059,0.0,13.656301285122945,,,0,10,0.0,32995,54952930091981,35,34.46176528930664,-790.5897491664145,0.09005016868671606,4,-1273669.8185127503,3.4028234663852886E38,1.59806246E9,,,,0,,3,,1.59806246E9
Raw,1933499473,1500824000000,,,-1311853870175766059,0.0,13.656301285122945,,,0,9,0.0,32995,54952933601137,33,44.172828674316406,-124.39489111038273,0.032446517331768024,1,-371915.13144698675,5.829642177559435E-4,1.59862502E9,,,,0,,3,,1.59862502E9
Raw,1933499473,1500824000000,,,-1311853870175766059,0.0,13.656301285122945,,,0,16,0.0,16,5094225,1000000000,7.0,523.8354619782692,2.99792458E8,4,524709.667820607,3.4028234663852886E38,1.60143744E9,,,,0,,3,,1.60143744E9
Raw,1933499473,1500824000000,,,-1311853870175766059,0.0,13.656301285122945,,,0,23,0.0,32961,54952924501563,38,33.796958923339844,-24.52800006701959,0.09606310949654967,4,-6467.260976467019,3.4028234663852886E38,1.60368755E9,,,,0,,3,,1.60368755E9
Raw,1933499474,1500824000000,,,-1311853870175766059,0.0,13.656301285122945,,,0,7,0.0,32995,54952932738287,33,41.47196960449219,-178.61702053770114,0.04165808129257975,4,-317144.03759946406,3.4028234663852886E38,1.60481254E9,,,,0,,3,,1.60481254E9
Raw,1933499474,1500824000000,,,-1311853870175766059,0.0,13.656301285122945,,,0,8,0.0,32961,54952927196068,34,34.830787658691406,-562.1839514191267,0.08585907496935224,4,-541733.7099786198,3.4028234663852886E38,1.60537498E9,,,,0,,3,,1.60537498E9
Raw,1933499475,1500824000000,,,-1311853870175766059,0.0,13.656301285122945,,,0,193,0.0,35,9207001,11,38.29380798339844,-253.52877738797963,0.05841553316305381,4,-368054.46735767834,3.4028234663852886E38,1.57542003E9,,,,0,,4,,1.57542003E9
Raw,1933499475,1500824000000,,,-1311853870175766059,0.0,13.656301285122945,,,0,194,0.0,35,12326677,8,40.960533142089844,-105.2351399545903,0.04397161524959084,1,-49340.88553953583,8.574679377488792E-4,1.57542003E9,,,,0,,4,,1.57542003E9
Raw,1933499475,1500824000000,,,-1311853870175766059,0.0,13.656301285122945,,,0,6,0.0,16431,44156878543244,7,35.826332092285156,-78.2300503791817,0.07874248996496225,4,-95477.6874492413,3.4028234663852886E38,1.56109798E9,,,,0,,5,,1.56109798E9
Raw,1933499475,1500824000000,,,-1311853870175766059,0.0,13.656301285122945,,,0,14,0.0,16431,44156924484127,6,37.85285949707031,123.76898383756958,0.06052185976353877,4,126452.89324920926,3.4028234663852886E38,1.56109798E9,,,,0,,5,,1.56109798E9
Raw,1933499476,1500824000000,,,-1311853870175766059,0.0,13.656301285122945,,,0,16,0.0,16431,44156877902310,12,31.681921005249023,-76.70772337613386,0.12473587470488551,4,-94589.99171102051,3.4028234663852886E38,1.56109798E9,,,,0,,5,,1.56109798E9
Raw,1933499476,1500824000000,,,-1311853870175766059,0.0,13.656301285122945,,,0,24,0.0,16431,44156924178703,6,37.70937728881836,12.31975680222758,0.06146154870337703,1,-82974.43706284456,0.0011936116497963667,1.56109798E9,,,,0,,5,,1.56109798E9
Raw,1933499476,1500824000000,,,-1311853870175766059,0.0,13.656301285122945,,,0,25,0.0,16431,44156922618320,12,31.32848358154297,-591.3894469907186,0.12703322032713948,4,-610409.8400402798,3.4028234663852886E38,1.56109798E9,,,,0,,5,,1.56109798E9
Raw,1933499476,1500824000000,,,-1311853870175766059,0.0,13.656301285122945,,,0,26,0.0,16431,44156915441119,22,26.520221710205078,424.4662195333633,0.22292677459503552,4,533903.0884823406,3.4028234663852886E38,1.56109798E9,,,,0,,5,,1.56109798E9
Raw,1933499477,1500824000000,,,-1311853870175766059,0.0,13.656301285122945,,,0,27,0.0,16431,44156913211803,12,31.47344398498535,111.24826515583908,0.12684406102925544,4,70473.77815151287,3.4028234663852886E38,1.56109798E9,,,,0,,5,,1.56109798E9
Raw,1933499477,1500824000000,,,-1311853870175766059,0.0,13.656301285122945,,,0,33,0.0,16431,44156925949131,7,36.318416595458984,-121.3639382518092,0.07232382147445182,4,-215058.50939275348,3.4028234663852886E38,1.56109798E9,,,,0,,5,,1.56109798E9
Fix,gps,34.486407,109.463887,360.231567,0.619704,3.000000,1627820153999
Raw,1933500554,1501824000000,,,-1311853870175766453,0.0,14.154314398102416,,,0,10,0.0,16431,44171931410862,9,39.97922897338867,-355.9062226517301,0.048800956219182595,1,-620400.1579986311,9.600261109881103E-4,1.57542003E9,,,,0,,1,,1.57542003E9
Raw,1933500554,1501824000000,,,-1311853870175766453,0.0,14.154314398102416,,,0,12,0.0,16431,44171923435100,23,31.92975425720215,-485.9913588114928,0.11871537850674069,4,-763616.0873353323,3.4028234663852886E38,1.57542003E9,,,,0,,1,,1.57542003E9
Raw,1933500554,1501824000000,,,-1311853870175766453,0.0,14.154314398102416,,,0,15,0.0,16431,44171916492423,25,31.463726043701172,415.34295940642437,0.12757348883777658,4,722268.2343863943,3.4028234663852886E38,1.57542003E9,,,,0,,1,,1.57542003E9
Raw,1933500554,1501824000000,,,-1311853870175766453,0.0,14.154314398102416,,,0,18,0.0,16431,44171921362136,49,25.527324676513672,561.94073900938,0.24705467418133864,4,810917.1104333167,3.4028234663852886E38,1.57542003E9,,,,0,,1,,1.57542003E9
Raw,1933500554,1501824000000,,,-1311853870175766453,0.0,14.154314398102416,,,0,23,0.0,16431,44171931376943,15,35.82358169555664,102.14675815677583,0.07747733686388542,1,45155.74169738032,0.00146955787204206,1.57542003E9,,,,0,,1,,1.57542003E9
Raw,1933500555,1501824000000,,,-1311853870175766453,0.0,14.154314398102416,,,0,24,0.0,16431,44171926228504,59,24.026046752929688,454.1368724715785,0.2944973205264949,4,555031.6335344637,3.4028234663852886E38,1.57542003E9,,,,0,,1,,1.57542003E9
Raw,1933500555,1501824000000,,,-1311853870175766453,0.0,14.154314398102416,,,0,25,0.0,16431,44171922595285,9,40.037506103515625,-709.430422417081,0.04690263994325464,4,-840996.4184779217,3.4028234663852886E38,1.57542003E9,,,,0,,1,,1.57542003E9
Raw,1933500555,1501824000000,,,-1311853870175766453,0.0,14.154314398102416,,,0,31,0.0,16,1501017632679,1000000000,19.95182228088379,-833.5782242382875,2.99792458E8,2,-14.158657535825732,3.4028234663852886E38,1.57542003E9,,,,0,,1,,1.57542003E9
Raw,1933500555,1501824000000,,,-1311853870175766453,0.0,14.154314398102416,,,0,32,0.0,16431,44171926853829,13,36.73780822753906,-402.9215740442296,0.06912785061424925,4,-637120.7306030147,3.4028234663852886E38,1.57542003E9,,,,0,,1,,1.57542003E9
Raw,1933500555,1501824000000,,,-1311853870175766453,0.0,14.154314398102416,,,0,10,0.0,32995,54953930094580,34,34.822723388671875,-790.4879107863244,0.0864589960998165,4,-1274460.3592250054,3.4028234663852886E38,1.59806246E9,,,,0,,3,,1.59806246E9
Raw,1933500555,1501824000000,,,-1311853870175766453,0.0,14.154314398102416,,,0,9,0.0,32995,54953933601538,33,44.76620101928711,-124.28325402404226,0.0324465901397501,1,-372039.46393179195,5.44469163287431E-4,1.59862502E9,,,,0,,3,,1.59862502E9
Raw,1933500555,1501824000000,,,-1311853870175766453,0.0,14.154314398102416,,,0,16,0.0,16,5092355,1000000000,10.952823638916016,523.9266666319243,2.99792458E8,4,524290.6097925409,3.4028234663852886E38,1.60143744E9,,,,0,,3,,1.60143744E9
Raw,1933500556,1501824000000,,,-1311853870175766453,0.0,14.154314398102416,,,0,23,0.0,32961,54953924501653,36,34.239437103271484,-23.998143547148317,0.09133222156054627,4,-6491.3041379461865,3.4028234663852886E38,1.60368755E9,,,,0,,3,,1.60368755E9
Raw,1933500556,1501824000000,,,-1311853870175766453,0.0,14.154314398102416,,,0,7,0.0,32995,54953932738899,33,41.92532730102539,-178.703845595693,0.03965616133838873,1,-317322.72821250337,7.532692397944629E-4,1.60481254E9,,,,0,,3,,1.60481254E9
Raw,1933500556,1501824000000,,,-1311853870175766453,0.0,14.154314398102416,,,0,8,0.0,32961,54953927197982,36,34.23478698730469,-562.1271018816467,0.09186570020679796,4,-542295.8708479917,3.4028234663852886E38,1.60537498E9,,,,0,,3,,1.60537498E9
Raw,1933500556,1501824000000,,,-1311853870175766453,0.0,14.154314398102416,,,0,193,0.0,35,9207835,13,36.93345642089844,-253.6597903508533,0.0680390509271237,4,-368308.1031203394,3.4028234663852886E38,1.57542003E9,,,,0,,4,,1.57542003E9
Raw,1933500556,1501824000000,,,-1311853870175766453,0.0,14.154314398102416,,,0,194,0.0,35,12327041,10,38.92722702026367,-105.2822930331896,0.05498489177548685,1,-49446.18836464249,0.0010836353758350015,1.57542003E9,,,,0,,4,,1.57542003E9
Raw,1933500556,1501824000000,,,-1311853870175766453,0.0,14.154314398102416,,,0,6,0.0,16431,44157878543498,9,34.38146209716797,-78.236457881008,0.09238990935681762,4,-95555.90606321814,3.4028234663852886E38,1.56109798E9,,,,0,,5,,1.56109798E9
Raw,1933500556,1501824000000,,,-1311853870175766453,0.0,14.154314398102416,,,0,14,0.0,16431,44157924483714,9,34.28377151489258,123.63316524832618,0.09086815596417575,4,126576.60690669932,3.4028234663852886E38,1.56109798E9,,,,0,,5,,1.56109798E9
Raw,1933500557,1501824000000,,,-1311853870175766453,0.0,14.154314398102416,,,0,16,0.0,16431,44157877902588,17,28.44940185546875,-76.78559326867435,0.17952264972046517,4,-94666.84939802947,3.4028234663852886E38,1.56109798E9,,,,0,,5,,1.56109798E9
Raw,1933500557,1501824000000,,,-1311853870175766453,0.0,14.154314398102416,,,0,24,0.0,16431,44157924178670,6,37.72507095336914,12.313437701772898,0.06135194148693496,1,-82962.1178351836,0.0011914568021893501,1.56109798E9,,,,0,,5,,1.56109798E9
Raw,1933500557,1501824000000,,,-1311853870175766453,0.0,14.154314398102416,,,0,25,0.0,16431,44157922620302,14,29.954208374023438,-591.4948299462872,0.1487292667448773,4,-611001.4678460173,3.4028234663852886E38,1.56109798E9,,,,0,,5,,1.56109798E9
Raw,1933500558,1501824000000,,,-1311853870175766453,0.0,14.154314398102416,,,0,26,0.0,16431,44157915439733,23,25.923725128173828,424.4647539877328,0.23857634692662455,4,534327.5138124509,3.4028234663852886E38,1.56109798E9,,,,0,,5,,1.56109798E9
Raw,1933500558,1501824000000,,,-1311853870175766453,0.0,14.154314398102416,,,0,27,0.0,16431,44157913211452,13,31.17837142944336,111.16468645183102,0.13114497414632337,4,70584.89505073083,3.4028234663852886E38,1.56109798E9,,,,0,,5,,1.56109798E9
Raw,1933500558,1501824000000,,,-1311853870175766453,0.0,14.154314398102416,,,0,33,0.0,16431,44157925949522,8,34.601280212402344,-121.34428119500967,0.08789909638067656,4,-215179.92053764279,3.4028234663852886E38,1.56109798E9,,,,0,,5,,1.56109798E9
Fix,gps,34.486407,109.463886,360.006897,0.522961,3.000000,1627820154999
Raw,1933501524,1502824000000,,,-1311853870175766839,0.0,14.208808490402754,,,0,10,0.0,16431,44172931411985,9,39.60845184326172,-355.7089874758326,0.05083992919556504,1,-620756.0289349265,0.0010018942411988974,1.57542003E9,,,,0,,1,,1.57542003E9
Raw,1933501525,1502824000000,,,-1311853870175766839,0.0,14.208808490402754,,,0,12,0.0,16431,44172923436675,24,31.781646728515625,-485.6898994835485,0.12074667960204061,4,-764101.9079350748,3.4028234663852886E38,1.57542003E9,,,,0,,1,,1.57542003E9
Raw,1933501525,1502824000000,,,-1311853870175766839,0.0,14.208808490402754,,,0,15,0.0,16431,44172916491005,14,36.26081085205078,415.37683736820804,0.07469417478067336,4,722683.6759932982,3.4028234663852886E38,1.57542003E9,,,,0,,1,,1.57542003E9
Raw,1933501525,1502824000000,,,-1311853870175766839,0.0,14.208808490402754,,,0,18,0.0,16431,44172921360338,32,29.23202133178711,562.0657875423622,0.16135645076644012,4,811479.2601004825,3.4028234663852886E38,1.57542003E9,,,,0,,1,,1.57542003E9
Raw,1933501526,1502824000000,,,-1311853870175766839,0.0,14.208808490402754,,,0,23,0.0,16431,44172931376614,13,36.87340545654297,102.29913229927519,0.06888969362465755,1,45257.997932555394,0.001302253338508308,1.57542003E9,,,,0,,1,,1.57542003E9
Raw,1933501526,1502824000000,,,-1311853870175766839,0.0,14.208808490402754,,,0,24,0.0,16431,44172926227089,65,21.856855392456055,454.2232374164073,4.201120216907523,4,555485.7528835221,3.4028234663852886E38,1.57542003E9,,,,0,,1,,1.57542003E9
Raw,1933501526,1502824000000,,,-1311853870175766839,0.0,14.208808490402754,,,0,25,0.0,16431,44172922597646,8,40.50470733642578,-709.3724822409922,0.044471344275809205,1,-841705.8113697722,9.03668231330812E-4,1.57542003E9,,,,0,,1,,1.57542003E9
Raw,1933501527,1502824000000,,,-1311853870175766839,0.0,14.208808490402754,,,0,31,0.0,16,1502017635459,1000000000,14.318318367004395,-833.5782242382875,2.99792458E8,2,-14.152138840450645,3.4028234663852886E38,1.57542003E9,,,,0,,1,,1.57542003E9
Raw,1933501527,1502824000000,,,-1311853870175766839,0.0,14.208808490402754,,,0,32,0.0,16431,44172926855231,18,34.13383865356445,-402.6918923697224,0.09286282840380833,4,-637523.5362099089,3.4028234663852886E38,1.57542003E9,,,,0,,1,,1.57542003E9
Raw,1933501527,1502824000000,,,-1311853870175766839,0.0,14.208808490402754,,,0,10,0.0,32995,54954930097275,39,33.56696701049805,-790.2160009481854,0.09962553333167035,1,-1275250.7628453062,0.0018785380525514483,1.59806246E9,,,,0,,3,,1.59806246E9
Raw,1933501528,1502824000000,,,-1311853870175766839,0.0,14.208808490402754,,,0,9,0.0,32995,54954933601942,33,45.00818634033203,-124.0951870289494,0.03244666294773217,1,-372163.6218694029,5.295098526403308E-4,1.59862502E9,,,,0,,3,,1.59862502E9
Raw,1933501528,1502824000000,,,-1311853870175766839,0.0,14.208808490402754,,,0,16,0.0,17,90797,90,16.960079193115234,524.7135964705794,4.200915722168386,4,524814.7290308285,3.4028234663852886E38,1.60143744E9,,,,0,,3,,1.60143744E9
Raw,1933501528,1502824000000,,,-1311853870175766839,0.0,14.208808490402754,,,0,23,0.0,32961,54954924501688,36,34.29456329345703,-23.872496441023443,0.09075952645492152,4,-6515.2193079485305,3.4028234663852886E38,1.60368755E9,,,,0,,3,,1.60368755E9
Raw,1933501529,1502824000000,,,-1311853870175766839,0.0,14.208808490402754,,,0,7,0.0,32995,54954932739499,33,43.04254150390625,-178.59277086988516,0.03514652229831142,1,-317501.3501694219,6.623529479838908E-4,1.60481254E9,,,,0,,3,,1.60481254E9
Raw,1933501529,1502824000000,,,-1311853870175766839,0.0,14.208808490402754,,,0,8,0.0,32961,54954927199900,46,32.09952926635742,-562.0138458786214,0.11710665493939754,1,-542857.9910426029,0.0020875309128314257,1.60537498E9,,,,0,,3,,1.60537498E9
Raw,1933501529,1502824000000,,,-1311853870175766839,0.0,14.208808490402754,,,0,193,0.0,35,9208708,14,36.01224136352539,-253.44755889408577,0.07546662170545987,1,-368561.6899706598,0.0014379826607182622,1.57542003E9,,,,0,,4,,1.57542003E9
Raw,1933501530,1502824000000,,,-1311853870175766839,0.0,14.208808490402754,,,0,194,0.0,35,12327396,12,37.37657928466797,-105.22342411016058,0.06529852519821411,1,-49551.449015232545,0.0012289570877328515,1.57542003E9,,,,0,,4,,1.57542003E9
Raw,1933501530,1502824000000,,,-1311853870175766839,0.0,14.208808490402754,,,0,6,0.0,16431,44158878543793,12,31.456981658935547,-78.05414230045335,0.1280392602211557,1,-95634.06887935607,0.0023115675430744886,1.56109798E9,,,,0,,5,,1.56109798E9
Raw,1933501530,1502824000000,,,-1311853870175766839,0.0,14.208808490402754,,,0,14,0.0,16431,44158924483307,9,34.13921356201172,123.88830651785594,0.09237951653743359,1,126700.40628489507,0.001800409285351634,1.56109798E9,,,,0,,5,,1.56109798E9
Raw,1933501530,1502824000000,,,-1311853870175766839,0.0,14.208808490402754,,,0,16,0.0,16431,44158877902821,18,28.15438461303711,-76.7517493893472,0.1856136906125554,4,-94743.67957377677,3.4028234663852886E38,1.56109798E9,,,,0,,5,,1.56109798E9
Raw,1933501531,1502824000000,,,-1311853870175766839,0.0,14.208808490402754,,,0,24,0.0,16431,44158924178624,6,40.71660232543945,12.450301131324075,0.04369521950781394,1,-82949.67567410105,8.443099213764071E-4,1.56109798E9,,,,0,,5,,1.56109798E9
Raw,1933501531,1502824000000,,,-1311853870175766839,0.0,14.208808490402754,,,0,25,0.0,16431,44158922622229,16,29.116727828979492,-591.3282348988037,0.16373628159169962,4,-611592.953716464,3.4028234663852886E38,1.56109798E9,,,,0,,5,,1.56109798E9
Raw,1933501531,1502824000000,,,-1311853870175766839,0.0,14.208808490402754,,,0,26,0.0,16431,44158915438268,62,22.407146453857422,424.72224694676265,4.202776943817561,4,534751.9367204629,3.4028234663852886E38,1.56109798E9,,,,0,,5,,1.56109798E9
Raw,1933501532,1502824000000,,,-1311853870175766839,0.0,14.208808490402754,,,0,27,0.0,16431,44158913211042,15,29.62645149230957,111.13371401946591,0.15633561232262572,4,70696.11575183415,3.4028234663852886E38,1.56109798E9,,,,0,,5,,1.56109798E9
Raw,1933501532,1502824000000,,,-1311853870175766839,0.0,14.208808490402754,,,0,33,0.0,16431,44158925949953,7,35.63848876953125,-121.33763511598772,0.07812581051725265,1,-215301.23455385442,0.001514981733635068,1.56109798E9,,,,0,,5,,1.56109798E9
Fix,gps,34.486406,109.463886,359.425537,0.439753,4.000000,1627820155999
Raw,1933502544,1503824000000,,,-1311853870175767225,0.0,14.298352108926212,,,0,10,0.0,16431,44173931413212,9,39.70564270019531,-355.3691853843002,0.050297285064484276,1,-621111.8167823501,9.907458443194628E-4,1.57542003E9,,,,0,,1,,1.57542003E9
Raw,1933502544,1503824000000,,,-1311853870175767225,0.0,14.298352108926212,,,0,12,0.0,16431,44173923438289,10,38.84898376464844,-486.81012166454025,0.05386351155649727,1,-764588.294684829,0.0010373289696872234,1.57542003E9,,,,0,,1,,1.57542003E9
Raw,1933502544,1503824000000,,,-1311853870175767225,0.0,14.298352108926212,,,0,15,0.0,16431,44173916489655,14,36.2933349609375,414.1136392821031,0.0744258586446786,4,723098.4463010543,3.4028234663852886E38,1.57542003E9,,,,0,,1,,1.57542003E9
Raw,1933502545,1503824000000,,,-1311853870175767225,0.0,14.298352108926212,,,0,18,0.0,16431,44173921358429,16,35.281368255615234,562.1871210875834,0.08053405725780155,4,812041.517971582,3.4028234663852886E38,1.57542003E9,,,,0,,1,,1.57542003E9
Raw,1933502545,1503824000000,,,-1311853870175767225,0.0,14.298352108926212,,,0,23,0.0,16431,44173931376264,8,40.97916030883789,101.93594112195399,0.04371120814067736,1,45360.114486529485,8.117227116599679E-4,1.57542003E9,,,,0,,1,,1.57542003E9
Raw,1933502546,1503824000000,,,-1311853870175767225,0.0,14.298352108926212,,,0,24,0.0,16431,44173926225330,68,21.33401870727539,453.97198154692114,4.201119684369139,4,555939.119770198,3.4028234663852886E38,1.57542003E9,,,,0,,1,,1.57542003E9
Raw,1933502547,1503824000000,,,-1311853870175767225,0.0,14.298352108926212,,,0,25,0.0,16431,44173922600041,13,37.05397033691406,-709.9954413813161,0.06593581554553479,1,-842415.516295013,0.001275460934266448,1.57542003E9,,,,0,,1,,1.57542003E9
Raw,1933502547,1503824000000,,,-1311853870175767225,0.0,14.298352108926212,,,0,31,0.0,16,1503017638240,1000000000,14.887153625488281,-833.5782242382875,2.99792458E8,2,-14.145620144887461,3.4028234663852886E38,1.57542003E9,,,,0,,1,,1.57542003E9
Raw,1933502547,1503824000000,,,-1311853870175767225,0.0,14.298352108926212,,,0,32,0.0,16431,44173926856519,21,32.835262298583984,-402.6940054820268,0.10763911267521048,4,-637926.3432123339,3.4028234663852886E38,1.57542003E9,,,,0,,1,,1.57542003E9
Raw,1933502548,1503824000000,,,-1311853870175767225,0.0,14.298352108926212,,,0,10,0.0,32995,54955930099860,48,31.838598251342773,-789.6947438581255,0.12116012908927337,4,-1276041.2724508825,3.4028234663852886E38,1.59806246E9,,,,0,,3,,1.59806246E9
Raw,1933502548,1503824000000,,,-1311853870175767225,0.0,14.298352108926212,,,0,9,0.0,32995,54955933602390,33,40.35776901245117,-124.5229048170824,0.04720157703628161,4,-372287.9099205588,3.4028234663852886E38,1.59862502E9,,,,0,,3,,1.59862502E9
Raw,1933502548,1503824000000,,,-1311853870175767225,0.0,14.298352108926212,,,0,16,0.0,17,88731,89,17.136016845703125,524.0067604047529,4.200915455899194,4,525338.7141619665,3.4028234663852886E38,1.60143744E9,,,,0,,3,,1.60143744E9
Raw,1933502548,1503824000000,,,-1311853870175767225,0.0,14.298352108926212,,,0,23,0.0,32961,54955924501824,37,33.982017517089844,-22.66573464261323,0.09405519016463576,4,-6538.453415381861,3.4028234663852886E38,1.60368755E9,,,,0,,3,,1.60368755E9
Raw,1933502549,1503824000000,,,-1311853870175767225,0.0,14.298352108926212,,,0,7,0.0,32995,54955932740074,33,46.9708251953125,-178.76205843143396,0.03229162979116018,1,-317680.08783070074,4.213812935631722E-4,1.60481254E9,,,,0,,3,,1.60481254E9
Raw,1933502550,1503824000000,,,-1311853870175767225,0.0,14.298352108926212,,,0,8,0.0,32961,54955927201691,40,33.34294509887695,-561.4265029053638,0.10166013782912836,1,-543419.7535167801,0.0019188380101695657,1.60537498E9,,,,0,,3,,1.60537498E9
Raw,1933502550,1503824000000,,,-1311853870175767225,0.0,14.298352108926212,,,0,193,0.0,35,9209528,9,39.572486877441406,-254.22146923434923,0.05064619755640676,1,-368815.66452332435,9.544240892864764E-4,1.57542003E9,,,,0,,4,,1.57542003E9
Raw,1933502550,1503824000000,,,-1311853870175767225,0.0,14.298352108926212,,,0,194,0.0,35,12327740,22,32.551387786865234,-106.0252138998597,0.11215829164116753,4,-49657.120882204894,3.4028234663852886E38,1.57542003E9,,,,0,,4,,1.57542003E9
Raw,1933502551,1503824000000,,,-1311853870175767225,0.0,14.298352108926212,,,0,6,0.0,16431,44159878544043,10,33.43178176879883,-78.16790954032649,0.1026790668161997,1,-95712.2376073719,0.001953182276338339,1.56109798E9,,,,0,,5,,1.56109798E9
Raw,1933502551,1503824000000,,,-1311853870175767225,0.0,14.298352108926212,,,0,14,0.0,16431,44159924482892,7,35.937129974365234,123.55189563074754,0.07525760039006607,4,126823.80912835637,3.4028234663852886E38,1.56109798E9,,,,0,,5,,1.56109798E9
Raw,1933502551,1503824000000,,,-1311853870175767225,0.0,14.298352108926212,,,0,16,0.0,16431,44159877903078,8,34.61054611206055,-76.45881919614777,0.08995666659590873,4,-94820.52818833671,3.4028234663852886E38,1.56109798E9,,,,0,,5,,1.56109798E9
Raw,1933502552,1503824000000,,,-1311853870175767225,0.0,14.298352108926212,,,0,24,0.0,16431,44159924178587,6,44.27199172973633,11.944776290179789,0.03075162863798253,1,-82937.47904048728,5.910319741815329E-4,1.56109798E9,,,,0,,5,,1.56109798E9
Raw,1933502552,1503824000000,,,-1311853870175767225,0.0,14.298352108926212,,,0,25,0.0,16431,44159922624188,12,31.61915397644043,-591.2229201081482,0.12286901147721346,4,-612184.3925079473,3.4028234663852886E38,1.56109798E9,,,,0,,5,,1.56109798E9
Raw,1933502552,1503824000000,,,-1311853870175767225,0.0,14.298352108926212,,,0,26,0.0,16431,44159915436822,67,21.431228637695312,425.0366576081856,4.2027766775483695,4,535177.4640003415,3.4028234663852886E38,1.56109798E9,,,,0,,5,,1.56109798E9
Raw,1933502553,1503824000000,,,-1311853870175767225,0.0,14.298352108926212,,,0,27,0.0,16431,44159913210723,16,28.956819534301758,112.12093793449151,0.16867442680970257,4,70808.47760326271,3.4028234663852886E38,1.56109798E9,,,,0,,5,,1.56109798E9
Raw,1933502553,1503824000000,,,-1311853870175767225,0.0,14.298352108926212,,,0,33,0.0,16431,44159925950326,6,41.77781677246094,-121.47737318773125,0.03907503714866789,1,-215422.6742982837,7.876257295720279E-4,1.56109798E9,,,,0,,5,,1.56109798E9
Fix,gps,34.486406,109.463887,359.171051,0.564486,4.000000,1627820156999
Raw,1933503509,1504824000000,,,-1311853870175767616,0.0,14.614139814808025,,,0,10,0.0,16431,44174931414398,10,39.09429168701172,-355.82606071398845,0.053815504053345814,4,-621467.4789409807,3.4028234663852886E38,1.57542003E9,,,,0,,1,,1.57542003E9
Raw,1933503509,1504824000000,,,-1311853870175767616,0.0,14.614139814808025,,,0,12,0.0,16431,44174923439912,13,36.664031982421875,-486.36142612441745,0.06909293190604662,4,-765074.7054594643,3.4028234663852886E38,1.57542003E9,,,,0,,1,,1.57542003E9
Raw,1933503510,1504824000000,,,-1311853870175767616,0.0,14.614139814808025,,,0,15,0.0,16431,44174916488241,14,36.149017333984375,414.6283184580541,0.07562283019088534,1,723513.1007910008,0.0014155162498354912,1.57542003E9,,,,0,,1,,1.57542003E9
Raw,1933503510,1504824000000,,,-1311853870175767616,0.0,14.614139814808025,,,0,18,0.0,16431,44174921356570,22,32.57182312011719,562.7019706758169,0.10992649816551675,4,812603.7834773525,3.4028234663852886E38,1.57542003E9,,,,0,,1,,1.57542003E9
Raw,1933503510,1504824000000,,,-1311853870175767616,0.0,14.614139814808025,,,0,23,0.0,16431,44174931375927,9,39.64527893066406,102.5762397120339,0.050627030335068796,1,45462.31661976087,9.464590111747384E-4,1.57542003E9,,,,0,,1,,1.57542003E9
Raw,1933503510,1504824000000,,,-1311853870175767616,0.0,14.614139814808025,,,0,24,0.0,16431,44174926223910,19,33.67387008666992,454.0034737367482,0.09773239266315381,4,556392.9394285157,3.4028234663852886E38,1.57542003E9,,,,0,,1,,1.57542003E9
Raw,1933503510,1504824000000,,,-1311853870175767616,0.0,14.614139814808025,,,0,25,0.0,16431,44174922602376,8,40.562767028808594,-709.636689443957,0.04417902230801066,1,-843125.2520468343,8.515836670994759E-4,1.57542003E9,,,,0,,1,,1.57542003E9
Raw,1933503510,1504824000000,,,-1311853870175767616,0.0,14.614139814808025,,,0,31,0.0,16,1504017641020,1000000000,18.424991607666016,-833.3926111800643,2.99792458E8,2,-14.162022155620162,3.4028234663852886E38,1.57542003E9,,,,0,,1,,1.57542003E9
Raw,1933503510,1504824000000,,,-1311853870175767616,0.0,14.614139814808025,,,0,32,0.0,16431,44174926857893,14,36.41289138793945,-402.35941800634237,0.07171648641118439,4,-638328.6112565543,3.4028234663852886E38,1.57542003E9,,,,0,,1,,1.57542003E9
Raw,1933503511,1504824000000,,,-1311853870175767616,0.0,14.614139814808025,,,0,10,0.0,32995,54956930102481,59,30.089813232421875,-790.6303072896767,0.14777850267085157,4,-1276831.513533232,3.4028234663852886E38,1.59806246E9,,,,0,,3,,1.59806246E9
Raw,1933503511,1504824000000,,,-1311853870175767616,0.0,14.614139814808025,,,0,9,0.0,32995,54956933602797,33,43.1755485534668,-123.98696670887534,0.03480252330506489,4,-372412.16213361,3.4028234663852886E38,1.59862502E9,,,,0,,3,,1.59862502E9
Raw,1933503511,1504824000000,,,-1311853870175767616,0.0,14.614139814808025,,,0,16,0.0,17,86977,89,17.15329933166504,523.9550914006643,4.200914923360811,4,525862.9912221814,3.4028234663852886E38,1.60143744E9,,,,0,,3,,1.60143744E9
Raw,1933503511,1504824000000,,,-1311853870175767616,0.0,14.614139814808025,,,0,23,0.0,32961,54956924501872,33,34.989013671875,-22.844705882121573,0.08384793544440261,4,-6561.814878234388,3.4028234663852886E38,1.60368755E9,,,,0,,3,,1.60368755E9
Raw,1933503511,1504824000000,,,-1311853870175767616,0.0,14.614139814808025,,,0,7,0.0,32995,54956932740687,33,46.34630584716797,-178.52980353145927,0.03229174004324732,1,-317858.83077814925,4.5279451296664774E-4,1.60481254E9,,,,0,,3,,1.60481254E9
Raw,1933503512,1504824000000,,,-1311853870175767616,0.0,14.614139814808025,,,0,8,0.0,32961,54956927203664,42,32.98486328125,-561.5138562414318,0.10588456512091365,1,-543981.3621552577,0.0019995970651507378,1.60537498E9,,,,0,,3,,1.60537498E9
Raw,1933503512,1504824000000,,,-1311853870175767616,0.0,14.614139814808025,,,0,193,0.0,35,9210389,12,37.63466262817383,-254.23266532131697,0.06289108974660831,4,-369069.7502819097,3.4028234663852886E38,1.57542003E9,,,,0,,4,,1.57542003E9
Raw,1933503512,1504824000000,,,-1311853870175767616,0.0,14.614139814808025,,,0,194,0.0,35,12328084,11,38.25625228881836,-105.74543953487807,0.05922287799376236,4,-49762.90683126617,3.4028234663852886E38,1.57542003E9,,,,0,,4,,1.57542003E9
Raw,1933503512,1504824000000,,,-1311853870175767616,0.0,14.614139814808025,,,0,6,0.0,16431,44160878544296,12,31.23189353942871,-77.7310661744595,0.1313131813871946,4,-95790.26470457854,3.4028234663852886E38,1.56109798E9,,,,0,,5,,1.56109798E9
Raw,1933503513,1504824000000,,,-1311853870175767616,0.0,14.614139814808025,,,0,14,0.0,16431,44160924482472,11,32.58100891113281,122.9128921740155,0.1103728318979102,4,126947.16100522429,3.4028234663852886E38,1.56109798E9,,,,0,,5,,1.56109798E9
Raw,1933503513,1504824000000,,,-1311853870175767616,0.0,14.614139814808025,,,0,16,0.0,16431,44160877903344,10,32.86725616455078,-77.19368808246435,0.10923493882858626,4,-94897.28929371876,3.4028234663852886E38,1.56109798E9,,,,0,,5,,1.56109798E9
Raw,1933503513,1504824000000,,,-1311853870175767616,0.0,14.614139814808025,,,0,24,0.0,16431,44160924178550,6,41.7797966003418,12.463730684270828,0.038747679979895394,1,-82925.28214091407,7.874462171457708E-4,1.56109798E9,,,,0,,5,,1.56109798E9
Raw,1933503513,1504824000000,,,-1311853870175767616,0.0,14.614139814808025,,,0,25,0.0,16431,44160922626151,11,31.943256378173828,-591.3925144118057,0.11838644452509928,4,-612775.6940318482,3.4028234663852886E38,1.56109798E9,,,,0,,5,,1.56109798E9
Raw,1933503513,1504824000000,,,-1311853870175767616,0.0,14.614139814808025,,,0,26,0.0,16431,44160915435479,62,22.50718879699707,423.8480660194091,4.202776411279178,4,535603.0632339483,3.4028234663852886E38,1.56109798E9,,,,0,,5,,1.56109798E9
Raw,1933503514,1504824000000,,,-1311853870175767616,0.0,14.614139814808025,,,0,27,0.0,16431,44160913210353,15,29.423768997192383,112.34311294794958,0.15997031992234934,4,70921.76396117592,3.4028234663852886E38,1.56109798E9,,,,0,,5,,1.56109798E9
Raw,1933503514,1504824000000,,,-1311853870175767616,0.0,14.614139814808025,,,0,33,0.0,16431,44160925950751,6,38.89988708496094,-121.52697168258607,0.054004309712459786,4,-215544.10949635546,3.4028234663852886E38,1.56109798E9,,,,0,,5,,1.56109798E9
Fix,gps,34.486406,109.463889,359.148682,0.785493,4.000000,1627820157999
Raw,1933504545,1505824000000,,,-1311853870175768004,0.0,15.055926718312675,,,0,10,0.0,16431,44175931415555,11,38.58345031738281,-355.29713507121096,0.0569512772739697,4,-621822.9963944576,3.4028234663852886E38,1.57542003E9,,,,0,,1,,1.57542003E9
Raw,1933504545,1505824000000,,,-1311853870175768004,0.0,15.055926718312675,,,0,12,0.0,16431,44175923441548,13,36.776451110839844,-486.195683138347,0.06821270420505407,4,-765561.1466676536,3.4028234663852886E38,1.57542003E9,,,,0,,1,,1.57542003E9
Raw,1933504545,1505824000000,,,-1311853870175768004,0.0,15.055926718312675,,,0,15,0.0,16431,44175916486867,10,39.38738250732422,414.7753501754935,0.053010430831677974,1,723927.6510115616,9.749819291755557E-4,1.57542003E9,,,,0,,1,,1.57542003E9
Raw,1933504545,1505824000000,,,-1311853870175768004,0.0,15.055926718312675,,,0,18,0.0,16431,44175921354692,23,31.886005401611328,561.5876447598037,0.11893749693799555,4,813165.9307758838,3.4028234663852886E38,1.57542003E9,,,,0,,1,,1.57542003E9
Raw,1933504546,1505824000000,,,-1311853870175768004,0.0,15.055926718312675,,,0,23,0.0,16431,44175931375583,8,40.72344207763672,102.31314870952019,0.04495596668586127,1,45564.510563922224,8.811955922283232E-4,1.57542003E9,,,,0,,1,,1.57542003E9
Raw,1933504546,1505824000000,,,-1311853870175768004,0.0,15.055926718312675,,,0,24,0.0,16431,44175926222364,10,38.76093673706055,454.037488028358,0.05490677505140576,4,556846.8127626692,3.4028234663852886E38,1.57542003E9,,,,0,,1,,1.57542003E9
Raw,1933504546,1505824000000,,,-1311853870175768004,0.0,15.055926718312675,,,0,25,0.0,16431,44175922604759,8,40.7264518737793,-709.6093553138257,0.04336343977418747,1,-843834.998325649,8.808904094621539E-4,1.57542003E9,,,,0,,1,,1.57542003E9
Raw,1933504546,1505824000000,,,-1311853870175768004,0.0,15.055926718312675,,,0,31,0.0,16,1505017643800,1000000000,23.07821273803711,-833.3926111800643,2.99792458E8,2,-14.155504911548539,3.4028234663852886E38,1.57542003E9,,,,0,,1,,1.57542003E9
Raw,1933504546,1505824000000,,,-1311853870175768004,0.0,15.055926718312675,,,0,32,0.0,16431,44175926859262,16,35.00670623779297,-402.31425875144964,0.08410298804629157,4,-638730.1838173659,3.4028234663852886E38,1.57542003E9,,,,0,,1,,1.57542003E9
Raw,1933504546,1505824000000,,,-1311853870175768004,0.0,15.055926718312675,,,0,10,0.0,32995,54957930105188,58,30.224079132080078,-790.2237717482726,0.1455400774281479,4,-1277621.6110728118,3.4028234663852886E38,1.59806246E9,,,,0,,3,,1.59806246E9
Raw,1933504547,1505824000000,,,-1311853870175768004,0.0,15.055926718312675,,,0,9,0.0,32995,54957933603217,33,43.691368103027344,-123.93875707412383,0.03293708087315732,4,-372536.2748486721,3.4028234663852886E38,1.59862502E9,,,,0,,3,,1.59862502E9
Raw,1933504547,1505824000000,,,-1311853870175768004,0.0,15.055926718312675,,,0,16,0.0,17,85526,89,17.197011947631836,524.3635014771771,4.200914923360811,4,526387.132890443,3.4028234663852886E38,1.60143744E9,,,,0,,3,,1.60143744E9
Raw,1933504547,1505824000000,,,-1311853870175768004,0.0,15.055926718312675,,,0,23,0.0,32961,54957924501948,33,36.332706451416016,-23.042036914928048,0.07194640153720533,4,-6584.466692175355,3.4028234663852886E38,1.60368755E9,,,,0,,3,,1.60368755E9
Raw,1933504547,1505824000000,,,-1311853870175768004,0.0,15.055926718312675,,,0,7,0.0,32995,54957932741284,33,46.282772064208984,-178.65166535475657,0.0322918482151064,1,-318037.5426701411,4.5611869427375495E-4,1.60481254E9,,,,0,,3,,1.60481254E9
Raw,1933504547,1505824000000,,,-1311853870175768004,0.0,15.055926718312675,,,0,8,0.0,32961,54957927205467,37,33.96540451049805,-561.718112403373,0.09472003937328544,1,-544542.9559412922,0.0017861394444480538,1.60537498E9,,,,0,,3,,1.60537498E9
Raw,1933504547,1505824000000,,,-1311853870175768004,0.0,15.055926718312675,,,0,193,0.0,35,9211246,14,36.50862121582031,-254.2591473900352,0.07136722444094795,4,-369324.8929497083,3.4028234663852886E38,1.57542003E9,,,,0,,4,,1.57542003E9
Raw,1933504548,1505824000000,,,-1311853870175768004,0.0,15.055926718312675,,,0,194,0.0,35,12328430,15,35.9558219909668,-105.74486013311719,0.07650877435858472,4,-49868.746027514935,3.4028234663852886E38,1.57542003E9,,,,0,,4,,1.57542003E9
Raw,1933504548,1505824000000,,,-1311853870175768004,0.0,15.055926718312675,,,0,6,0.0,16431,44161878544558,13,30.73808479309082,-78.03582298007234,0.13879978071694016,4,-95868.3218152943,3.4028234663852886E38,1.56109798E9,,,,0,,5,,1.56109798E9
Raw,1933504548,1505824000000,,,-1311853870175768004,0.0,15.055926718312675,,,0,14,0.0,16431,44161924482053,7,36.071746826171875,123.46012861655987,0.0741124847689204,4,127071.06663530288,3.4028234663852886E38,1.56109798E9,,,,0,,5,,1.56109798E9
Raw,1933504548,1505824000000,,,-1311853870175768004,0.0,15.055926718312675,,,0,16,0.0,16431,44161877903583,11,32.10790252685547,-77.40424097824814,0.11892041410517296,4,-94975.15685220067,3.4028234663852886E38,1.56109798E9,,,,0,,5,,1.56109798E9
Raw,1933504548,1505824000000,,,-1311853870175768004,0.0,15.055926718312675,,,0,24,0.0,16431,44161924178497,6,42.62089920043945,12.380351149618072,0.035240835678061855,1,-82913.04577558201,7.147691212594509E-4,1.56109798E9,,,,0,,5,,1.56109798E9
Raw,1933504548,1505824000000,,,-1311853870175768004,0.0,15.055926718312675,,,0,25,0.0,16431,44161922628134,11,32.02381134033203,-591.3623173553265,0.11729828554821597,4,-613366.978292321,3.4028234663852886E38,1.56109798E9,,,,0,,5,,1.56109798E9
Raw,1933504549,1505824000000,,,-1311853870175768004,0.0,15.055926718312675,,,0,26,0.0,16431,44161915434092,63,22.2002010345459,424.2209962586817,4.202776145009986,4,536027.4888446112,3.4028234663852886E38,1.56109798E9,,,,0,,5,,1.56109798E9
Raw,1933504549,1505824000000,,,-1311853870175768004,0.0,15.055926718312675,,,0,27,0.0,16431,44161913209953,15,29.838903427124023,112.12305956741005,0.15261533246145664,4,71034.2000197774,3.4028234663852886E38,1.56109798E9,,,,0,,5,,1.56109798E9
Raw,1933504549,1505824000000,,,-1311853870175768004,0.0,15.055926718312675,,,0,33,0.0,16431,44161925951139,6,39.790077209472656,-121.20784912154886,0.0488480983474614,4,-215665.559840951,3.4028234663852886E38,1.56109798E9,,,,0,,5,,1.56109798E9
Fix,gps,34.486405,109.463892,359.357849,0.779674,4.000000,1627820158999
Raw,1933505535,1506824000000,,,-1311853870175768389,0.0,14.250816705917313,,,0,10,0.0,16431,44176931416762,10,38.71742248535156,-355.5842116025026,0.05611126038136252,4,-622178.3628258621,3.4028234663852886E38,1.57542003E9,,,,0,,1,,1.57542003E9
Raw,1933505535,1506824000000,,,-1311853870175768389,0.0,14.250816705917313,,,0,12,0.0,16431,44176923443170,15,35.61603927612305,-486.86853899502034,0.07787431926580113,4,-766047.3567184343,3.4028234663852886E38,1.57542003E9,,,,0,,1,,1.57542003E9
Raw,1933505535,1506824000000,,,-1311853870175768389,0.0,14.250816705917313,,,0,15,0.0,16431,44176916485476,13,36.961082458496094,414.9556804529557,0.06913734061465557,4,724342.4088039628,3.4028234663852886E38,1.57542003E9,,,,0,,1,,1.57542003E9
Raw,1933505536,1506824000000,,,-1311853870175768389,0.0,14.250816705917313,,,0,18,0.0,16431,44176921352784,22,32.34279251098633,562.4236874183082,0.11285639121511631,4,813728.1327843119,3.4028234663852886E38,1.57542003E9,,,,0,,1,,1.57542003E9
Raw,1933505536,1506824000000,,,-1311853870175768389,0.0,14.250816705917313,,,0,23,0.0,16431,44176931375244,8,41.183441162109375,102.56097929212581,0.042742562426254294,1,45666.954661974574,8.357421611435711E-4,1.57542003E9,,,,0,,1,,1.57542003E9
Raw,1933505536,1506824000000,,,-1311853870175768389,0.0,14.250816705917313,,,0,24,0.0,16431,44176926220858,9,39.96875762939453,454.2260662602987,0.04792377813252491,4,557300.9536143729,3.4028234663852886E38,1.57542003E9,,,,0,,1,,1.57542003E9
Raw,1933505536,1506824000000,,,-1311853870175768389,0.0,14.250816705917313,,,0,25,0.0,16431,44176922607116,8,41.07585525512695,-709.555914021998,0.04167259712397722,1,-844544.6462048667,8.46158538479358E-4,1.57542003E9,,,,0,,1,,1.57542003E9
Raw,1933505536,1506824000000,,,-1311853870175768389,0.0,14.250816705917313,,,0,31,0.0,16,1506017646577,1000000000,18.365564346313477,-833.3926111800643,2.99792458E8,2,-14.148987667653282,3.4028234663852886E38,1.57542003E9,,,,0,,1,,1.57542003E9
Raw,1933505536,1506824000000,,,-1311853870175768389,0.0,14.250816705917313,,,0,32,0.0,16431,44176926860559,16,35.13899612426758,-402.0893486208556,0.0828506408291475,4,-639132.5008924805,3.4028234663852886E38,1.57542003E9,,,,0,,1,,1.57542003E9
Raw,1933505537,1506824000000,,,-1311853870175768389,0.0,14.250816705917313,,,0,10,0.0,32995,54958930107735,39,33.55614471435547,-789.7993769996506,0.09974933186393264,4,-1278411.7125668372,3.4028234663852886E38,1.59806246E9,,,,0,,3,,1.59806246E9
Raw,1933505537,1506824000000,,,-1311853870175768389,0.0,14.250816705917313,,,0,9,0.0,32995,54958933603617,33,43.64703369140625,-123.79117151676593,0.03309317494603953,4,-372660.0985393707,3.4028234663852886E38,1.59862502E9,,,,0,,3,,1.59862502E9
Raw,1933505537,1506824000000,,,-1311853870175768389,0.0,14.250816705917313,,,0,16,0.0,16,5083700,1000000000,17.589569091796875,524.3052886414362,2.99792458E8,6,524710.1634158741,3.4028234663852886E38,1.60143744E9,,,,0,,3,,1.60143744E9
Raw,1933505537,1506824000000,,,-1311853870175768389,0.0,14.250816705917313,,,0,23,0.0,32961,54958924502071,34,34.74386978149414,-22.486156309348075,0.08622496212223824,4,-6607.162415797921,3.4028234663852886E38,1.60368755E9,,,,0,,3,,1.60368755E9
Raw,1933505537,1506824000000,,,-1311853870175768389,0.0,14.250816705917313,,,0,7,0.0,32995,54958932741878,33,45.24396896362305,-178.52034564977419,0.032291954306737425,1,-318216.1076265715,5.140650318935513E-4,1.60481254E9,,,,0,,3,,1.60481254E9
Raw,1933505538,1506824000000,,,-1311853870175768389,0.0,14.250816705917313,,,0,8,0.0,32961,54958927207387,37,33.99940490722656,-561.5837252773035,0.09435539203632276,1,-545104.5898754707,0.0017791613936424255,1.60537498E9,,,,0,,3,,1.60537498E9
Raw,1933505538,1506824000000,,,-1311853870175768389,0.0,14.250816705917313,,,0,193,0.0,35,9212080,12,37.352821350097656,-253.81946665966268,0.06491092878530175,4,-369578.8571805778,3.4028234663852886E38,1.57542003E9,,,,0,,4,,1.57542003E9
Raw,1933505539,1506824000000,,,-1311853870175768389,0.0,14.250816705917313,,,0,194,0.0,35,12328787,12,37.50971603393555,-105.70258084580064,0.0643392446705138,4,-49974.432428351734,3.4028234663852886E38,1.57542003E9,,,,0,,4,,1.57542003E9
Raw,1933505540,1506824000000,,,-1311853870175768389,0.0,14.250816705917313,,,0,6,0.0,16431,44162878544826,13,31.184608459472656,-78.3592058481749,0.13201188006682446,4,-95946.34793719256,3.4028234663852886E38,1.56109798E9,,,,0,,5,,1.56109798E9
Raw,1933505540,1506824000000,,,-1311853870175768389,0.0,14.250816705917313,,,0,14,0.0,16431,44162924481661,6,37.1678352355957,123.70289795437185,0.06542164141567297,4,127194.60878669826,3.4028234663852886E38,1.56109798E9,,,,0,,5,,1.56109798E9
Raw,1933505540,1506824000000,,,-1311853870175768389,0.0,14.250816705917313,,,0,16,0.0,16431,44162877903862,13,31.10129165649414,-76.66379961029008,0.1331368257967076,4,-95052.35589449841,3.4028234663852886E38,1.56109798E9,,,,0,,5,,1.56109798E9
Raw,1933505540,1506824000000,,,-1311853870175768389,0.0,14.250816705917313,,,0,24,0.0,16431,44162924178451,6,41.82976531982422,12.518376577921323,0.03852969704202233,1,-82900.53803477723,7.829288369975984E-4,1.56109798E9,,,,0,,5,,1.56109798E9
Raw,1933505540,1506824000000,,,-1311853870175768389,0.0,14.250816705917313,,,0,25,0.0,16431,44162922630112,11,32.051395416259766,-591.61261891603,0.11692821297647477,4,-613958.1297609479,3.4028234663852886E38,1.56109798E9,,,,0,,5,,1.56109798E9
Raw,1933505541,1506824000000,,,-1311853870175768389,0.0,14.250816705917313,,,0,26,0.0,16431,44162915432669,21,26.727783203125,424.17880217750644,0.21772682019440714,4,536451.6507168952,3.4028234663852886E38,1.56109798E9,,,,0,,5,,1.56109798E9
Raw,1933505541,1506824000000,,,-1311853870175768389,0.0,14.250816705917313,,,0,27,0.0,16431,44162913209592,12,31.33100128173828,111.94463790751314,0.1289016728490488,4,71147.10983737133,3.4028234663852886E38,1.56109798E9,,,,0,,5,,1.56109798E9
Raw,1933505541,1506824000000,,,-1311853870175768389,0.0,14.250816705917313,,,0,33,0.0,16431,44162925951551,6,38.53925323486328,-121.17919429622731,0.056248501347343716,4,-215786.8002679466,3.4028234663852886E38,1.56109798E9,,,,0,,5,,1.56109798E9
Fix,gps,34.486405,109.463897,359.519104,0.777899,4.000000,1627820159999
Raw,1933506526,1507824000000,,,-1311853870175768777,0.0,13.943365112167251,,,0,10,0.0,16431,44177931417931,8,40.824466705322266,-355.21267874394744,0.04446739184249662,4,-622533.7433497201,3.4028234663852886E38,1.57542003E9,,,,0,,1,,1.57542003E9
Raw,1933506526,1507824000000,,,-1311853870175768777,0.0,13.943365112167251,,,0,12,0.0,16431,44177923444776,20,33.326332092285156,-485.9017901157508,0.10117652640991309,4,-766533.4464197065,3.4028234663852886E38,1.57542003E9,,,,0,,1,,1.57542003E9
Raw,1933506527,1507824000000,,,-1311853870175768777,0.0,13.943365112167251,,,0,15,0.0,16431,44177916484097,13,36.569496154785156,414.89675188562774,0.07218859000877587,4,724757.0787225353,3.4028234663852886E38,1.57542003E9,,,,0,,1,,1.57542003E9
Raw,1933506527,1507824000000,,,-1311853870175768777,0.0,13.943365112167251,,,0,18,0.0,16431,44177921350908,29,30.224184036254883,563.1512115352441,0.1439636473211966,4,814290.5397587055,3.4028234663852886E38,1.57542003E9,,,,0,,1,,1.57542003E9
Raw,1933506527,1507824000000,,,-1311853870175768777,0.0,13.943365112167251,,,0,23,0.0,16431,44177931374910,7,41.91557693481445,102.69452287739631,0.03945278160149163,1,45769.416365846286,7.681844290345907E-4,1.57542003E9,,,,0,,1,,1.57542003E9
Raw,1933506528,1507824000000,,,-1311853870175768777,0.0,13.943365112167251,,,0,24,0.0,16431,44177926219336,6,42.88288879394531,454.26556782740863,0.03458317989804108,1,557755.0175677093,6.872265366837382E-4,1.57542003E9,,,,0,,1,,1.57542003E9
Raw,1933506528,1507824000000,,,-1311853870175768777,0.0,13.943365112167251,,,0,25,0.0,16431,44177922609500,8,41.178001403808594,-709.5267394392145,0.04119130723927608,1,-845254.259040697,8.362658554688096E-4,1.57542003E9,,,,0,,1,,1.57542003E9
Raw,1933506529,1507824000000,,,-1311853870175768777,0.0,13.943365112167251,,,0,31,0.0,16,1507017649356,1000000000,18.72429656982422,-833.206929956928,2.99792458E8,2,-14.139319666485337,3.4028234663852886E38,1.57542003E9,,,,0,,1,,1.57542003E9
Raw,1933506529,1507824000000,,,-1311853870175768777,0.0,13.943365112167251,,,0,32,0.0,16431,44177926861936,13,36.718772888183594,-402.51950330463,0.06927826774475776,4,-639534.7485001534,3.4028234663852886E38,1.57542003E9,,,,0,,1,,1.57542003E9
Raw,1933506529,1507824000000,,,-1311853870175768777,0.0,13.943365112167251,,,0,10,0.0,32995,54959930110425,41,33.138729095458984,-789.9357749906549,0.10457100927335411,4,-1279201.781279116,3.4028234663852886E38,1.59806246E9,,,,0,,3,,1.59806246E9
Raw,1933506529,1507824000000,,,-1311853870175768777,0.0,13.943365112167251,,,0,9,0.0,32995,54959933604019,33,43.63178634643555,-123.45896129242396,0.033147084056195084,4,-372783.8001516722,3.4028234663852886E38,1.59862502E9,,,,0,,3,,1.59862502E9
Raw,1933506530,1507824000000,,,-1311853870175768777,0.0,13.943365112167251,,,0,16,0.0,16,5081957,1000000000,17.957521438598633,524.5088631542469,2.99792458E8,4,524290.629115995,3.4028234663852886E38,1.60143744E9,,,,0,,3,,1.60143744E9
Raw,1933506530,1507824000000,,,-1311853870175768777,0.0,13.943365112167251,,,0,23,0.0,32961,54959924502106,36,34.278472900390625,-22.17707103175684,0.09092642731257156,4,-6629.603776160209,3.4028234663852886E38,1.60368755E9,,,,0,,3,,1.60368755E9
Raw,1933506530,1507824000000,,,-1311853870175768777,0.0,13.943365112167251,,,0,7,0.0,32995,54959932742486,33,45.37133026123047,-178.38692987371564,0.032292064558824565,1,-318394.67144490156,5.065821460448205E-4,1.60481254E9,,,,0,,3,,1.60481254E9
Raw,1933506530,1507824000000,,,-1311853870175768777,0.0,13.943365112167251,,,0,8,0.0,32961,54959927209228,33,35.99385452270508,-561.91231424064,0.07526337510315856,1,-545666.260686606,0.001414141384884715,1.60537498E9,,,,0,,3,,1.60537498E9
