# 
# Header Description:
# 
# Version: v2.0.0.1 Platform: 10 Manufacturer: HUAWEI Model: BLA-AL00
# 
# Raw,ElapsedRealtimeMillis,TimeNanos,LeapSecond,TimeUncertaintyNanos,FullBiasNanos,BiasNanos,BiasUncertaintyNanos,DriftNanosPerSecond,DriftUncertaintyNanosPerSecond,HardwareClockDiscontinuityCount,Svid,TimeOffsetNanos,State,ReceivedSvTimeNanos,ReceivedSvTimeUncertaintyNanos,Cn0DbHz,PseudorangeRateMetersPerSecond,PseudorangeRateUncertaintyMetersPerSecond,AccumulatedDeltaRangeState,AccumulatedDeltaRangeMeters,AccumulatedDeltaRangeUncertaintyMeters,CarrierFrequencyHz,CarrierCycles,CarrierPhase,CarrierPhaseUncertainty,MultipathIndicator,SnrInDb,ConstellationType,AgcDb,CarrierFrequencyHz
# 
# Fix,Provider,Latitude,Longitude,Altitude,Speed,Accuracy,(UTC)TimeInMs
# 
# Nav,Svid,Type,Status,MessageId,Sub-messageId,Data(Bytes)
# 
Fix,gps,34.486423,109.463888,358.018890,0.000000,3.000000,1627951943999
Raw,2065291133,1545291000000,,,-1311985616708712296,0.0,7.830846076337331,,,0,1,0.0,16,1545005309764,1000000000,7.0,497.73348081518793,2.99792458E8,2,524290.485778449,3.4028234663852886E38,1.57542003E9,,,,0,,1,,1.57542003E9
Raw,2065291134,1545291000000,,,-1311985616708712296,0.0,7.830846076337331,,,0,2,0.0,16,1545014296994,1000000000,9.572372436523438,-695.6386837254736,2.99792458E8,2,-9.71926394364781,3.4028234663852886E38,1.57542003E9,,,,0,,1,,1.57542003E9
Raw,2065291134,1545291000000,,,-1311985616708712296,0.0,7.830846076337331,,,0,3,0.0,16431,175961925952381,7,42.5478515625,-183.05774308665593,0.03585119539292744,1,-3126.7939054423086,7.142527610994875E-4,1.57542003E9,,,,0,,1,,1.57542003E9
Raw,2065291134,1545291000000,,,-1311985616708712296,0.0,7.830846076337331,,,0,6,0.0,16431,175961924440905,33,29.04730987548828,-645.6667814769899,0.16537343771615665,4,-558613.561936142,3.4028234663852886E38,1.57542003E9,,,,0,,1,,1.57542003E9
Raw,2065291135,1545291000000,,,-1311985616708712296,0.0,7.830846076337331,,,0,14,0.0,16431,175961932443576,8,40.579383850097656,-74.35173096592393,0.045865671218453447,1,-238346.07771434804,8.959323167800903E-4,1.57542003E9,,,,0,,1,,1.57542003E9
Raw,2065291135,1545291000000,,,-1311985616708712296,0.0,7.830846076337331,,,0,17,0.0,16431,175961929454965,9,39.72267532348633,-188.85823636227303,0.049850522805110625,4,-73958.21237094494,3.4028234663852886E38,1.57542003E9,,,,0,,1,,1.57542003E9
Raw,2065291135,1545291000000,,,-1311985616708712296,0.0,7.830846076337331,,,0,19,0.0,16431,175961927567743,21,32.95505905151367,-440.17052935520474,0.10630953907159468,4,-607631.6100873278,3.4028234663852886E38,1.57542003E9,,,,0,,1,,1.57542003E9
Raw,2065291136,1545291000000,,,-1311985616708712296,0.0,7.830846076337331,,,0,21,0.0,16,1545015752543,1000000000,22.195842742919922,474.898303109818,2.99792458E8,2,524295.1105050958,3.4028234663852886E38,1.57542003E9,,,,0,,1,,1.57542003E9
Raw,2065291136,1545291000000,,,-1311985616708712296,0.0,7.830846076337331,,,0,22,0.0,16431,175961922717298,6,47.01765441894531,147.8019127919065,0.03048877518087137,4,15017.113973164061,3.4028234663852886E38,1.57542003E9,,,,0,,1,,1.57542003E9
Raw,2065291136,1545291000000,,,-1311985616708712296,0.0,7.830846076337331,,,0,24,0.0,16431,175961916500380,23,32.08161163330078,-394.0788125344734,0.11901874232507775,4,-533779.6599132755,3.4028234663852886E38,1.57542003E9,,,,0,,1,,1.57542003E9
Raw,2065291136,1545291000000,,,-1311985616708712296,0.0,7.830846076337331,,,0,30,0.0,16431,175961921272428,12,37.85273742675781,486.47256901513833,0.059944991720427165,1,84274.17288757964,0.0011633994290605187,1.57542003E9,,,,0,,1,,1.57542003E9
Raw,2065291137,1545291000000,,,-1311985616708712296,0.0,7.830846076337331,,,0,10,0.0,99,1921609935,33,36.879390716552734,-852.7172276986716,0.06708688477938604,4,-544767.2966120238,3.4028234663852886E38,1.59806246E9,,,,0,,3,,1.59806246E9
Raw,2065291137,1545291000000,,,-1311985616708712296,0.0,7.830846076337331,,,0,2,0.0,32995,13943919999822,71,20.72042465209961,-10.36292747204515,4.203597585466024,4,-1242.99201687611,3.4028234663852886E38,1.59975002E9,,,,0,,3,,1.59975002E9
Raw,2065291137,1545291000000,,,-1311985616708712296,0.0,7.830846076337331,,,0,18,0.0,16,1545008054370,1000000000,7.0,377.95252781842305,2.99792458E8,2,3.0344931717409294,3.4028234663852886E38,1.60031245E9,,,,0,,3,,1.60031245E9
Raw,2065291138,1545291000000,,,-1311985616708712296,0.0,7.830846076337331,,,0,9,0.0,32995,13943933031654,33,36.76628875732422,-380.39371784932587,0.07001683191491515,4,-566717.4020972773,3.4028234663852886E38,1.59862502E9,,,,0,,3,,1.59862502E9
Raw,2065291138,1545291000000,,,-1311985616708712296,0.0,7.830846076337331,,,0,16,0.0,32995,13943932671991,63,29.441987991333008,384.2512384434906,0.15954329070634576,4,18307.206118285467,3.4028234663852886E38,1.60143744E9,,,,0,,3,,1.60143744E9
Raw,2065291138,1545291000000,,,-1311985616708712296,0.0,7.830846076337331,,,0,19,0.0,99,1933173288,75,27.90489959716797,-17.899748299986527,0.19007781010224012,4,-201.61468090913223,3.4028234663852886E38,1.60368755E9,,,,0,,3,,1.60368755E9
Raw,2065291139,1545291000000,,,-1311985616708712296,0.0,7.830846076337331,,,0,3,0.0,32995,13943922312129,33,45.21870422363281,-506.1734899362141,0.03041589855127154,1,-710016.8560665518,5.155623657628894E-4,1.60481254E9,,,,0,,3,,1.60481254E9
Raw,2065291139,1545291000000,,,-1311985616708712296,0.0,7.830846076337331,,,0,193,0.0,1,296786,9,40.095191955566406,-180.7091039664408,0.048160449839282304,1,-6849.650494517831,8.986822795122862E-4,1.57542003E9,,,,0,,4,,1.57542003E9
Raw,2065291139,1545291000000,,,-1311985616708712296,0.0,7.830846076337331,,,0,194,0.0,35,15746557,10,39.06271743774414,-148.8533054519504,0.0547832552697034,1,-58171.00072741562,0.001012115040794015,1.57542003E9,,,,0,,4,,1.57542003E9
Raw,2065291139,1545291000000,,,-1311985616708712296,0.0,7.830846076337331,,,0,195,0.0,1,863890,6,42.650672912597656,-121.23740713196827,0.035785722294990496,4,-53916.78241202993,3.4028234663852886E38,1.57542003E9,,,,0,,4,,1.57542003E9
Raw,2065291140,1545291000000,,,-1311985616708712296,0.0,7.830846076337331,,,0,7,0.0,16431,175947879711435,8,34.7850341796875,-98.78569966555062,0.08855691441848595,1,-159935.08261262978,0.0016713989898562431,1.56109798E9,,,,0,,5,,1.56109798E9
Raw,2065291140,1545291000000,,,-1311985616708712296,0.0,7.830846076337331,,,0,8,0.0,16431,175947878013673,11,32.04288101196289,-204.79957262800235,0.11980956182408359,1,-328284.7335783157,0.002160785486921668,1.56109798E9,,,,0,,5,,1.56109798E9
Raw,2065291140,1545291000000,,,-1311985616708712296,0.0,7.830846076337331,,,0,10,0.0,16431,175947880291253,8,35.18952178955078,-163.29869453598053,0.08479313282814177,1,-226071.42433749835,0.0015953494003042579,1.56109798E9,,,,0,,5,,1.56109798E9
Raw,2065291141,1545291000000,,,-1311985616708712296,0.0,7.830846076337331,,,0,30,0.0,16431,175947924387485,13,31.119796752929688,-317.40020409682415,0.13042908446201185,4,-123154.84600958471,3.4028234663852886E38,1.56109798E9,,,,0,,5,,1.56109798E9
Raw,2065291141,1545291000000,,,-1311985616708712296,0.0,7.830846076337331,,,0,32,0.0,16431,175947913099496,6,38.67922592163086,-649.5287327905025,0.05665217792315411,1,-246205.81027661808,0.0010675067314878106,1.56109798E9,,,,0,,5,,1.56109798E9
Raw,2065291141,1545291000000,,,-1311985616708712296,0.0,7.830846076337331,,,0,33,0.0,16431,175947910816887,27,24.681835174560547,23.84255926327522,0.2739881191047714,4,204.2611719394739,3.4028234663852886E38,1.56109798E9,,,,0,,5,,1.56109798E9
Raw,2065291142,1545291000000,,,-1311985616708712296,0.0,7.830846076337331,,,0,36,0.0,16431,175947920659267,16,29.325122833251953,-326.31961705130016,0.16311021615498666,4,-166137.93605004722,3.4028234663852886E38,1.56109798E9,,,,0,,5,,1.56109798E9
Fix,gps,34.486423,109.463888,357.901459,0.000000,3.000000,1627951944999
Raw,2065292186,1546291000000,,,-1311985616708712681,0.0,7.309058899623201,,,0,1,0.0,16,1546005308104,1000000000,7.0,497.73348081518793,2.99792458E8,2,524290.4818861053,3.4028234663852886E38,1.57542003E9,,,,0,,1,,1.57542003E9
Raw,2065292186,1546291000000,,,-1311985616708712681,0.0,7.309058899623201,,,0,2,0.0,16,1546014299313,1000000000,7.0,-695.4530706672504,2.99792458E8,2,-9.732986297614298,3.4028234663852886E38,1.57542003E9,,,,0,,1,,1.57542003E9
Raw,2065292187,1546291000000,,,-1311985616708712681,0.0,7.309058899623201,,,0,3,0.0,16431,175962925952987,6,44.78837966918945,-183.07626690177608,0.031070795948885746,1,-3309.916359791147,5.518556572496891E-4,1.57542003E9,,,,0,,1,,1.57542003E9
Raw,2065292187,1546291000000,,,-1311985616708712681,0.0,7.309058899623201,,,0,6,0.0,16431,175962924442965,50,25.446386337280273,-645.4807594292884,0.24991944777177133,4,-559259.07230222,3.4028234663852886E38,1.57542003E9,,,,0,,1,,1.57542003E9
Raw,2065292187,1546291000000,,,-1311985616708712681,0.0,7.309058899623201,,,0,14,0.0,16431,175962932443809,16,35.05055236816406,-74.3667613292505,0.08469026139015556,1,-238420.4670420877,0.0016063422663137317,1.57542003E9,,,,0,,1,,1.57542003E9
Raw,2065292188,1546291000000,,,-1311985616708712681,0.0,7.309058899623201,,,0,17,0.0,16431,175962929455605,12,37.84505081176758,-189.0702292418449,0.06146981969014062,4,-74147.31094575427,3.4028234663852886E38,1.57542003E9,,,,0,,1,,1.57542003E9
Raw,2065292188,1546291000000,,,-1311985616708712681,0.0,7.309058899623201,,,0,19,0.0,16431,175962927569259,22,32.39950942993164,-440.06354452417963,0.11324164945169007,4,-608071.6613541099,3.4028234663852886E38,1.57542003E9,,,,0,,1,,1.57542003E9
Raw,2065292188,1546291000000,,,-1311985616708712681,0.0,7.309058899623201,,,0,21,0.0,16,1546015750959,1000000000,18.859878540039062,474.71265596913827,2.99792458E8,2,524295.1188625427,3.4028234663852886E38,1.57542003E9,,,,0,,1,,1.57542003E9
Raw,2065292188,1546291000000,,,-1311985616708712681,0.0,7.309058899623201,,,0,22,0.0,16431,175962922716804,6,47.390281677246094,147.77785057760138,0.03048868781129288,4,15164.833839156934,3.4028234663852886E38,1.57542003E9,,,,0,,1,,1.57542003E9
Raw,2065292189,1546291000000,,,-1311985616708712681,0.0,7.309058899623201,,,0,24,0.0,16431,175962916501841,166,32.78146743774414,-393.8803844725976,0.11003512767477097,4,-534173.660687185,3.4028234663852886E38,1.57542003E9,,,,1,,1,,1.57542003E9
Raw,2065292189,1546291000000,,,-1311985616708712681,0.0,7.309058899623201,,,0,30,0.0,16431,175962921270796,12,37.71106719970703,486.47573868359495,0.06092668046478175,1,84760.69963247076,0.001182530540972948,1.57542003E9,,,,0,,1,,1.57542003E9
Raw,2065292189,1546291000000,,,-1311985616708712681,0.0,7.309058899623201,,,0,10,0.0,99,921612828,33,37.48931121826172,-852.604278437755,0.06255780808832306,4,-545619.9399439456,3.4028234663852886E38,1.59806246E9,,,,0,,3,,1.59806246E9
Raw,2065292189,1546291000000,,,-1311985616708712681,0.0,7.309058899623201,,,0,2,0.0,32995,13944919999649,85,17.93671226501465,-10.618575718115686,4.203597585466024,4,-1254.465861641677,3.4028234663852886E38,1.59975002E9,,,,0,,3,,1.59975002E9
Raw,2065292190,1546291000000,,,-1311985616708712681,0.0,7.309058899623201,,,0,18,0.0,16,1546008052987,1000000000,25.14752960205078,377.95252781842305,2.99792458E8,2,3.028576106953806,3.4028234663852886E38,1.60031245E9,,,,0,,3,,1.60031245E9
Raw,2065292190,1546291000000,,,-1311985616708712681,0.0,7.309058899623201,,,0,9,0.0,32995,13944933033017,33,39.07154846191406,-380.29194763414876,0.054242371011560764,4,-567097.7680686623,3.4028234663852886E38,1.59862502E9,,,,0,,3,,1.59862502E9
Raw,2065292190,1546291000000,,,-1311985616708712681,0.0,7.309058899623201,,,0,16,0.0,32995,13944932670762,47,31.996444702148438,384.5354179659778,0.11947338864879598,4,18691.680121648333,3.4028234663852886E38,1.60143744E9,,,,0,,3,,1.60143744E9
Raw,2065292190,1546291000000,,,-1311985616708712681,0.0,7.309058899623201,,,0,19,0.0,99,933173282,94,25.97859001159668,-17.885925733712995,0.23668390521473592,4,-219.71801522211925,3.4028234663852886E38,1.60368755E9,,,,0,,3,,1.60368755E9
Raw,2065292191,1546291000000,,,-1311985616708712681,0.0,7.309058899623201,,,0,3,0.0,32995,13944922313803,33,45.623390197753906,-506.2244432087157,0.03041620018434013,1,-710523.1194084248,4.920928622595966E-4,1.60481254E9,,,,0,,3,,1.60481254E9
Raw,2065292191,1546291000000,,,-1311985616708712681,0.0,7.309058899623201,,,0,193,0.0,1,297381,9,39.67498779296875,-180.79466797354132,0.05044701988018935,1,-7030.423463426476,9.432272054255009E-4,1.57542003E9,,,,0,,4,,1.57542003E9
Raw,2065292191,1546291000000,,,-1311985616708712681,0.0,7.309058899623201,,,0,194,0.0,35,15747086,9,40.38633728027344,-148.92070350972426,0.04744039553839616,1,-58319.9050642812,8.69058130774647E-4,1.57542003E9,,,,0,,4,,1.57542003E9
Raw,2065292191,1546291000000,,,-1311985616708712681,0.0,7.309058899623201,,,0,195,0.0,1,864306,11,38.28793716430664,-121.31648695171532,0.0582123988930677,4,-54038.086415075515,3.4028234663852886E38,1.57542003E9,,,,0,,4,,1.57542003E9
Raw,2065292191,1546291000000,,,-1311985616708712681,0.0,7.309058899623201,,,0,7,0.0,16431,175948879711747,6,36.933109283447266,-98.8957860001193,0.06993110987704942,1,-160033.98738319858,0.0013051980640739202,1.56109798E9,,,,0,,5,,1.56109798E9
Raw,2065292192,1546291000000,,,-1311985616708712681,0.0,7.309058899623201,,,0,8,0.0,16431,175948878014369,8,35.350120544433594,-205.0252666550964,0.08289705487760557,1,-328489.76898419345,0.0015661231009289622,1.56109798E9,,,,0,,5,,1.56109798E9
Raw,2065292192,1546291000000,,,-1311985616708712681,0.0,7.309058899623201,,,0,10,0.0,16431,175948880291804,11,32.49635314941406,-163.42479962511493,0.11428963506429307,1,-226234.85430584627,0.0020508693996816874,1.56109798E9,,,,0,,5,,1.56109798E9
Raw,2065292192,1546291000000,,,-1311985616708712681,0.0,7.309058899623201,,,0,30,0.0,16431,175948924388519,14,30.528282165527344,-317.50746158750144,0.13956537121004337,4,-123472.40032181737,3.4028234663852886E38,1.56109798E9,,,,0,,5,,1.56109798E9
Raw,2065292192,1546291000000,,,-1311985616708712681,0.0,7.309058899623201,,,0,32,0.0,16431,175948913101713,8,34.739830017089844,-649.7600163404663,0.0878115687048554,1,-246855.38350118874,0.0015840326668694615,1.56109798E9,,,,0,,5,,1.56109798E9
Raw,2065292193,1546291000000,,,-1311985616708712681,0.0,7.309058899623201,,,0,33,0.0,16431,175948910816775,21,26.626502990722656,23.527228375526178,0.21941762956096844,4,227.71379533471375,3.4028234663852886E38,1.56109798E9,,,,0,,5,,1.56109798E9
Raw,2065292193,1546291000000,,,-1311985616708712681,0.0,7.309058899623201,,,0,36,0.0,16431,175948920660347,9,33.89235305786133,-326.07081511868364,0.0979292737675938,4,-166464.0581226761,3.4028234663852886E38,1.56109798E9,,,,0,,5,,1.56109798E9
Fix,gps,34.486423,109.463888,357.823608,0.000000,2.000000,1627951945999
Raw,2065293159,1547291000000,,,-1311985616708713067,0.0,7.112522450948464,,,0,1,0.0,16,1547005306444,1000000000,7.0,497.73348081518793,2.99792458E8,2,524290.4779937614,3.4028234663852886E38,1.57542003E9,,,,0,,1,,1.57542003E9
Raw,2065293159,1547291000000,,,-1311985616708713067,0.0,7.112522450948464,,,0,2,0.0,16,1547014301633,1000000000,8.410177230834961,-695.4530706672504,2.99792458E8,2,-9.727547759574218,3.4028234663852886E38,1.57542003E9,,,,0,,1,,1.57542003E9
Raw,2065293160,1547291000000,,,-1311985616708713067,0.0,7.112522450948464,,,0,3,0.0,16431,175963925953596,6,44.85966491699219,-182.89736808748785,0.031070906200972886,1,-3492.9009857314345,5.473449709825218E-4,1.57542003E9,,,,0,,1,,1.57542003E9
Raw,2065293160,1547291000000,,,-1311985616708713067,0.0,7.112522450948464,,,0,6,0.0,16431,175963924445201,57,24.245512008666992,-645.3958259476335,0.28685669279033,4,-559904.6112089521,3.4028234663852886E38,1.57542003E9,,,,0,,1,,1.57542003E9
Raw,2065293160,1547291000000,,,-1311985616708713067,0.0,7.112522450948464,,,0,14,0.0,16431,175963932444104,19,33.835487365722656,-73.99706892334757,0.09707017286277103,1,-238494.725850608,0.0018475294345989823,1.57542003E9,,,,0,,1,,1.57542003E9
Raw,2065293160,1547291000000,,,-1311985616708713067,0.0,7.112522450948464,,,0,17,0.0,16431,175963929456237,12,37.27144241333008,-189.04015147396353,0.06555026607703274,4,-74336.34091163319,3.4028234663852886E38,1.57542003E9,,,,0,,1,,1.57542003E9
Raw,2065293161,1547291000000,,,-1311985616708713067,0.0,7.112522450948464,,,0,19,0.0,16431,175963927570688,23,32.000732421875,-440.1404686285516,0.11849816109279343,4,-608511.7025824564,3.4028234663852886E38,1.57542003E9,,,,0,,1,,1.57542003E9
Raw,2065293161,1547291000000,,,-1311985616708713067,0.0,7.112522450948464,,,0,21,0.0,16,1547015749376,1000000000,21.380847930908203,474.71265596913827,2.99792458E8,2,524295.1151502248,3.4028234663852886E38,1.57542003E9,,,,0,,1,,1.57542003E9
Raw,2065293162,1547291000000,,,-1311985616708713067,0.0,7.112522450948464,,,0,22,0.0,16431,175963922716310,6,47.51289749145508,147.94216210049785,0.030488598361486333,1,15312.701585958133,4.032733850181103E-4,1.57542003E9,,,,0,,1,,1.57542003E9
Raw,2065293162,1547291000000,,,-1311985616708713067,0.0,7.112522450948464,,,0,24,0.0,16431,175963916503171,166,32.991493225097656,-393.79575773305146,0.10747752055956766,4,-534567.5320304044,3.4028234663852886E38,1.57542003E9,,,,1,,1,,1.57542003E9
Raw,2065293163,1547291000000,,,-1311985616708713067,0.0,7.112522450948464,,,0,30,0.0,16431,175963921269185,13,37.16695785522461,486.5345309210968,0.06485031510011122,1,85247.19452062214,0.0012589771067723632,1.57542003E9,,,,0,,1,,1.57542003E9
Raw,2065293163,1547291000000,,,-1311985616708713067,0.0,7.112522450948464,,,0,10,0.0,99,1921615644,33,37.23931884765625,-852.4639268817941,0.06437650155505503,4,-546472.4767349297,3.4028234663852886E38,1.59806246E9,,,,0,,3,,1.59806246E9
Raw,2065293163,1547291000000,,,-1311985616708713067,0.0,7.112522450948464,,,0,2,0.0,32995,13945919999556,84,18.202106475830078,-10.902400570039688,4.203597585466024,4,-1265.846689011041,3.4028234663852886E38,1.59975002E9,,,,0,,3,,1.59975002E9
Raw,2065293163,1547291000000,,,-1311985616708713067,0.0,7.112522450948464,,,0,18,0.0,16,1547008051726,1000000000,20.087387084960938,377.95252781842305,2.99792458E8,2,3.022659042130988,3.4028234663852886E38,1.60031245E9,,,,0,,3,,1.60031245E9
Raw,2065293164,1547291000000,,,-1311985616708713067,0.0,7.112522450948464,,,0,9,0.0,32995,13945933034272,33,39.28969192504883,-380.14014437279616,0.052955417120422954,4,-567477.9745803488,3.4028234663852886E38,1.59862502E9,,,,0,,3,,1.59862502E9
Raw,2065293164,1547291000000,,,-1311985616708713067,0.0,7.112522450948464,,,0,16,0.0,32995,13945932669486,44,32.532413482666016,384.64291403385073,0.11246021594168759,4,19076.245953290738,3.4028234663852886E38,1.60143744E9,,,,0,,3,,1.60143744E9
Raw,2065293164,1547291000000,,,-1311985616708713067,0.0,7.112522450948464,,,0,19,0.0,99,1933173363,114,24.374391555786133,-18.03907951240531,0.28421353837641794,4,-237.75878294763913,3.4028234663852886E38,1.60368755E9,,,,0,,3,,1.60368755E9
Raw,2065293165,1547291000000,,,-1311985616708713067,0.0,7.112522450948464,,,0,3,0.0,32995,13945922315493,33,45.34299087524414,-506.07584369827623,0.030416503897636782,1,-711029.2595155367,5.08237921167165E-4,1.60481254E9,,,,0,,3,,1.60481254E9
Raw,2065293165,1547291000000,,,-1311985616708713067,0.0,7.112522450948464,,,0,193,0.0,1,297992,10,39.464359283447266,-180.82503544230315,0.05163550825637045,1,-7211.2261590330045,9.663795935921371E-4,1.57542003E9,,,,0,,4,,1.57542003E9
Raw,2065293165,1547291000000,,,-1311985616708713067,0.0,7.112522450948464,,,0,194,0.0,35,15747572,10,39.41569519042969,-148.88933060849502,0.052714568315722576,1,-58468.83345273985,9.718090295791626E-4,1.57542003E9,,,,0,,4,,1.57542003E9
Raw,2065293166,1547291000000,,,-1311985616708713067,0.0,7.112522450948464,,,0,195,0.0,1,864723,11,38.05323791503906,-121.28928915141012,0.05976809744718048,1,-54159.38271124146,0.0011368516134098172,1.57542003E9,,,,0,,4,,1.57542003E9
Raw,2065293166,1547291000000,,,-1311985616708713067,0.0,7.112522450948464,,,0,7,0.0,16431,175949879712085,6,36.94561767578125,-98.85735803038983,0.06983564405095416,1,-160132.88084458525,0.0013033199356868863,1.56109798E9,,,,0,,5,,1.56109798E9
Raw,2065293166,1547291000000,,,-1311985616708713067,0.0,7.112522450948464,,,0,8,0.0,16431,175949878015055,8,35.156890869140625,-204.97344427995347,0.08468912142517909,1,-328694.7749765164,0.0016013539861887693,1.56109798E9,,,,0,,5,,1.56109798E9
Raw,2065293166,1547291000000,,,-1311985616708713067,0.0,7.112522450948464,,,0,10,0.0,16431,175949880292342,13,30.90199089050293,-163.2717693953275,0.13658189148563743,1,-226398.24327682302,0.0024640876799821854,1.56109798E9,,,,0,,5,,1.56109798E9
Raw,2065293167,1547291000000,,,-1311985616708713067,0.0,7.112522450948464,,,0,30,0.0,16431,175949924389573,14,30.515207290649414,-317.54335041421996,0.1397746005482431,4,-123789.94077343305,3.4028234663852886E38,1.56109798E9,,,,0,,5,,1.56109798E9
Raw,2065293167,1547291000000,,,-1311985616708713067,0.0,7.112522450948464,,,0,32,0.0,16431,175949913103880,12,31.778453826904297,-649.735681466509,0.12252970963892473,1,-247505.04795971815,0.0022275778464972973,1.56109798E9,,,,0,,5,,1.56109798E9
Raw,2065293167,1547291000000,,,-1311985616708713067,0.0,7.112522450948464,,,0,33,0.0,16431,175949910816681,20,27.102720260620117,23.696854631486673,0.20781534894146314,4,251.30450880390478,3.4028234663852886E38,1.56109798E9,,,,0,,5,,1.56109798E9
Raw,2065293168,1547291000000,,,-1311985616708713067,0.0,7.112522450948464,,,0,36,0.0,16431,175949920661425,9,34.120059967041016,-326.0024457108989,0.09549167916958495,4,-166790.09743963415,3.4028234663852886E38,1.56109798E9,,,,0,,5,,1.56109798E9
Fix,gps,34.486423,109.463888,357.734222,0.000000,2.000000,1627951946999
Raw,2065294162,1548291000000,,,-1311985616708713455,0.0,7.190089171102883,,,0,1,0.0,16,1548005304844,1000000000,9.093742370605469,497.9191279558677,2.99792458E8,2,524290.4750241772,3.4028234663852886E38,1.57542003E9,,,,0,,1,,1.57542003E9
Raw,2065294162,1548291000000,,,-1311985616708713455,0.0,7.190089171102883,,,0,2,0.0,16,1548014303953,1000000000,7.0,-695.4530706672504,2.99792458E8,2,-9.72210922137601,3.4028234663852886E38,1.57542003E9,,,,0,,1,,1.57542003E9
Raw,2065294163,1548291000000,,,-1311985616708713455,0.0,7.190089171102883,,,0,3,0.0,16431,175964925954200,6,46.38212585449219,-182.79392783194112,0.031071014372831968,1,-3675.774668470106,4.5934406807646155E-4,1.57542003E9,,,,0,,1,,1.57542003E9
Raw,2065294163,1548291000000,,,-1311985616708713455,0.0,7.190089171102883,,,0,6,0.0,16431,175964924447150,65,21.92549705505371,-645.7960903170374,4.2007998950700465,4,-560549.5728966617,3.4028234663852886E38,1.57542003E9,,,,0,,1,,1.57542003E9
Raw,2065294163,1548291000000,,,-1311985616708713455,0.0,7.190089171102883,,,0,14,0.0,16431,175964932444317,16,35.19899368286133,-74.13296419811815,0.08329322183012206,1,-238568.90543818433,0.001579123199917376,1.57542003E9,,,,0,,1,,1.57542003E9
Raw,2065294164,1548291000000,,,-1311985616708713455,0.0,7.190089171102883,,,0,17,0.0,16431,175964929456866,7,41.46453857421875,-189.02803516066967,0.04110154539851929,1,-74525.35812662734,7.676067180000246E-4,1.57542003E9,,,,0,,1,,1.57542003E9
Raw,2065294164,1548291000000,,,-1311985616708713455,0.0,7.190089171102883,,,0,19,0.0,16431,175964927572152,34,28.82957649230957,-440.0627606276796,0.17011427746319552,4,-608951.7198284254,3.4028234663852886E38,1.57542003E9,,,,0,,1,,1.57542003E9
Raw,2065294164,1548291000000,,,-1311985616708713455,0.0,7.190089171102883,,,0,21,0.0,16,1548015747792,1000000000,15.050650596618652,474.71265596913827,2.99792458E8,2,524295.111437907,3.4028234663852886E38,1.57542003E9,,,,0,,1,,1.57542003E9
Raw,2065294165,1548291000000,,,-1311985616708713455,0.0,7.190089171102883,,,0,22,0.0,16431,175964922715829,6,47.53496551513672,148.02031317330466,0.030488513072135903,1,15460.649225855985,4.022500943392515E-4,1.57542003E9,,,,0,,1,,1.57542003E9
Raw,2065294165,1548291000000,,,-1311985616708713455,0.0,7.190089171102883,,,0,24,0.0,16431,175964916504501,166,34.77748489379883,-393.7466789956586,0.0880539735201441,1,-534961.3207593428,0.001657644985243678,1.57542003E9,,,,1,,1,,1.57542003E9
Raw,2065294165,1548291000000,,,-1311985616708713455,0.0,7.190089171102883,,,0,30,0.0,16431,175964921267548,16,35.298065185546875,486.5480957387929,0.08036353680332842,1,85733.74680766386,0.0015612137503921986,1.57542003E9,,,,0,,1,,1.57542003E9
Raw,2065294165,1548291000000,,,-1311985616708713455,0.0,7.190089171102883,,,0,10,0.0,99,921618451,33,37.79340362548828,-852.4744242784031,0.060416562779635474,1,-547324.9809955593,0.0011547772446647286,1.59806246E9,,,,0,,3,,1.59806246E9
Raw,2065294166,1548291000000,,,-1311985616708713455,0.0,7.190089171102883,,,0,2,0.0,32995,13946919999742,97,15.650932312011719,-10.800122313245033,4.203597585466024,4,-1276.743305572386,3.4028234663852886E38,1.59975002E9,,,,0,,3,,1.59975002E9
Raw,2065294166,1548291000000,,,-1311985616708713455,0.0,7.190089171102883,,,0,18,0.0,16,1548008050465,1000000000,26.146743774414062,377.95252781842305,2.99792458E8,2,3.0167419772694406,3.4028234663852886E38,1.60031245E9,,,,0,,3,,1.60031245E9
Raw,2065294167,1548291000000,,,-1311985616708713455,0.0,7.190089171102883,,,0,9,0.0,32995,13946933035515,33,40.21809387207031,-379.9922605939437,0.04782510875521839,4,-567858.0251612215,3.4028234663852886E38,1.59862502E9,,,,0,,3,,1.59862502E9
Raw,2065294167,1548291000000,,,-1311985616708713455,0.0,7.190089171102883,,,0,16,0.0,32995,13946932668118,46,32.24795913696289,384.7576355825065,0.11612802413029005,4,19460.963846971605,3.4028234663852886E38,1.60143744E9,,,,0,,3,,1.60143744E9
Raw,2065294167,1548291000000,,,-1311985616708713455,0.0,7.190089171102883,,,0,19,0.0,99,933173436,71,28.386869430541992,-17.946771439220342,0.1799458513168397,1,-255.7116977724947,0.003204221837222576,1.60368755E9,,,,0,,3,,1.60368755E9
Raw,2065294168,1548291000000,,,-1311985616708713455,0.0,7.190089171102883,,,0,3,0.0,32995,13946922317170,33,44.3683967590332,-505.99411396753453,0.030416805530705374,1,-711535.3172674773,5.685867508873343E-4,1.60481254E9,,,,0,,3,,1.60481254E9
Raw,2065294168,1548291000000,,,-1311985616708713455,0.0,7.190089171102883,,,0,193,0.0,1,298599,10,38.73621368408203,-180.76728271972524,0.055973191484613743,1,-7392.01396454058,0.0010508844861760736,1.57542003E9,,,,0,,4,,1.57542003E9
Raw,2065294168,1548291000000,,,-1311985616708713455,0.0,7.190089171102883,,,0,194,0.0,35,15748070,9,39.96186447143555,-148.86608637314646,0.04967466448543745,1,-58617.71670431636,9.125832584686577E-4,1.57542003E9,,,,0,,4,,1.57542003E9
Raw,2065294169,1548291000000,,,-1311985616708713455,0.0,7.190089171102883,,,0,195,0.0,1,865126,19,33.47703552246094,-121.15750933326467,0.10024197979383731,4,-54280.646369346105,3.4028234663852886E38,1.57542003E9,,,,0,,4,,1.57542003E9
Raw,2065294169,1548291000000,,,-1311985616708713455,0.0,7.190089171102883,,,0,7,0.0,16431,175950879712406,8,34.721561431884766,-98.80757208202414,0.08918058343247465,1,-160231.73750053206,0.0016836579889059067,1.56109798E9,,,,0,,5,,1.56109798E9
Raw,2065294169,1548291000000,,,-1311985616708713455,0.0,7.190089171102883,,,0,8,0.0,16431,175950878015735,8,34.840065002441406,-205.0439438412709,0.08771500451834485,1,-328899.75297600287,0.0016608434962108731,1.56109798E9,,,,0,,5,,1.56109798E9
Raw,2065294170,1548291000000,,,-1311985616708713455,0.0,7.190089171102883,,,0,10,0.0,16431,175950880292879,13,31.138015747070312,-163.4048102643643,0.1330184192155749,1,-226561.63181243595,0.0023980315309017897,1.56109798E9,,,,0,,5,,1.56109798E9
Raw,2065294170,1548291000000,,,-1311985616708713455,0.0,7.190089171102883,,,0,30,0.0,16431,175950924390633,12,31.37938690185547,-317.51196047176245,0.12661249836261157,1,-124107.43374929651,0.0023323099594563246,1.56109798E9,,,,0,,5,,1.56109798E9
Raw,2065294170,1548291000000,,,-1311985616708713455,0.0,7.190089171102883,,,0,32,0.0,16431,175950913106124,17,28.426530838012695,-649.6000332895483,0.1791247104136422,1,-248154.63381156686,0.0032766431104391813,1.56109798E9,,,,0,,5,,1.56109798E9
Raw,2065294170,1548291000000,,,-1311985616708713455,0.0,7.190089171102883,,,0,33,0.0,16431,175950910816605,19,27.51626205444336,23.64036722010718,0.19824337090778932,4,274.9467270398076,3.4028234663852886E38,1.56109798E9,,,,0,,5,,1.56109798E9
Raw,2065294171,1548291000000,,,-1311985616708713455,0.0,7.190089171102883,,,0,36,0.0,16431,175950920662524,10,32.73345184326172,-325.9360190031359,0.11137700790758531,1,-167116.05072643844,0.002116699703037739,1.56109798E9,,,,0,,5,,1.56109798E9
Fix,gps,34.486423,109.463888,357.640991,0.000000,2.000000,1627951947999
Raw,2065295174,1549291000000,,,-1311985616708713843,0.0,7.111849645103828,,,0,1,0.0,16,1549005303122,1000000000,18.598541259765625,497.9191279558677,2.99792458E8,2,524290.4867055637,3.4028234663852886E38,1.57542003E9,,,,0,,1,,1.57542003E9
Raw,2065295175,1549291000000,,,-1311985616708713843,0.0,7.111849645103828,,,0,2,0.0,16,1549014306273,1000000000,7.0,-695.4530706672504,2.99792458E8,2,-9.716670683177803,3.4028234663852886E38,1.57542003E9,,,,0,,1,,1.57542003E9
Raw,2065295175,1549291000000,,,-1311985616708713843,0.0,7.111849645103828,,,0,3,0.0,16431,175965925954818,6,46.796844482421875,-182.68210329208978,0.031071126705147167,1,-3858.4920271320893,4.379274323582649E-4,1.57542003E9,,,,0,,1,,1.57542003E9
Raw,2065295175,1549291000000,,,-1311985616708713843,0.0,7.111849645103828,,,0,6,0.0,16431,175965924449237,166,23.34583282470703,-644.9969248764905,0.31807589012873483,4,-561194.7897947067,3.4028234663852886E38,1.57542003E9,,,,1,,1,,1.57542003E9
Raw,2065295175,1549291000000,,,-1311985616708713843,0.0,7.111849645103828,,,0,14,0.0,16431,175965932444610,14,36.55034255981445,-73.98203856002101,0.07161479654273584,1,-238642.97687293208,0.0013516012113541365,1.57542003E9,,,,0,,1,,1.57542003E9
Raw,2065295176,1549291000000,,,-1311985616708713843,0.0,7.111849645103828,,,0,17,0.0,16431,175965929457481,7,42.570167541503906,-188.91873272260102,0.03639241664801568,1,-74714.32733524476,7.12420092895627E-4,1.57542003E9,,,,0,,1,,1.57542003E9
Raw,2065295176,1549291000000,,,-1311985616708713843,0.0,7.111849645103828,,,0,19,0.0,16431,175965927573581,41,27.044580459594727,-439.8779314659564,0.2086146058454773,1,-609391.644345286,0.003806803375482559,1.57542003E9,,,,0,,1,,1.57542003E9
Raw,2065295176,1549291000000,,,-1311985616708713843,0.0,7.111849645103828,,,0,21,0.0,16,1549015746209,1000000000,12.082910537719727,474.71265596913827,2.99792458E8,2,524295.1077255891,3.4028234663852886E38,1.57542003E9,,,,0,,1,,1.57542003E9
Raw,2065295177,1549291000000,,,-1311985616708713843,0.0,7.111849645103828,,,0,22,0.0,16431,175965922715339,6,47.40224838256836,148.09653858731792,0.030488423622329355,1,15608.742772021935,4.084435640834272E-4,1.57542003E9,,,,0,,1,,1.57542003E9
Raw,2065295177,1549291000000,,,-1311985616708713843,0.0,7.111849645103828,,,0,24,0.0,16431,175965916505802,16,34.94888687133789,-393.5452516776088,0.0863916466361701,1,-535354.9618682571,0.0016252542845904827,1.57542003E9,,,,0,,1,,1.57542003E9
Raw,2065295177,1549291000000,,,-1311985616708713843,0.0,7.111849645103828,,,0,30,0.0,16431,175965921265926,17,34.536705017089844,486.67011093314454,0.08770454513166293,1,86220.31428273425,0.0017042388208210468,1.57542003E9,,,,0,,1,,1.57542003E9
Raw,2065295177,1549291000000,,,-1311985616708713843,0.0,7.111849645103828,,,0,10,0.0,99,1921621338,33,38.16966247558594,-852.3096015186588,0.057868154432910185,1,-548177.3819790666,0.0011058219242841005,1.59806246E9,,,,0,,3,,1.59806246E9
Raw,2065295178,1549291000000,,,-1311985616708713843,0.0,7.111849645103828,,,0,2,0.0,16,1549009999891,1000000000,7.0,-11.050321626578985,2.99792458E8,2,-0.10948037132243371,3.4028234663852886E38,1.59975002E9,,,,0,,3,,1.59975002E9
Raw,2065295178,1549291000000,,,-1311985616708713843,0.0,7.111849645103828,,,0,18,0.0,17,49098,89,26.48480987548828,378.87067511469104,0.2224965002232595,4,305.32286970939157,3.4028234663852886E38,1.60031245E9,,,,0,,3,,1.60031245E9
Raw,2065295178,1549291000000,,,-1311985616708713843,0.0,7.111849645103828,,,0,9,0.0,32995,13947933036766,33,40.701622009277344,-379.7194305294786,0.04536271367828712,1,-568237.8824328417,8.24752205517143E-4,1.59862502E9,,,,0,,3,,1.59862502E9
Raw,2065295178,1549291000000,,,-1311985616708713843,0.0,7.111849645103828,,,0,16,0.0,32995,13947932666856,50,31.485960006713867,385.0039835782534,0.12656680823351812,1,19845.830129519913,0.002245834795758128,1.60143744E9,,,,0,,3,,1.60143744E9
Raw,2065295179,1549291000000,,,-1311985616708713843,0.0,7.111849645103828,,,0,19,0.0,99,1933173446,62,29.608295440673828,-17.80463374952226,0.15665099153823303,1,-273.579500681832,0.0027838849928230047,1.60368755E9,,,,0,,3,,1.60368755E9
Raw,2065295179,1549291000000,,,-1311985616708713843,0.0,7.111849645103828,,,0,3,0.0,32995,13947922318885,33,43.73832702636719,-505.90672654901005,0.030742893760361725,1,-712041.2439450031,6.113644340075552E-4,1.60481254E9,,,,0,,3,,1.60481254E9
Raw,2065295179,1549291000000,,,-1311985616708713843,0.0,7.111849645103828,,,0,193,0.0,1,299181,11,38.21458435058594,-180.76608983374695,0.059311924236066765,1,-7572.789094304849,0.0011159289861097932,1.57542003E9,,,,0,,4,,1.57542003E9
Raw,2065295180,1549291000000,,,-1311985616708713843,0.0,7.111849645103828,,,0,194,0.0,35,15748557,10,39.41558837890625,-148.82546008497127,0.05271536296284121,1,-58766.57047709187,9.718210785649717E-4,1.57542003E9,,,,0,,4,,1.57542003E9
Raw,2065295180,1549291000000,,,-1311985616708713843,0.0,7.111849645103828,,,0,195,0.0,1,865539,25,31.229576110839844,-121.34133306252045,0.1294264727838373,4,-54401.9827231799,3.4028234663852886E38,1.57542003E9,,,,0,,4,,1.57542003E9
Raw,2065295180,1549291000000,,,-1311985616708713843,0.0,7.111849645103828,,,0,7,0.0,16431,175951879712746,10,33.28253936767578,-98.79927300386083,0.10461100789847744,1,-160330.57723550257,0.0019870323594659567,1.56109798E9,,,,0,,5,,1.56109798E9
Raw,2065295181,1549291000000,,,-1311985616708713843,0.0,7.111849645103828,,,0,8,0.0,16431,175951878016418,8,34.69619369506836,-204.8583648655042,0.08912598160637536,1,-329104.6632483399,0.0016885824734345078,1.56109798E9,,,,0,,5,,1.56109798E9
Raw,2065295181,1549291000000,,,-1311985616708713843,0.0,7.111849645103828,,,0,10,0.0,16431,175951880293432,11,32.33229446411133,-163.3051531614916,0.11639953549658383,1,-226725.00340668386,0.0020899742376059294,1.56109798E9,,,,0,,5,,1.56109798E9
Raw,2065295181,1549291000000,,,-1311985616708713843,0.0,7.111849645103828,,,0,30,0.0,16431,175951924391685,11,32.405860900878906,-317.40903145306356,0.11258827478101524,1,-124424.88044404326,0.0020723475608974695,1.56109798E9,,,,0,,5,,1.56109798E9
Raw,2065295181,1549291000000,,,-1311985616708713843,0.0,7.111849645103828,,,0,32,0.0,16431,175951913108296,166,25.40349578857422,-649.8748742189482,0.2527113135291833,4,-248804.2857267151,3.4028234663852886E38,1.56109798E9,,,,1,,5,,1.56109798E9
Raw,2065295182,1549291000000,,,-1311985616708713843,0.0,7.111849645103828,,,0,33,0.0,16431,175951910816540,19,27.622028350830078,23.795972805515603,0.195867584045877,4,298.7444565968643,3.4028234663852886E38,1.56109798E9,,,,0,,5,,1.56109798E9
Raw,2065295182,1549291000000,,,-1311985616708713843,0.0,7.111849645103828,,,0,36,0.0,16431,175951920663613,9,33.485172271728516,-325.73196733593386,0.10245155643381526,1,-167441.8585526771,0.0019412136171013117,1.56109798E9,,,,0,,5,,1.56109798E9
Fix,gps,34.486423,109.463888,357.726501,0.000000,2.000000,1627951948999
Raw,2065296147,1550291000000,,,-1311985616708714229,0.0,7.038380201204207,,,0,1,0.0,16,1550005301461,1000000000,24.9070987701416,497.9191279558677,2.99792458E8,2,524290.4828117682,3.4028234663852886E38,1.57542003E9,,,,0,,1,,1.57542003E9
Raw,2065296148,1550291000000,,,-1311985616708714229,0.0,7.038380201204207,,,0,2,0.0,16,1550014308592,1000000000,7.0,-695.2673894441141,2.99792458E8,2,-9.730387828514822,3.4028234663852886E38,1.57542003E9,,,,0,,1,,1.57542003E9
Raw,2065296148,1550291000000,,,-1311985616708714229,0.0,7.038380201204207,,,0,3,0.0,16431,175966925955417,6,45.90620040893555,-183.36182676375245,0.03107123279677819,1,-4041.3618547588326,4.852153069805354E-4,1.57542003E9,,,,0,,1,,1.57542003E9
Raw,2065296148,1550291000000,,,-1311985616708714229,0.0,7.038380201204207,,,0,6,0.0,16431,175966924451566,38,27.879451751708984,-645.1114419304072,0.18905972984821695,4,-561840.0419537505,3.4028234663852886E38,1.57542003E9,,,,0,,1,,1.57542003E9
Raw,2065296149,1550291000000,,,-1311985616708714229,0.0,7.038380201204207,,,0,14,0.0,16431,175966932444824,19,33.70688247680664,-74.12253496642217,0.09848486939857148,1,-238716.97318601795,0.0017678497824817896,1.57542003E9,,,,0,,1,,1.57542003E9
Raw,2065296149,1550291000000,,,-1311985616708714229,0.0,7.038380201204207,,,0,17,0.0,16431,175966929458127,9,39.7630615234375,-188.9207265463076,0.049627738700876806,1,-74903.25736932358,9.842182043939829E-4,1.57542003E9,,,,0,,1,,1.57542003E9
Raw,2065296149,1550291000000,,,-1311985616708714229,0.0,7.038380201204207,,,0,19,0.0,16431,175966927575121,25,31.39107894897461,-439.39239279033245,0.1270160293224578,1,-609831.3292024342,0.0023079984821379185,1.57542003E9,,,,0,,1,,1.57542003E9
Raw,2065296150,1550291000000,,,-1311985616708714229,0.0,7.038380201204207,,,0,21,0.0,16,1550015744626,1000000000,20.506576538085938,474.71265596913827,2.99792458E8,2,524295.1188625427,3.4028234663852886E38,1.57542003E9,,,,0,,1,,1.57542003E9
Raw,2065296150,1550291000000,,,-1311985616708714229,0.0,7.038380201204207,,,0,22,0.0,16431,175966922714835,6,47.925865173339844,147.50870141844075,0.030488334172522807,1,15756.668638296129,3.8454867899417877E-4,1.57542003E9,,,,0,,1,,1.57542003E9
Raw,2065296150,1550291000000,,,-1311985616708714229,0.0,7.038380201204207,,,0,24,0.0,16431,175966916507029,17,34.67887878417969,-392.60999498816636,0.08902585606942737,1,-535748.2835986713,0.0016765702748671174,1.57542003E9,,,,0,,1,,1.57542003E9
Raw,2065296151,1550291000000,,,-1311985616708714229,0.0,7.038380201204207,,,0,30,0.0,16431,175966921264332,14,36.20115280151367,486.96042529780584,0.07244962534656324,1,86707.10151427354,0.0014070452889427543,1.57542003E9,,,,0,,1,,1.57542003E9
Raw,2065296151,1550291000000,,,-1311985616708714229,0.0,7.038380201204207,,,0,10,0.0,99,921624180,33,37.22711181640625,-851.776483733729,0.06446816472425798,1,-549029.5834899113,0.0012325734132900834,1.59806246E9,,,,0,,3,,1.59806246E9
Raw,2065296151,1550291000000,,,-1311985616708714229,0.0,7.038380201204207,,,0,2,0.0,16,1550009999928,1000000000,25.275146484375,-10.958996619249348,2.99792458E8,2,-0.10840399763599043,3.4028234663852886E38,1.59975002E9,,,,0,,3,,1.59975002E9
Raw,2065296151,1550291000000,,,-1311985616708714229,0.0,7.038380201204207,,,0,18,0.0,17,47906,116,24.160419464111328,378.164588862908,0.29032098810743956,4,683.2488160957537,3.4028234663852886E38,1.60031245E9,,,,0,,3,,1.60031245E9
Raw,2065296152,1550291000000,,,-1311985616708714229,0.0,7.038380201204207,,,0,9,0.0,32995,13948933038066,33,40.92642593383789,-379.1249302403512,0.044263862329179254,1,-568617.4259274377,8.03680217359215E-4,1.59862502E9,,,,0,,3,,1.59862502E9
Raw,2065296152,1550291000000,,,-1311985616708714229,0.0,7.038380201204207,,,0,16,0.0,32995,13948932665531,52,31.197900772094727,385.18291647499814,0.13075758575621693,1,20230.9093637216,0.002321564592421055,1.60143744E9,,,,0,,3,,1.60143744E9
Raw,2065296152,1550291000000,,,-1311985616708714229,0.0,7.038380201204207,,,0,19,0.0,99,933173561,68,28.840614318847656,-17.5487458611793,0.1709075599522235,1,-291.30249081682973,0.0030411325860768557,1.60368755E9,,,,0,,3,,1.60368755E9
Raw,2065296153,1550291000000,,,-1311985616708714229,0.0,7.038380201204207,,,0,3,0.0,32995,13948922320562,33,44.28785705566406,-506.70613056675256,0.030417415037526735,1,-712547.4111753334,5.738832987844944E-4,1.60481254E9,,,,0,,3,,1.60481254E9
Raw,2065296153,1550291000000,,,-1311985616708714229,0.0,7.038380201204207,,,0,193,0.0,1,299798,12,37.508182525634766,-181.472891817117,0.0641651129401298,1,-7753.7736094703905,0.0012104770867154002,1.57542003E9,,,,0,,4,,1.57542003E9
Raw,2065296153,1550291000000,,,-1311985616708714229,0.0,7.038380201204207,,,0,194,0.0,35,15749089,13,37.17546463012695,-149.05463052263065,0.06739162570869833,1,-58915.47578855002,0.0012577446177601814,1.57542003E9,,,,0,,4,,1.57542003E9
Raw,2065296153,1550291000000,,,-1311985616708714229,0.0,7.038380201204207,,,0,195,0.0,1,865909,13,37.005470275878906,-121.8933069665215,0.06724957941590026,4,-54523.5110664032,3.4028234663852886E38,1.57542003E9,,,,0,,4,,1.57542003E9
Raw,2065296154,1550291000000,,,-1311985616708714229,0.0,7.038380201204207,,,0,7,0.0,16431,175952879713075,6,37.57176971435547,-99.0116493110686,0.06522527620779167,1,-160429.47326039072,0.0012126723304390907,1.56109798E9,,,,0,,5,,1.56109798E9
Raw,2065296154,1550291000000,,,-1311985616708714229,0.0,7.038380201204207,,,0,8,0.0,16431,175952878017107,8,34.49956512451172,-204.80763312897,0.09109251272082236,1,-329309.4990632477,0.0017272441182285547,1.56109798E9,,,,0,,5,,1.56109798E9
Raw,2065296154,1550291000000,,,-1311985616708714229,0.0,7.038380201204207,,,0,10,0.0,16431,175952880293950,13,30.81637191772461,-163.46931131333372,0.13789899204180994,1,-226888.3911005679,0.0024884967133402824,1.56109798E9,,,,0,,5,,1.56109798E9
Raw,2065296155,1550291000000,,,-1311985616708714229,0.0,7.038380201204207,,,0,30,0.0,16431,175952924392790,14,29.967281341552734,-316.95866587257115,0.14882514029567218,1,-124742.08779994078,0.0027440469712018967,1.56109798E9,,,,0,,5,,1.56109798E9
Raw,2065296155,1550291000000,,,-1311985616708714229,0.0,7.038380201204207,,,0,32,0.0,16431,175952913110335,166,32.59646987915039,-650.2071100051326,0.11172993107920604,4,-249454.0363834759,3.4028234663852886E38,1.56109798E9,,,,1,,5,,1.56109798E9
Raw,2065296156,1550291000000,,,-1311985616708714229,0.0,7.038380201204207,,,0,33,0.0,16431,175952910816410,20,27.08258056640625,23.026557089206094,0.2082932022894104,1,322.2961646251734,0.0038249569479376078,1.56109798E9,,,,0,,5,,1.56109798E9
Raw,2065296156,1550291000000,,,-1311985616708714229,0.0,7.038380201204207,,,0,36,0.0,16431,175952920664685,11,32.182472229003906,-324.9746210695405,0.11842802412354764,1,-167767.2926307428,0.002255320781841874,1.56109798E9,,,,0,,5,,1.56109798E9
Fix,gps,34.486423,109.463888,357.710724,0.000000,3.000000,1627951949999
Raw,2065297181,1551291000000,,,-1311985616708714617,0.0,7.462296395329665,,,0,1,0.0,16,1551005299800,1000000000,25.35426902770996,497.9191279558677,2.99792458E8,2,524290.4789179727,3.4028234663852886E38,1.57542003E9,,,,0,,1,,1.57542003E9
Raw,2065297181,1551291000000,,,-1311985616708714617,0.0,7.462296395329665,,,0,2,0.0,16,1551014310911,1000000000,16.392635345458984,-695.2673894441141,2.99792458E8,2,-9.72495074244589,3.4028234663852886E38,1.57542003E9,,,,0,,1,,1.57542003E9
Raw,2065297182,1551291000000,,,-1311985616708714617,0.0,7.462296395329665,,,0,3,0.0,16431,175967925956040,9,39.71436309814453,-183.11518906712513,0.04926725182003264,1,-4224.525048345837,9.389611659571528E-4,1.57542003E9,,,,0,,1,,1.57542003E9
Raw,2065297185,1551291000000,,,-1311985616708714617,0.0,7.462296395329665,,,0,6,0.0,16431,175967924453768,27,30.589387893676758,-644.7878630881796,0.13860420599572137,4,-562485.0286127335,3.4028234663852886E38,1.57542003E9,,,,0,,1,,1.57542003E9
Raw,2065297186,1551291000000,,,-1311985616708714617,0.0,7.462296395329665,,,0,14,0.0,16431,175967932445078,9,39.95506286621094,-73.90588131092079,0.04911723409331151,1,-238790.8938624983,9.132982231676579E-4,1.57542003E9,,,,0,,1,,1.57542003E9
Raw,2065297186,1551291000000,,,-1311985616708714617,0.0,7.462296395329665,,,0,17,0.0,16431,175967929458752,6,42.98500061035156,-188.90804787248112,0.034774756420929975,1,-75092.11619917088,6.791949854232371E-4,1.57542003E9,,,,0,,1,,1.57542003E9
Raw,2065297187,1551291000000,,,-1311985616708714617,0.0,7.462296395329665,,,0,19,0.0,16431,175967927576580,10,38.91886901855469,-439.47245248070453,0.05418120814616259,1,-610270.7470723502,0.0010290163336321712,1.57542003E9,,,,0,,1,,1.57542003E9
Raw,2065297188,1551291000000,,,-1311985616708714617,0.0,7.462296395329665,,,0,21,0.0,16,1551015743042,1000000000,31.35011100769043,474.71265596913827,2.99792458E8,2,524295.1151502248,3.4028234663852886E38,1.57542003E9,,,,0,,1,,1.57542003E9
Raw,2065297188,1551291000000,,,-1311985616708714617,0.0,7.462296395329665,,,0,22,0.0,16431,175967922714353,6,44.815040588378906,147.75176045713317,0.03048824680294432,1,15904.341601908147,5.501643754541874E-4,1.57542003E9,,,,0,,1,,1.57542003E9
Raw,2065297189,1551291000000,,,-1311985616708714617,0.0,7.462296395329665,,,0,24,0.0,16431,175967916508351,17,34.57501220703125,-393.16386898911855,0.0900613270300259,1,-536141.2989081698,0.0016967393457889557,1.57542003E9,,,,0,,1,,1.57542003E9
Raw,2065297190,1551291000000,,,-1311985616708714617,0.0,7.462296395329665,,,0,30,0.0,16431,175967921262685,13,36.902950286865234,486.96717362419736,0.0668434814546289,1,87193.97171891874,0.0012978313025087118,1.57542003E9,,,,0,,1,,1.57542003E9
Raw,2065297191,1551291000000,,,-1311985616708714617,0.0,7.462296395329665,,,0,10,0.0,99,1921627034,33,35.4213981628418,-852.8481724966323,0.0792983934696927,1,-549881.7664117895,0.001430612988770008,1.59806246E9,,,,0,,3,,1.59806246E9
Raw,2065297191,1551291000000,,,-1311985616708714617,0.0,7.462296395329665,,,0,2,0.0,16,1551009999964,1000000000,9.593147277832031,-10.77634766966684,2.99792458E8,2,-0.10642856699027196,3.4028234663852886E38,1.59975002E9,,,,0,,3,,1.59975002E9
Raw,2065297192,1551291000000,,,-1311985616708714617,0.0,7.462296395329665,,,0,18,0.0,17,46582,128,23.329410552978516,376.79825726336503,0.31932352770955275,4,1061.4884150491087,3.4028234663852886E38,1.60031245E9,,,,0,,3,,1.60031245E9
Raw,2065297193,1551291000000,,,-1311985616708714617,0.0,7.462296395329665,,,0,9,0.0,32995,13949933039284,33,37.84648132324219,-379.32744819700974,0.06210459296150961,1,-568996.7066606138,0.0011457254877313972,1.59862502E9,,,,0,,3,,1.59862502E9
Raw,2065297193,1551291000000,,,-1311985616708714617,0.0,7.462296395329665,,,0,16,0.0,32995,13949932664337,78,27.657039642333984,385.3014552587845,0.19541986904205222,4,20615.992995629687,3.4028234663852886E38,1.60143744E9,,,,0,,3,,1.60143744E9
Raw,2065297194,1551291000000,,,-1311985616708714617,0.0,7.462296395329665,,,0,19,0.0,99,1933173587,59,29.973419189453125,-17.608196316122743,0.15030000534785848,1,-308.8962933925741,0.0026692859828472137,1.60368755E9,,,,0,,3,,1.60368755E9
Raw,2065297195,1551291000000,,,-1311985616708714617,0.0,7.462296395329665,,,0,3,0.0,32995,13949922322267,33,45.77803039550781,-506.4424346006356,0.030417722911279504,1,-713053.9234646827,4.834092396777123E-4,1.60481254E9,,,,0,,3,,1.60481254E9
Raw,2065297195,1551291000000,,,-1311985616708714617,0.0,7.462296395329665,,,0,193,0.0,1,300405,8,40.453826904296875,-181.35687513511334,0.04629528407770661,1,-7935.113171440089,8.623320027254522E-4,1.57542003E9,,,,0,,4,,1.57542003E9
Raw,2065297196,1551291000000,,,-1311985616708714617,0.0,7.462296395329665,,,0,194,0.0,35,15749539,18,34.002723693847656,-149.1615983124275,0.09585635979019658,1,-59064.703577809276,0.0017086506122723222,1.57542003E9,,,,0,,4,,1.57542003E9
Raw,2065297197,1551291000000,,,-1311985616708714617,0.0,7.462296395329665,,,0,195,0.0,1,866324,6,42.86451721191406,-121.72193185451067,0.03495028190411367,4,-54645.22088005394,3.4028234663852886E38,1.57542003E9,,,,0,,4,,1.57542003E9
Raw,2065297198,1551291000000,,,-1311985616708714617,0.0,7.462296395329665,,,0,7,0.0,16431,175953879713405,8,34.73186111450195,-99.19955441449298,0.089079276325989,1,-160528.58398745226,0.0016816625138744712,1.56109798E9,,,,0,,5,,1.56109798E9
Raw,2065297198,1551291000000,,,-1311985616708714617,0.0,7.462296395329665,,,0,8,0.0,16431,175953878017786,12,31.78504753112793,-204.68149395737908,0.12332244294774508,4,-329514.39020891406,3.4028234663852886E38,1.56109798E9,,,,0,,5,,1.56109798E9
Raw,2065297199,1551291000000,,,-1311985616708714617,0.0,7.462296395329665,,,0,10,0.0,16431,175953880294501,8,34.69131851196289,-163.340121761884,0.0895839812577251,1,-227051.76474163987,0.0016895299777388573,1.56109798E9,,,,0,,5,,1.56109798E9
Raw,2065297200,1551291000000,,,-1311985616708714617,0.0,7.462296395329665,,,0,30,0.0,16431,175953924393839,8,35.274417877197266,-316.8811964488948,0.08114433792400089,1,-125059.05365613295,0.0015798325184732676,1.56109798E9,,,,0,,5,,1.56109798E9
Raw,2065297201,1551291000000,,,-1311985616708714617,0.0,7.462296395329665,,,0,32,0.0,16431,175953913112524,9,34.00624084472656,-650.0431733892578,0.09534437406025309,4,-250104.09317863715,3.4028234663852886E38,1.56109798E9,,,,0,,5,,1.56109798E9
Raw,2065297201,1551291000000,,,-1311985616708714617,0.0,7.462296395329665,,,0,33,0.0,16431,175953910816383,23,25.954946517944336,22.394284917637307,0.2368986513177488,4,345.55283343924026,3.4028234663852886E38,1.56109798E9,,,,0,,5,,1.56109798E9
Raw,2065297201,1551291000000,,,-1311985616708714617,0.0,7.462296395329665,,,0,36,0.0,16431,175953920665759,14,30.242937088012695,-324.4758584007857,0.14712795711033733,4,-168092.4180361569,3.4028234663852886E38,1.56109798E9,,,,0,,5,,1.56109798E9
Fix,gps,34.486423,109.463888,357.666382,0.000000,3.000000,1627951950999
Raw,2065298175,1552291000000,,,-1311985616708715004,0.0,7.501932294254923,,,0,1,0.0,16,1552005298139,1000000000,11.683816909790039,498.1048432614605,2.99792458E8,2,524290.4759473918,3.4028234663852886E38,1.57542003E9,,,,0,,1,,1.57542003E9
Raw,2065298175,1552291000000,,,-1311985616708715004,0.0,7.501932294254923,,,0,2,0.0,16,1552014313231,1000000000,7.0,-695.4530706672504,2.99792458E8,2,-9.722109221379874,3.4028234663852886E38,1.57542003E9,,,,0,,1,,1.57542003E9
Raw,2065298176,1552291000000,,,-1311985616708715004,0.0,7.501932294254923,,,0,3,0.0,16431,175968925956639,7,41.8590087890625,-183.18989781182313,0.03872258410858856,1,-4407.569528647689,7.732041412964463E-4,1.57542003E9,,,,0,,1,,1.57542003E9
Raw,2065298177,1552291000000,,,-1311985616708715004,0.0,7.501932294254923,,,0,6,0.0,16431,175968924455915,26,30.877595901489258,-644.8280803868765,0.1341071856190515,4,-563129.6186540445,3.4028234663852886E38,1.57542003E9,,,,0,,1,,1.57542003E9
Raw,2065298178,1552291000000,,,-1311985616708715004,0.0,7.501932294254923,,,0,14,0.0,16431,175968932445315,9,39.60559844970703,-73.6877535891748,0.05104181116825948,1,-238864.67615033482,9.507926879450679E-4,1.57542003E9,,,,0,,1,,1.57542003E9
Raw,2065298178,1552291000000,,,-1311985616708715004,0.0,7.501932294254923,,,0,17,0.0,16431,175968929459359,8,41.188072204589844,-188.71142618080103,0.04237623842547586,1,-75280.81266859967,8.352967561222613E-4,1.57542003E9,,,,0,,1,,1.57542003E9
Raw,2065298179,1552291000000,,,-1311985616708715004,0.0,7.501932294254923,,,0,19,0.0,16431,175968927578034,13,36.70083236694336,-439.1236867031066,0.06954776545029018,1,-610709.9667282422,0.0013283854350447655,1.57542003E9,,,,0,,1,,1.57542003E9
Raw,2065298179,1552291000000,,,-1311985616708715004,0.0,7.501932294254923,,,0,21,0.0,17,741407,41,27.050092697143555,474.4908132596313,0.2099522923385242,4,524674.4899450691,3.4028234663852886E38,1.57542003E9,,,,0,,1,,1.57542003E9
Raw,2065298180,1552291000000,,,-1311985616708715004,0.0,7.501932294254923,,,0,22,0.0,16431,175968922713859,6,46.43790054321289,147.57039066474704,0.03048815735313777,1,16052.03823870893,4.5640385360457003E-4,1.57542003E9,,,,0,,1,,1.57542003E9
Raw,2065298181,1552291000000,,,-1311985616708715004,0.0,7.501932294254923,,,0,24,0.0,16431,175968916509662,20,33.0972900390625,-392.6857943714731,0.1062134408561694,1,-536533.9928270231,0.0020114125218242407,1.57542003E9,,,,0,,1,,1.57542003E9
Raw,2065298181,1552291000000,,,-1311985616708715004,0.0,7.501932294254923,,,0,30,0.0,16431,175968921261075,10,38.803611755371094,486.97702345413245,0.053750734072492895,1,87680.8378647056,0.0010427619563415647,1.57542003E9,,,,0,,1,,1.57542003E9
Raw,2065298182,1552291000000,,,-1311985616708715004,0.0,7.501932294254923,,,0,10,0.0,99,921629867,33,35.04573440551758,-851.9206525248205,0.08279084675381232,4,-550733.7919866607,3.4028234663852886E38,1.59806246E9,,,,0,,3,,1.59806246E9
Raw,2065298182,1552291000000,,,-1311985616708715004,0.0,7.501932294254923,,,0,2,0.0,16,1552009999998,1000000000,23.228912353515625,-10.411047640348293,2.99792458E8,2,-0.10396175290613624,3.4028234663852886E38,1.59975002E9,,,,0,,3,,1.59975002E9
Raw,2065298183,1552291000000,,,-1311985616708715004,0.0,7.501932294254923,,,0,9,0.0,32995,13950933040523,33,37.080692291259766,-378.7546925151439,0.06761269986546745,1,-569375.5941347808,0.0012513246620073915,1.59862502E9,,,,0,,3,,1.59862502E9
Raw,2065298184,1552291000000,,,-1311985616708715004,0.0,7.501932294254923,,,0,16,0.0,32995,13950932663033,91,26.297679901123047,385.22654201934733,0.22814040857538154,4,21001.35421356892,3.4028234663852886E38,1.60143744E9,,,,0,,3,,1.60143744E9
Raw,2065298184,1552291000000,,,-1311985616708715004,0.0,7.501932294254923,,,0,19,0.0,99,933173610,63,29.46417236328125,-17.233846329520624,0.15923232157422407,4,-326.25369677650707,3.4028234663852886E38,1.60368755E9,,,,0,,3,,1.60368755E9
Raw,2065298185,1552291000000,,,-1311985616708715004,0.0,7.501932294254923,,,0,3,0.0,32995,13950922323950,33,45.712562561035156,-506.69566725260006,0.030418024544348096,1,-713560.4846158478,4.8706671805121005E-4,1.60481254E9,,,,0,,3,,1.60481254E9
Raw,2065298185,1552291000000,,,-1311985616708715004,0.0,7.501932294254923,,,0,193,0.0,1,300996,8,40.62802505493164,-181.5468507477715,0.04541652085726777,1,-8116.585117263722,8.909294847398996E-4,1.57542003E9,,,,0,,4,,1.57542003E9
Raw,2065298185,1552291000000,,,-1311985616708715004,0.0,7.501932294254923,,,0,194,0.0,35,15750028,21,33.04549026489258,-149.2343132334189,0.10669439790438107,4,-59213.93944989049,3.4028234663852886E38,1.57542003E9,,,,0,,4,,1.57542003E9
Raw,2065298186,1552291000000,,,-1311985616708715004,0.0,7.501932294254923,,,0,195,0.0,1,866740,7,41.77793502807617,-121.8287292320249,0.03941924000426422,4,-54766.97005812602,3.4028234663852886E38,1.57542003E9,,,,0,,4,,1.57542003E9
Raw,2065298186,1552291000000,,,-1311985616708715004,0.0,7.501932294254923,,,0,7,0.0,16431,175954879713729,6,36.736915588378906,-99.11634209689254,0.07144802049876936,1,-160627.6409770436,0.001335014938376844,1.56109798E9,,,,0,,5,,1.56109798E9
Raw,2065298186,1552291000000,,,-1311985616708715004,0.0,7.501932294254923,,,0,8,0.0,16431,175954878018453,14,30.101112365722656,-204.44100814415413,0.1490126104483721,4,-329719.3370219305,3.4028234663852886E38,1.56109798E9,,,,0,,5,,1.56109798E9
Raw,2065298186,1552291000000,,,-1311985616708715004,0.0,7.501932294254923,,,0,10,0.0,16431,175954880295048,8,34.60770034790039,-163.21388034292352,0.09041535688297414,1,-227215.04769077533,0.0017058736411854625,1.56109798E9,,,,0,,5,,1.56109798E9
Raw,2065298187,1552291000000,,,-1311985616708715004,0.0,7.501932294254923,,,0,30,0.0,16431,175954924394880,10,32.8969841003418,-316.7077167451937,0.1064428733692806,4,-125375.74636959213,3.4028234663852886E38,1.56109798E9,,,,0,,5,,1.56109798E9
Raw,2065298187,1552291000000,,,-1311985616708715004,0.0,7.501932294254923,,,0,32,0.0,16431,175954913114682,9,34.36751937866211,-649.9570811040812,0.09155644518259709,4,-250754.28015182915,3.4028234663852886E38,1.56109798E9,,,,0,,5,,1.56109798E9
Raw,2065298187,1552291000000,,,-1311985616708715004,0.0,7.501932294254923,,,0,33,0.0,16431,175954910816274,17,28.565155029296875,23.348510624288224,0.17591408642699025,4,368.9545427526247,3.4028234663852886E38,1.56109798E9,,,,0,,5,,1.56109798E9
Raw,2065298188,1552291000000,,,-1311985616708715004,0.0,7.501932294254923,,,0,36,0.0,16431,175954920666854,17,28.603836059570312,-324.3082408796065,0.17691296201557039,4,-168417.45755592853,3.4028234663852886E38,1.56109798E9,,,,0,,5,,1.56109798E9
Fix,gps,34.486403,109.463899,357.577789,0.633154,3.000000,1627951951999
Raw,2065299181,1553291000000,,,-1311985616708715391,0.0,8.044721988168781,,,0,1,0.0,16,1553005296478,1000000000,33.16230010986328,497.9191279558677,2.99792458E8,2,524290.4867055637,3.4028234663852886E38,1.57542003E9,,,,0,,1,,1.57542003E9
Raw,2065299182,1553291000000,,,-1311985616708715391,0.0,8.044721988168781,,,0,2,0.0,16,1553014315549,1000000000,7.0,-695.0817763858909,2.99792458E8,2,-9.711482456715524,3.4028234663852886E38,1.57542003E9,,,,0,,1,,1.57542003E9
Raw,2065299182,1553291000000,,,-1311985616708715391,0.0,8.044721988168781,,,0,3,0.0,16431,175969925957263,6,44.72450637817383,-182.90530929985766,0.03107156563326767,1,-4590.625497388157,5.55928738322109E-4,1.57542003E9,,,,0,,1,,1.57542003E9
Raw,2065299183,1553291000000,,,-1311985616708715391,0.0,8.044721988168781,,,0,6,0.0,16431,175969924458043,24,31.612648010253906,-644.5036835656924,0.12329059881661403,4,-563774.1623530554,3.4028234663852886E38,1.57542003E9,,,,0,,1,,1.57542003E9
Raw,2065299183,1553291000000,,,-1311985616708715391,0.0,8.044721988168781,,,0,14,0.0,16431,175969932445548,12,37.508811950683594,-73.33801646156599,0.06436671200180819,1,-238938.3927557503,0.0012103895423933864,1.57542003E9,,,,0,,1,,1.57542003E9
Raw,2065299183,1553291000000,,,-1311985616708715391,0.0,8.044721988168781,,,0,17,0.0,16431,175969929459980,10,38.68470001220703,-188.73444888018219,0.055963318722244526,1,-75469.55898230414,0.0010571357561275363,1.57542003E9,,,,0,,1,,1.57542003E9
Raw,2065299184,1553291000000,,,-1311985616708715391,0.0,8.044721988168781,,,0,19,0.0,16431,175969927579509,16,35.333038330078125,-439.28257911541596,0.08117688101175985,1,-611149.2096377633,0.0015549407107755542,1.57542003E9,,,,0,,1,,1.57542003E9
Raw,2065299184,1553291000000,,,-1311985616708715391,0.0,8.044721988168781,,,0,21,0.0,5,1915739770,60,22.85640525817871,473.0497047504773,4.202831262732644,4,525148.8105799071,3.4028234663852886E38,1.57542003E9,,,,0,,1,,1.57542003E9
Raw,2065299184,1553291000000,,,-1311985616708715391,0.0,8.044721988168781,,,0,22,0.0,16431,175969922713372,6,46.40727996826172,147.89367980609416,0.030488069983559282,1,16199.7650362136,4.580157983582467E-4,1.57542003E9,,,,0,,1,,1.57542003E9
Raw,2065299185,1553291000000,,,-1311985616708715391,0.0,8.044721988168781,,,0,24,0.0,16431,175969916510939,22,32.42582702636719,-392.4514093179657,0.11451153715182977,1,-536926.5873694953,0.002173073124140501,1.57542003E9,,,,0,,1,,1.57542003E9
Raw,2065299185,1553291000000,,,-1311985616708715391,0.0,8.044721988168781,,,0,30,0.0,16431,175969921259448,11,38.12018966674805,486.99900663858966,0.0581319190299113,1,88167.7449288345,0.00112812255974859,1.57542003E9,,,,0,,1,,1.57542003E9
Raw,2065299186,1553291000000,,,-1311985616708715391,0.0,8.044721988168781,,,0,10,0.0,99,1921632633,40,33.33708190917969,-851.5532436435046,0.1007261819978214,4,-551585.5257597177,3.4028234663852886E38,1.59806246E9,,,,0,,3,,1.59806246E9
Raw,2065299186,1553291000000,,,-1311985616708715391,0.0,8.044721988168781,,,0,2,0.0,16,1553009999911,1000000000,18.425683975219727,-10.593697655007567,2.99792458E8,2,-0.10495639724519033,3.4028234663852886E38,1.59975002E9,,,,0,,3,,1.59975002E9
Raw,2065299186,1553291000000,,,-1311985616708715391,0.0,8.044721988168781,,,0,9,0.0,32995,13951933041869,33,37.89312744140625,-378.6171698030744,0.06178499504339813,1,-569754.3971324521,0.0011395890032872558,1.59862502E9,,,,0,,3,,1.59862502E9
Raw,2065299186,1553291000000,,,-1311985616708715391,0.0,8.044721988168781,,,0,16,0.0,32995,13951932661790,77,27.723154067993164,385.17051046082383,0.19395485594995454,4,21386.76776817368,3.4028234663852886E38,1.60143744E9,,,,0,,3,,1.60143744E9
Raw,2065299187,1553291000000,,,-1311985616708715391,0.0,8.044721988168781,,,0,19,0.0,32995,13951933173681,70,28.56593132019043,-16.844925027678237,0.17632259329235422,4,-343.606137598575,3.4028234663852886E38,1.60368755E9,,,,0,,3,,1.60368755E9
Raw,2065299187,1553291000000,,,-1311985616708715391,0.0,8.044721988168781,,,0,3,0.0,32995,13951922325643,33,44.9034309387207,-506.3311553800886,0.030418330337872806,1,-714067.0292379609,5.346196703612804E-4,1.60481254E9,,,,0,,3,,1.60481254E9
Raw,2065299187,1553291000000,,,-1311985616708715391,0.0,8.044721988168781,,,0,193,0.0,1,301623,9,40.2037239074707,-181.54967959166288,0.04758853273895172,1,-8298.135487723612,9.355312213301659E-4,1.57542003E9,,,,0,,4,,1.57542003E9
Raw,2065299188,1553291000000,,,-1311985616708715391,0.0,8.044721988168781,,,0,194,0.0,35,15750559,12,37.756282806396484,-149.1230510541002,0.06321607129493714,4,-59363.19859795895,3.4028234663852886E38,1.57542003E9,,,,0,,4,,1.57542003E9
