# 
# Header Description:
# 
# Version: v2.0.0.1 Platform: 10 Manufacturer: HUAWEI Model: BLA-AL00
# 
# Raw,ElapsedRealtimeMillis,TimeNanos,LeapSecond,TimeUncertaintyNanos,FullBiasNanos,BiasNanos,BiasUncertaintyNanos,DriftNanosPerSecond,DriftUncertaintyNanosPerSecond,HardwareClockDiscontinuityCount,Svid,TimeOffsetNanos,State,ReceivedSvTimeNanos,ReceivedSvTimeUncertaintyNanos,Cn0DbHz,PseudorangeRateMetersPerSecond,PseudorangeRateUncertaintyMetersPerSecond,AccumulatedDeltaRangeState,AccumulatedDeltaRangeMeters,AccumulatedDeltaRangeUncertaintyMeters,CarrierFrequencyHz,CarrierCycles,CarrierPhase,CarrierPhaseUncertainty,MultipathIndicator,SnrInDb,ConstellationType,AgcDb,CarrierFrequencyHz
# 
# Fix,Provider,Latitude,Longitude,Altitude,Speed,Accuracy,(UTC)TimeInMs
# 
# Nav,Svid,Type,Status,MessageId,Sub-messageId,Data(Bytes)
# 
Fix,gps,34.486369,109.464223,356.891602,0.505663,3.000000,1627952190999
Raw,2065538056,1792291000000,,,-1311985616708807601,0.0,7.801037437249136,,,0,1,0.0,16431,176208924895525,28,30.2769775390625,507.22963709894293,0.14373032894207072,4,549599.6088395831,3.4028234663852886E38,1.57542003E9,,,,0,,1,,1.57542003E9
Raw,2065538056,1792291000000,,,-1311985616708807601,0.0,7.801037437249136,,,0,2,0.0,16,1792014866338,1000000000,16.36901092529297,-686.9130977012428,2.99792458E8,2,-9.602724314725329,3.4028234663852886E38,1.57542003E9,,,,0,,1,,1.57542003E9
Raw,2065538057,1792291000000,,,-1311985616708807601,0.0,7.801037437249136,,,0,3,0.0,16,1792006090340,1000000000,20.614856719970703,-151.86348505327328,2.99792458E8,2,-0.9068851304255077,3.4028234663852886E38,1.57542003E9,,,,0,,1,,1.57542003E9
Raw,2065538057,1792291000000,,,-1311985616708807601,0.0,7.801037437249136,,,0,6,0.0,39,924965715,6,45.87312316894531,-628.5286227092338,0.03089320895969533,4,-527434.9923402189,3.4028234663852886E38,1.57542003E9,,,,0,,1,,1.57542003E9
Raw,2065538057,1792291000000,,,-1311985616708807601,0.0,7.801037437249136,,,0,14,0.0,16431,176208932493657,9,40.053714752197266,-47.10630894834475,0.0485965446891681,1,-253359.3663055721,9.029838256537914E-4,1.57542003E9,,,,0,,1,,1.57542003E9
Raw,2065538057,1792291000000,,,-1311985616708807601,0.0,7.801037437249136,,,0,17,0.0,16431,176208929607902,12,37.51787567138672,-182.1952013182049,0.06379148317840727,4,-119810.36263920848,3.4028234663852886E38,1.57542003E9,,,,0,,1,,1.57542003E9
Raw,2065538058,1792291000000,,,-1311985616708807601,0.0,7.801037437249136,,,0,19,0.0,16431,176208927926751,14,36.23092269897461,-431.30431911536084,0.0734009136380599,1,-530766.5656842621,0.0014022312825545669,1.57542003E9,,,,0,,1,,1.57542003E9
Raw,2065538058,1792291000000,,,-1311985616708807601,0.0,7.801037437249136,,,0,21,0.0,16431,176208915362530,13,37.158287048339844,471.8237587893518,0.06744991369891862,1,557810.631327468,0.0012602346250787377,1.57542003E9,,,,0,,1,,1.57542003E9
Raw,2065538058,1792291000000,,,-1311985616708807601,0.0,7.801037437249136,,,0,22,0.0,16431,176208922584156,57,24.243526458740234,173.922162151684,0.2865873615030423,4,9254.465130777427,3.4028234663852886E38,1.57542003E9,,,,0,,1,,1.57542003E9
Raw,2065538058,1792291000000,,,-1311985616708807601,0.0,7.801037437249136,,,0,24,0.0,16,1792016814644,1000000000,8.103511810302734,-368.51959449151786,2.99792458E8,2,-524293.8894915391,3.4028234663852886E38,1.57542003E9,,,,0,,1,,1.57542003E9
Raw,2065538059,1792291000000,,,-1311985616708807601,0.0,7.801037437249136,,,0,30,0.0,16431,176208920869440,20,33.423606872558594,491.3736944280315,0.1031909194115474,4,9340.988074828136,3.4028234663852886E38,1.57542003E9,,,,0,,1,,1.57542003E9
Raw,2065538059,1792291000000,,,-1311985616708807601,0.0,7.801037437249136,,,0,10,0.0,16,2306153,1000000000,20.630538940429688,-836.7533458879525,2.99792458E8,4,-524959.2031269517,3.4028234663852886E38,1.59806246E9,,,,0,,3,,1.59806246E9
Raw,2065538059,1792291000000,,,-1311985616708807601,0.0,7.801037437249136,,,0,2,0.0,32995,14190919994331,80,27.3523006439209,23.660642021431187,0.2036349059917627,4,812.6936478200889,3.4028234663852886E38,1.59975002E9,,,,0,,3,,1.59975002E9
Raw,2065538059,1792291000000,,,-1311985616708807601,0.0,7.801037437249136,,,0,18,0.0,32995,14190927741540,41,33.17738342285156,380.91483860955964,0.10368863477700441,4,15596.286874065969,3.4028234663852886E38,1.60031245E9,,,,0,,3,,1.60031245E9
Raw,2065538060,1792291000000,,,-1311985616708807601,0.0,7.801037437249136,,,0,9,0.0,32995,14190933328784,33,42.63842010498047,-340.6736481106209,0.03681724082227644,1,-655776.413886276,6.956044817343354E-4,1.59862502E9,,,,0,,3,,1.59862502E9
Raw,2065538060,1792291000000,,,-1311985616708807601,0.0,7.801037437249136,,,0,16,0.0,99,932342018,33,36.690589904785156,416.3264768543031,0.07048514949743878,4,5405.370067094379,3.4028234663852886E38,1.60143744E9,,,,0,,3,,1.60143744E9
Raw,2065538060,1792291000000,,,-1311985616708807601,0.0,7.801037437249136,,,0,19,0.0,16,1792003181257,1000000000,27.627578735351562,-1.4576118736483963,2.99792458E8,2,-0.00433204682695143,3.4028234663852886E38,1.60368755E9,,,,0,,3,,1.60368755E9
Raw,2065538060,1792291000000,,,-1311985616708807601,0.0,7.801037437249136,,,0,3,0.0,32995,14190922718754,37,34.131595611572266,-480.437179449166,0.0921424620687133,4,-831928.05793386,3.4028234663852886E38,1.60481254E9,,,,0,,3,,1.60481254E9
Raw,2065538061,1792291000000,,,-1311985616708807601,0.0,7.801037437249136,,,0,193,0.0,35,11445492,31,29.643333435058594,-180.1193411387701,0.1557190660095119,1,-15141.180522999153,0.0028224277775734663,1.57542003E9,,,,0,,4,,1.57542003E9
Raw,2065538061,1792291000000,,,-1311985616708807601,0.0,7.801037437249136,,,0,194,0.0,35,15866988,16,34.969852447509766,-143.2927867527104,0.08607562671032054,1,-94266.719061682,0.001621336443349719,1.57542003E9,,,,0,,4,,1.57542003E9
Raw,2065538061,1792291000000,,,-1311985616708807601,0.0,7.801037437249136,,,0,195,0.0,35,7965223,42,26.919700622558594,-124.53376007948492,0.2116862872395956,4,-7841.182535868234,3.4028234663852886E38,1.57542003E9,,,,0,,4,,1.57542003E9
Raw,2065538061,1792291000000,,,-1311985616708807601,0.0,7.801037437249136,,,0,7,0.0,16431,176194879790843,17,28.45029067993164,-93.80074845083959,0.17984428626207472,4,-183735.75652303794,3.4028234663852886E38,1.56109798E9,,,,0,,5,,1.56109798E9
Raw,2065538062,1792291000000,,,-1311985616708807601,0.0,7.801037437249136,,,0,8,0.0,16431,176194878179243,9,33.940330505371094,-196.8279075832844,0.09696400634353897,1,-377913.44012859825,0.001842109370045364,1.56109798E9,,,,0,,5,,1.56109798E9
Raw,2065538062,1792291000000,,,-1311985616708807601,0.0,7.801037437249136,,,0,10,0.0,16431,176194880424216,7,36.337684631347656,-159.39144763774902,0.07476967041739979,4,-265941.36390799435,3.4028234663852886E38,1.56109798E9,,,,0,,5,,1.56109798E9
Raw,2065538062,1792291000000,,,-1311985616708807601,0.0,7.801037437249136,,,0,30,0.0,16431,176194924645286,6,44.081459045410156,-308.3847808623234,0.03083557624131371,4,-200442.29759352276,3.4028234663852886E38,1.56109798E9,,,,0,,5,,1.56109798E9
Raw,2065538062,1792291000000,,,-1311985616708807601,0.0,7.801037437249136,,,0,32,0.0,16431,176194913634988,14,30.320016860961914,-649.9976392273434,0.1445962862785768,1,-406731.1257725459,0.002634843112900853,1.56109798E9,,,,0,,5,,1.56109798E9
Raw,2065538063,1792291000000,,,-1311985616708807601,0.0,7.801037437249136,,,0,33,0.0,16431,176194910787530,166,26.15514373779297,47.02394443185031,0.23154006704623398,4,8931.42144831482,3.4028234663852886E38,1.56109798E9,,,,1,,5,,1.56109798E9
Raw,2065538063,1792291000000,,,-1311985616708807601,0.0,7.801037437249136,,,0,36,0.0,16431,176194920917567,6,43.2111930847168,-300.9537487841985,0.03598575702516832,1,-243585.51616106273,6.678070058114827E-4,1.56109798E9,,,,0,,5,,1.56109798E9
Fix,gps,34.486369,109.464221,356.808228,0.513616,3.000000,1627952191999
Raw,2065539154,1793291000000,,,-1311985616708807983,0.0,7.56852496257705,,,0,1,0.0,16431,176209924893823,32,29.12735366821289,507.58395831695407,0.16394523633979552,4,550107.0946781411,3.4028234663852886E38,1.57542003E9,,,,0,,1,,1.57542003E9
Raw,2065539154,1793291000000,,,-1311985616708807983,0.0,7.56852496257705,,,0,2,0.0,16,1793014868628,1000000000,17.686948776245117,-686.7274164781065,2.99792458E8,2,-9.594758447101862,3.4028234663852886E38,1.57542003E9,,,,0,,1,,1.57542003E9
Raw,2065539155,1793291000000,,,-1311985616708807983,0.0,7.56852496257705,,,0,3,0.0,16,1793006090907,1000000000,28.288599014282227,-151.67782087136527,2.99792458E8,2,-0.9093347924279175,3.4028234663852886E38,1.57542003E9,,,,0,,1,,1.57542003E9
Raw,2065539155,1793291000000,,,-1311985616708807983,0.0,7.56852496257705,,,0,6,0.0,39,1924967803,6,45.804046630859375,-628.4689784103189,0.030893585480974053,4,-528063.4808362286,3.4028234663852886E38,1.57542003E9,,,,0,,1,,1.57542003E9
Raw,2065539155,1793291000000,,,-1311985616708807983,0.0,7.56852496257705,,,0,14,0.0,16431,176209932493822,8,41.1763916015625,-46.95448438545682,0.04297680026618236,1,-253406.37979481873,7.934986497275531E-4,1.57542003E9,,,,0,,1,,1.57542003E9
Raw,2065539155,1793291000000,,,-1311985616708807983,0.0,7.56852496257705,,,0,17,0.0,16431,176209929608507,11,38.260292053222656,-182.26648477602237,0.0587071894578734,4,-119992.62300655834,3.4028234663852886E38,1.57542003E9,,,,0,,1,,1.57542003E9
Raw,2065539156,1793291000000,,,-1311985616708807983,0.0,7.56852496257705,,,0,19,0.0,16431,176209927928210,22,32.568817138671875,-431.52844534945484,0.11114653528044449,1,-531198.019742212,0.0021375922951847315,1.57542003E9,,,,0,,1,,1.57542003E9
Raw,2065539156,1793291000000,,,-1311985616708807983,0.0,7.56852496257705,,,0,21,0.0,16431,176209915360940,14,36.5084228515625,471.8333359596347,0.07247500412888613,1,558282.4321470507,0.0013581403763964772,1.57542003E9,,,,0,,1,,1.57542003E9
Raw,2065539156,1793291000000,,,-1311985616708807983,0.0,7.56852496257705,,,0,22,0.0,16,1793002583965,1000000000,14.318318367004395,174.51304970041997,2.99792458E8,2,0.34750144897043356,3.4028234663852886E38,1.57542003E9,,,,0,,1,,1.57542003E9
Raw,2065539157,1793291000000,,,-1311985616708807983,0.0,7.56852496257705,,,0,24,0.0,16,1793016815812,1000000000,15.050650596618652,-368.51959449151786,2.99792458E8,2,-524293.8866096655,3.4028234663852886E38,1.57542003E9,,,,0,,1,,1.57542003E9
Raw,2065539157,1793291000000,,,-1311985616708807983,0.0,7.56852496257705,,,0,30,0.0,16431,176209920867844,22,32.41115188598633,491.35450600500917,0.11548387735128607,4,9832.406660503566,3.4028234663852886E38,1.57542003E9,,,,0,,1,,1.57542003E9
Raw,2065539157,1793291000000,,,-1311985616708807983,0.0,7.56852496257705,,,0,10,0.0,17,308821,126,23.454986572265625,-837.4723493907577,0.31372881259057595,4,-524289.686414031,3.4028234663852886E38,1.59806246E9,,,,0,,3,,1.59806246E9
Raw,2065539157,1793291000000,,,-1311985616708807983,0.0,7.56852496257705,,,0,2,0.0,32995,14191919994054,118,24.050933837890625,24.458525109551374,0.2961340439635156,4,836.6917648972305,3.4028234663852886E38,1.59975002E9,,,,0,,3,,1.59975002E9
Raw,2065539158,1793291000000,,,-1311985616708807983,0.0,7.56852496257705,,,0,18,0.0,32995,14191927740252,50,31.383411407470703,380.87288310558006,0.12715671930656125,4,15977.13240968501,3.4028234663852886E38,1.60031245E9,,,,0,,3,,1.60031245E9
Raw,2065539158,1793291000000,,,-1311985616708807983,0.0,7.56852496257705,,,0,9,0.0,32995,14191933329921,33,41.52363586425781,-340.55316662681275,0.041531045925457255,1,-656117.0258749786,7.908634725026786E-4,1.59862502E9,,,,0,,3,,1.59862502E9
Raw,2065539158,1793291000000,,,-1311985616708807983,0.0,7.56852496257705,,,0,16,0.0,32995,14191932340621,33,36.905452728271484,416.41635229215376,0.06881695637033769,4,5821.763277138295,3.4028234663852886E38,1.60143744E9,,,,0,,3,,1.60143744E9
Raw,2065539159,1793291000000,,,-1311985616708807983,0.0,7.56852496257705,,,0,19,0.0,17,181096,98,25.62415313720703,-1.055413724240629,0.24464575344689854,4,-1.069742369944889,3.4028234663852886E38,1.60368755E9,,,,0,,3,,1.60368755E9
Raw,2065539159,1793291000000,,,-1311985616708807983,0.0,7.56852496257705,,,0,3,0.0,32995,14191922720300,35,34.48775863647461,-480.20156742722384,0.08846051665022014,4,-832408.3740382825,3.4028234663852886E38,1.60481254E9,,,,0,,3,,1.60481254E9
Raw,2065539159,1793291000000,,,-1311985616708807983,0.0,7.56852496257705,,,0,193,0.0,35,11446079,29,30.06641387939453,-180.05639084157247,0.14841388752926998,1,-15321.229065112064,0.0026882446836680174,1.57542003E9,,,,0,,4,,1.57542003E9
Raw,2065539160,1793291000000,,,-1311985616708807983,0.0,7.56852496257705,,,0,194,0.0,35,15867496,22,32.4248046875,-143.22455367475175,0.11440892366212291,1,-94409.9252573352,0.002173328772187233,1.57542003E9,,,,0,,4,,1.57542003E9
Raw,2065539160,1793291000000,,,-1311985616708807983,0.0,7.56852496257705,,,0,195,0.0,35,7965654,51,25.281387329101562,-124.58847094281816,0.255330653492273,4,-7965.772403324218,3.4028234663852886E38,1.57542003E9,,,,0,,4,,1.57542003E9
Raw,2065539160,1793291000000,,,-1311985616708807983,0.0,7.56852496257705,,,0,7,0.0,16431,176195879791116,21,26.6662540435791,-93.73634964923974,0.2200388855104084,4,-183829.44920992036,3.4028234663852886E38,1.56109798E9,,,,0,,5,,1.56109798E9
Raw,2065539160,1793291000000,,,-1311985616708807983,0.0,7.56852496257705,,,0,8,0.0,16431,176195878179898,10,32.7358512878418,-196.82003453582763,0.11090072721205085,1,-378110.2874003232,0.0021161155309528112,1.56109798E9,,,,0,,5,,1.56109798E9
Raw,2065539161,1793291000000,,,-1311985616708807983,0.0,7.56852496257705,,,0,10,0.0,16431,176195880424756,7,36.21098709106445,-159.39025475177073,0.07581438591149364,4,-266100.75891066843,3.4028234663852886E38,1.56109798E9,,,,0,,5,,1.56109798E9
Raw,2065539161,1793291000000,,,-1311985616708807983,0.0,7.56852496257705,,,0,30,0.0,16431,176195924646320,6,43.60072326660156,-308.4241120171507,0.03164579594720014,4,-200750.71136025432,3.4028234663852886E38,1.56109798E9,,,,0,,5,,1.56109798E9
Raw,2065539161,1793291000000,,,-1311985616708807983,0.0,7.56852496257705,,,0,32,0.0,16431,176195913637171,15,29.9493350982666,-649.8626045346,0.1507941510419658,1,-407380.96510600497,0.0027497222181409597,1.56109798E9,,,,0,,5,,1.56109798E9
Raw,2065539162,1793291000000,,,-1311985616708807983,0.0,7.56852496257705,,,0,33,0.0,16431,176195910787404,166,25.038854598999023,47.504920318607276,0.263027630446107,4,8978.876105593139,3.4028234663852886E38,1.56109798E9,,,,1,,5,,1.56109798E9
Raw,2065539162,1793291000000,,,-1311985616708807983,0.0,7.56852496257705,,,0,36,0.0,16431,176195920918574,6,42.840484619140625,-300.9299251470891,0.037390971881474694,1,-243886.465817191,6.969255045987666E-4,1.56109798E9,,,,0,,5,,1.56109798E9
Fix,gps,34.486369,109.464219,356.833893,0.353745,3.000000,1627952192999
Raw,2065540097,1794291000000,,,-1311985616708808368,0.0,7.546372472266991,,,0,1,0.0,16431,176210924892125,33,29.101259231567383,507.4486509645585,0.16443558769792277,4,550614.5716396896,3.4028234663852886E38,1.57542003E9,,,,0,,1,,1.57542003E9
Raw,2065540097,1794291000000,,,-1311985616708808368,0.0,7.546372472266991,,,0,2,0.0,16,1794014870919,1000000000,7.0,-686.7274164781065,2.99792458E8,2,-9.610869354277115,3.4028234663852886E38,1.57542003E9,,,,0,,1,,1.57542003E9
Raw,2065540098,1794291000000,,,-1311985616708808368,0.0,7.546372472266991,,,0,3,0.0,16,1794006091412,1000000000,26.6908016204834,-151.49217373068552,2.99792458E8,2,-0.9070371683530197,3.4028234663852886E38,1.57542003E9,,,,0,,1,,1.57542003E9
Raw,2065540098,1794291000000,,,-1311985616708808368,0.0,7.546372472266991,,,0,6,0.0,39,2924969901,6,45.99341583251953,-628.3715707495767,0.03089396200225278,4,-528691.8810570277,3.4028234663852886E38,1.57542003E9,,,,0,,1,,1.57542003E9
Raw,2065540098,1794291000000,,,-1311985616708808368,0.0,7.546372472266991,,,0,14,0.0,16431,176210932493980,8,40.77339172363281,-46.86564846253012,0.04491110032707929,1,-253453.26582075487,8.311819983646274E-4,1.57542003E9,,,,0,,1,,1.57542003E9
Raw,2065540099,1794291000000,,,-1311985616708808368,0.0,7.546372472266991,,,0,17,0.0,16431,176210929609117,12,37.55133056640625,-182.2120721341837,0.06355313480783412,4,-120174.83917399695,3.4028234663852886E38,1.57542003E9,,,,0,,1,,1.57542003E9
Raw,2065540099,1794291000000,,,-1311985616708808368,0.0,7.546372472266991,,,0,19,0.0,16431,176210927929653,24,31.777996063232422,-431.7376775500484,0.12160533117760258,1,-531629.4680175629,0.002341347513720393,1.57542003E9,,,,0,,1,,1.57542003E9
Raw,2065540099,1794291000000,,,-1311985616708808368,0.0,7.546372472266991,,,0,21,0.0,16431,176210915359372,12,37.22431182861328,471.7968677311553,0.06695949161303735,1,558754.2200928757,0.001250691362656653,1.57542003E9,,,,0,,1,,1.57542003E9
Raw,2065540100,1794291000000,,,-1311985616708808368,0.0,7.546372472266991,,,0,22,0.0,16,1794002583383,1000000000,24.48963165283203,174.51304970041997,2.99792458E8,2,0.3461367330737484,3.4028234663852886E38,1.57542003E9,,,,0,,1,,1.57542003E9
Raw,2065540100,1794291000000,,,-1311985616708808368,0.0,7.546372472266991,,,0,24,0.0,16,1794016817041,1000000000,19.230716705322266,-368.3339473508381,2.99792458E8,2,-524293.8922851164,3.4028234663852886E38,1.57542003E9,,,,0,,1,,1.57542003E9
Raw,2065540101,1794291000000,,,-1311985616708808368,0.0,7.546372472266991,,,0,30,0.0,16431,176210920866152,19,33.9144401550293,491.4134345723371,0.09772702567476094,1,10323.84391928396,0.0018308120779693127,1.57542003E9,,,,0,,1,,1.57542003E9
Raw,2065540101,1794291000000,,,-1311985616708808368,0.0,7.546372472266991,,,0,10,0.0,17,311557,85,18.382152557373047,-837.2373167705764,299.7928662325751,4,-525126.7808524614,3.4028234663852886E38,1.59806246E9,,,,0,,3,,1.59806246E9
Raw,2065540101,1794291000000,,,-1311985616708808368,0.0,7.546372472266991,,,0,2,0.0,32995,14192919994244,86,26.76630973815918,24.201654155353083,0.21759603209586575,4,860.8163014549674,3.4028234663852886E38,1.59975002E9,,,,0,,3,,1.59975002E9
Raw,2065540102,1794291000000,,,-1311985616708808368,0.0,7.546372472266991,,,0,18,0.0,32995,14192927739023,44,32.46540451049805,380.8659643669059,0.112426632739899,4,16357.987990572243,3.4028234663852886E38,1.60031245E9,,,,0,,3,,1.60031245E9
Raw,2065540102,1794291000000,,,-1311985616708808368,0.0,7.546372472266991,,,0,9,0.0,32995,14192933331067,33,41.52900695800781,-340.3990798408731,0.04150706089593406,1,-656457.4651765538,7.903747027739882E-4,1.59862502E9,,,,0,,3,,1.59862502E9
Raw,2065540102,1794291000000,,,-1311985616708808368,0.0,7.546372472266991,,,0,16,0.0,32995,14192932339219,33,36.84440612792969,416.4439249994807,0.06928639727601332,4,6238.279414388318,3.4028234663852886E38,1.60143744E9,,,,0,,3,,1.60143744E9
Raw,2065540102,1794291000000,,,-1311985616708808368,0.0,7.546372472266991,,,0,19,0.0,17,181028,100,25.43239974975586,-1.4423284214552359,0.2518926522578324,4,-2.2849839189049064,3.4028234663852886E38,1.60368755E9,,,,0,,3,,1.60368755E9
Raw,2065540103,1794291000000,,,-1311985616708808368,0.0,7.546372472266991,,,0,3,0.0,32995,14192922721896,36,34.228179931640625,-480.1798909848753,0.09112949085480365,1,-832888.5945978914,0.0017335196025669575,1.60481254E9,,,,0,,3,,1.60481254E9
Raw,2065540103,1794291000000,,,-1311985616708808368,0.0,7.546372472266991,,,0,193,0.0,35,11446725,28,30.546592712402344,-180.08950194808438,0.14054270395684187,1,-15501.267504430012,0.0025436640717089176,1.57542003E9,,,,0,,4,,1.57542003E9
Raw,2065540103,1794291000000,,,-1311985616708808368,0.0,7.546372472266991,,,0,194,0.0,35,15867917,18,34.35667419433594,-143.2348636178499,0.09216313953562227,1,-94553.10883728554,0.0017399308271706104,1.57542003E9,,,,0,,4,,1.57542003E9
Raw,2065540104,1794291000000,,,-1311985616708808368,0.0,7.546372472266991,,,0,195,0.0,35,7966059,47,25.982330322265625,-124.58008665851355,0.23564637066790262,4,-8090.352847259242,3.4028234663852886E38,1.57542003E9,,,,0,,4,,1.57542003E9
Raw,2065540104,1794291000000,,,-1311985616708808368,0.0,7.546372472266991,,,0,7,0.0,16431,176196879791411,24,25.66825294494629,-93.89870995150028,0.24639748853285925,4,-183923.17540011444,3.4028234663852886E38,1.56109798E9,,,,0,,5,,1.56109798E9
Raw,2065540104,1794291000000,,,-1311985616708808368,0.0,7.546372472266991,,,0,8,0.0,16431,176196878180555,11,32.352088928222656,-196.84975443791552,0.11576284425494421,1,-378307.09838295216,0.0022117060143500566,1.56109798E9,,,,0,,5,,1.56109798E9
Raw,2065540105,1794291000000,,,-1311985616708808368,0.0,7.546372472266991,,,0,10,0.0,16431,176196880425275,6,36.615211486816406,-159.3828077350205,0.07253414917306683,4,-266260.1219524543,3.4028234663852886E38,1.56109798E9,,,,0,,5,,1.56109798E9
Raw,2065540105,1794291000000,,,-1311985616708808368,0.0,7.546372472266991,,,0,30,0.0,16431,176196924647351,6,43.529624938964844,-308.37319282710564,0.03189921973051871,4,-201059.08261238807,3.4028234663852886E38,1.56109798E9,,,,0,,5,,1.56109798E9
Raw,2065540105,1794291000000,,,-1311985616708808368,0.0,7.546372472266991,,,0,32,0.0,16431,176196913639294,12,31.48776626586914,-649.8911656331661,0.126715869055332,1,-408030.8095449337,0.0023033893667161465,1.56109798E9,,,,0,,5,,1.56109798E9
Raw,2065540105,1794291000000,,,-1311985616708808368,0.0,7.546372472266991,,,0,33,0.0,16431,176196910787201,26,25.01995086669922,47.917122068408275,0.26359646464845377,4,9026.456243294591,3.4028234663852886E38,1.56109798E9,,,,0,,5,,1.56109798E9
Raw,2065540106,1794291000000,,,-1311985616708808368,0.0,7.546372472266991,,,0,36,0.0,16431,176196920919572,6,43.260231018066406,-300.75296903282265,0.0358047189376276,1,-244187.28009476536,6.640473729930818E-4,1.56109798E9,,,,0,,5,,1.56109798E9
Fix,gps,34.486369,109.464218,356.941956,0.242304,3.000000,1627952193999
Raw,2065541144,1795291000000,,,-1311985616708808752,0.0,7.608911604667009,,,0,1,0.0,16431,176211924890426,17,34.402366638183594,507.55048934464867,0.08971995328459015,4,551122.1170817572,3.4028234663852886E38,1.57542003E9,,,,0,,1,,1.57542003E9
Raw,2065541144,1795291000000,,,-1311985616708808752,0.0,7.608911604667009,,,0,2,0.0,16,1795014873210,1000000000,8.410177230834961,-686.7274164781065,2.99792458E8,2,-9.605499051988698,3.4028234663852886E38,1.57542003E9,,,,0,,1,,1.57542003E9
Raw,2065541145,1795291000000,,,-1311985616708808752,0.0,7.608911604667009,,,0,3,0.0,16,6091877,1000000000,24.528305053710938,-151.37864506800804,2.99792458E8,4,-121.9077844228239,3.4028234663852886E38,1.57542003E9,,,,0,,1,,1.57542003E9
Raw,2065541145,1795291000000,,,-1311985616708808752,0.0,7.608911604667009,,,0,6,0.0,39,3924972003,6,43.509849548339844,-628.250987018399,0.03202841645459477,1,-529320.1917763149,6.393695366568863E-4,1.57542003E9,,,,0,,1,,1.57542003E9
Raw,2065541145,1795291000000,,,-1311985616708808752,0.0,7.608911604667009,,,0,14,0.0,16431,176211932494123,10,39.363990783691406,-46.79512759967736,0.05242717648842446,1,-253500.05923948248,9.776114020496607E-4,1.57542003E9,,,,0,,1,,1.57542003E9
Raw,2065541145,1795291000000,,,-1311985616708808752,0.0,7.608911604667009,,,0,17,0.0,16431,176211929609679,15,35.56480407714844,-182.24555814771736,0.07944055625526208,1,-120357.03277647206,0.0015139988390728831,1.57542003E9,,,,0,,1,,1.57542003E9
Raw,2065541146,1795291000000,,,-1311985616708808752,0.0,7.608911604667009,,,0,19,0.0,16431,176211927931043,18,34.365848541259766,-431.3536023474928,0.09064119476199894,1,-532060.8100378816,0.001638690591789782,1.57542003E9,,,,0,,1,,1.57542003E9
Raw,2065541146,1795291000000,,,-1311985616708808752,0.0,7.608911604667009,,,0,21,0.0,16431,176211915357812,15,35.47722244262695,471.6814645333691,0.08126206219033016,1,559225.9785512249,0.0015293419128283858,1.57542003E9,,,,0,,1,,1.57542003E9
Raw,2065541146,1795291000000,,,-1311985616708808752,0.0,7.608911604667009,,,0,22,0.0,16,1795002582800,1000000000,31.047109603881836,174.69871388232798,2.99792458E8,2,0.34513882904411736,3.4028234663852886E38,1.57542003E9,,,,0,,1,,1.57542003E9
Raw,2065541147,1795291000000,,,-1311985616708808752,0.0,7.608911604667009,,,0,24,0.0,16,1795016818269,1000000000,7.0,-368.3339473508381,2.99792458E8,2,-524293.8894046947,3.4028234663852886E38,1.57542003E9,,,,0,,1,,1.57542003E9
Raw,2065541147,1795291000000,,,-1311985616708808752,0.0,7.608911604667009,,,0,30,0.0,16431,176211920864659,166,30.628395080566406,491.320662125682,0.1409386795283769,1,10815.25638556721,0.002519821049645543,1.57542003E9,,,,1,,1,,1.57542003E9
Raw,2065541147,1795291000000,,,-1311985616708808752,0.0,7.608911604667009,,,0,10,0.0,16,1795002314475,1000000000,27.353912353515625,-837.054430308875,2.99792458E8,2,-524289.6621518377,3.4028234663852886E38,1.59806246E9,,,,0,,3,,1.59806246E9
Raw,2065541148,1795291000000,,,-1311985616708808752,0.0,7.608911604667009,,,0,2,0.0,32995,14193919994210,66,29.11349105834961,24.326172280105638,0.16692190955799158,4,885.0797173019873,3.4028234663852886E38,1.59975002E9,,,,0,,3,,1.59975002E9
Raw,2065541148,1795291000000,,,-1311985616708808752,0.0,7.608911604667009,,,0,18,0.0,32995,14193927737833,33,35.076133728027344,380.78215560631634,0.08360130360569751,1,16738.8565109686,0.001576705602928996,1.60031245E9,,,,0,,3,,1.60031245E9
Raw,2065541150,1795291000000,,,-1311985616708808752,0.0,7.608911604667009,,,0,9,0.0,32995,14193933332205,33,44.20762634277344,-340.1789071717358,0.03239814162825008,1,-656797.6932894804,5.806335830129683E-4,1.59862502E9,,,,0,,3,,1.59862502E9
Raw,2065541150,1795291000000,,,-1311985616708808752,0.0,7.608911604667009,,,0,16,0.0,32995,14193932337920,41,33.09238052368164,416.67350442661836,0.10552145715271483,1,6654.9087054556885,0.0019798537250608206,1.60143744E9,,,,0,,3,,1.60143744E9
Raw,2065541150,1795291000000,,,-1311985616708808752,0.0,7.608911604667009,,,0,19,0.0,17,181096,78,27.638452529907227,-1.1629151174974046,0.19592657931363744,4,-0.01880911816824682,3.4028234663852886E38,1.60368755E9,,,,0,,3,,1.60368755E9
Raw,2065541151,1795291000000,,,-1311985616708808752,0.0,7.608911604667009,,,0,3,0.0,32995,14193922723476,35,34.4749870300293,-480.058352944915,0.08859053090392349,1,-833368.7261965298,0.0016849552048370242,1.60481254E9,,,,0,,3,,1.60481254E9
Raw,2065541151,1795291000000,,,-1311985616708808752,0.0,7.608911604667009,,,0,193,0.0,35,11447299,29,30.20943832397461,-179.9998139637446,0.14602393847473027,1,-15681.328521490486,0.0026443414390087128,1.57542003E9,,,,0,,4,,1.57542003E9
Raw,2065541151,1795291000000,,,-1311985616708808752,0.0,7.608911604667009,,,0,194,0.0,35,15868454,10,38.7785530090332,-143.133434227238,0.05653288100441203,1,-94696.29900848004,0.001045774552039802,1.57542003E9,,,,0,,4,,1.57542003E9
Raw,2065541151,1795291000000,,,-1311985616708808752,0.0,7.608911604667009,,,0,195,0.0,35,7966468,63,22.305280685424805,-123.86980826457818,4.201433083207634,4,-8215.009320020696,3.4028234663852886E38,1.57542003E9,,,,0,,4,,1.57542003E9
Raw,2065541152,1795291000000,,,-1311985616708808752,0.0,7.608911604667009,,,0,7,0.0,16431,176197879791768,16,28.938810348510742,-93.7187716222881,0.170203361149605,4,-184016.86413853988,3.4028234663852886E38,1.56109798E9,,,,0,,5,,1.56109798E9
Raw,2065541152,1795291000000,,,-1311985616708808752,0.0,7.608911604667009,,,0,8,0.0,16431,176197878181207,6,37.41114044189453,-196.74183233933604,0.06610097733252729,1,-378503.8613729061,0.0012353068450465798,1.56109798E9,,,,0,,5,,1.56109798E9
Raw,2065541152,1795291000000,,,-1311985616708808752,0.0,7.608911604667009,,,0,10,0.0,16431,176197880425807,7,36.22311019897461,-159.34063069507351,0.07571396082170512,4,-266419.4627813627,3.4028234663852886E38,1.56109798E9,,,,0,,5,,1.56109798E9
Raw,2065541153,1795291000000,,,-1311985616708808752,0.0,7.608911604667009,,,0,30,0.0,16431,176197924648387,6,41.979347229003906,-308.31242380712547,0.037969221196017644,1,-201367.3736154317,7.695615058764815E-4,1.56109798E9,,,,0,,5,,1.56109798E9
Raw,2065541153,1795291000000,,,-1311985616708808752,0.0,7.608911604667009,,,0,32,0.0,16431,176197913641509,12,31.19617462158203,-649.8085497585548,0.13095865227951214,1,-408680.69282979856,0.0023820281494408846,1.56109798E9,,,,0,,5,,1.56109798E9
Raw,2065541153,1795291000000,,,-1311985616708808752,0.0,7.608911604667009,,,0,33,0.0,16431,176197910787146,23,26.01091766357422,47.666262407479195,0.23538426193243667,4,9074.120226064046,3.4028234663852886E38,1.56109798E9,,,,0,,5,,1.56109798E9
Raw,2065541154,1795291000000,,,-1311985616708808752,0.0,7.608911604667009,,,0,36,0.0,16431,176197920920583,6,42.73621368408203,-300.6456433772323,0.037797465086077314,1,-244487.96695517836,7.053422159515321E-4,1.56109798E9,,,,0,,5,,1.56109798E9
Fix,gps,34.486369,109.464217,356.789429,0.241161,3.000000,1627952194999
Raw,2065542149,1796291000000,,,-1311985616708809136,0.0,7.217388705652279,,,0,1,0.0,16431,176212924888780,15,35.62125015258789,507.57046166417103,0.07808799197113542,4,551629.6890874517,3.4028234663852886E38,1.57542003E9,,,,0,,1,,1.57542003E9
Raw,2065542149,1796291000000,,,-1311985616708809136,0.0,7.217388705652279,,,0,2,0.0,16,1796014875500,1000000000,7.0,-686.7274164781065,2.99792458E8,2,-9.600128749525656,3.4028234663852886E38,1.57542003E9,,,,0,,1,,1.57542003E9
Raw,2065542150,1796291000000,,,-1311985616708809136,0.0,7.217388705652279,,,0,3,0.0,17,92310,39,27.459775924682617,-151.0008751199092,0.1986743109525443,4,-0.9023458718010033,3.4028234663852886E38,1.57542003E9,,,,0,,1,,1.57542003E9
Raw,2065542150,1796291000000,,,-1311985616708809136,0.0,7.217388705652279,,,0,6,0.0,39,4924974095,6,43.554744720458984,-628.1991135195713,0.03186827841836537,1,-529948.4369692814,6.360734114423394E-4,1.57542003E9,,,,0,,1,,1.57542003E9
Raw,2065542150,1796291000000,,,-1311985616708809136,0.0,7.217388705652279,,,0,14,0.0,16431,176212932494271,9,39.6879768371582,-46.62496667518016,0.05058995651059678,1,-253546.7165739928,9.418177651241422E-4,1.57542003E9,,,,0,,1,,1.57542003E9
Raw,2065542151,1796291000000,,,-1311985616708809136,0.0,7.217388705652279,,,0,17,0.0,16431,176212929610359,16,35.261512756347656,-182.18797583742207,0.0822021505339558,1,-120539.17914978329,0.0015677980845794082,1.57542003E9,,,,0,,1,,1.57542003E9
Raw,2065542151,1796291000000,,,-1311985616708809136,0.0,7.217388705652279,,,0,19,0.0,16431,176212927932491,16,35.33409881591797,-431.12531805370304,0.0812306424257232,4,-532491.6897409855,3.4028234663852886E38,1.57542003E9,,,,0,,1,,1.57542003E9
Raw,2065542151,1796291000000,,,-1311985616708809136,0.0,7.217388705652279,,,0,21,0.0,16431,176212915356211,15,35.69196319580078,471.70818517928296,0.07934484912271195,1,559697.7396945547,0.0014919957611709833,1.57542003E9,,,,0,,1,,1.57542003E9
Raw,2065542151,1796291000000,,,-1311985616708809136,0.0,7.217388705652279,,,0,22,0.0,17,582078,26,31.09234619140625,174.9295373191287,0.13051467336528177,4,140.39978122142216,3.4028234663852886E38,1.57542003E9,,,,0,,1,,1.57542003E9
Raw,2065542152,1796291000000,,,-1311985616708809136,0.0,7.217388705652279,,,0,24,0.0,16,1796016819497,1000000000,18.166616439819336,-368.14826612770185,2.99792458E8,2,-524293.883557007,3.4028234663852886E38,1.57542003E9,,,,0,,1,,1.57542003E9
Raw,2065542152,1796291000000,,,-1311985616708809136,0.0,7.217388705652279,,,0,30,0.0,16431,176212920862890,25,31.28235626220703,491.49161972760044,0.13098889047458145,1,11306.777837961507,0.0023370697163045406,1.57542003E9,,,,0,,1,,1.57542003E9
Raw,2065542152,1796291000000,,,-1311985616708809136,0.0,7.217388705652279,,,0,10,0.0,16,1796002317267,1000000000,16.575063705444336,-837.054430308875,2.99792458E8,2,-524289.7014655466,3.4028234663852886E38,1.59806246E9,,,,0,,3,,1.59806246E9
Raw,2065542153,1796291000000,,,-1311985616708809136,0.0,7.217388705652279,,,0,2,0.0,32995,14194919994151,48,31.808452606201172,24.43416893405876,0.12335480297543483,4,909.4858978332883,3.4028234663852886E38,1.59975002E9,,,,0,,3,,1.59975002E9
Raw,2065542153,1796291000000,,,-1311985616708809136,0.0,7.217388705652279,,,0,18,0.0,32995,14194927736489,33,35.12626647949219,380.8438448526226,0.08312792690853377,1,17119.743621291684,0.0015676314942538738,1.60031245E9,,,,0,,3,,1.60031245E9
Raw,2065542153,1796291000000,,,-1311985616708809136,0.0,7.217388705652279,,,0,9,0.0,32995,14194933333336,33,43.83091735839844,-340.02601327177445,0.03240257251401629,1,-657137.7824107201,6.063696346245706E-4,1.59862502E9,,,,0,,3,,1.59862502E9
Raw,2065542154,1796291000000,,,-1311985616708809136,0.0,7.217388705652279,,,0,16,0.0,32995,14194932336461,36,34.18536376953125,416.84708637768904,0.09330682395986317,1,7071.714101103339,0.0017457574140280485,1.60143744E9,,,,0,,3,,1.60143744E9
Raw,2065542154,1796291000000,,,-1311985616708809136,0.0,7.217388705652279,,,0,19,0.0,17,181101,69,28.64639663696289,-1.0912852434616953,0.17471985246090949,4,-1.0751490704925286,3.4028234663852886E38,1.60368755E9,,,,0,,3,,1.60368755E9
Raw,2065542154,1796291000000,,,-1311985616708809136,0.0,7.217388705652279,,,0,3,0.0,32995,14194922725303,48,31.829004287719727,-480.04393606580584,0.11996551236122971,1,-833848.7409089364,0.002154325367882848,1.60481254E9,,,,0,,3,,1.60481254E9
Raw,2065542155,1796291000000,,,-1311985616708809136,0.0,7.217388705652279,,,0,193,0.0,35,11447859,25,31.280485153198242,-179.98059145826574,0.12932276925462738,1,-15861.359273559128,0.002337573328986764,1.57542003E9,,,,0,,4,,1.57542003E9
Raw,2065542155,1796291000000,,,-1311985616708809136,0.0,7.217388705652279,,,0,194,0.0,35,15868921,10,38.70933151245117,-143.11093980593296,0.05696246474047237,1,-94839.4301747197,0.0010541422525420785,1.57542003E9,,,,0,,4,,1.57542003E9
Raw,2065542156,1796291000000,,,-1311985616708809136,0.0,7.217388705652279,,,0,195,0.0,16,1796007966917,1000000000,23.376049041748047,-124.7582697412148,2.99792458E8,2,-0.9869759695920948,3.4028234663852886E38,1.57542003E9,,,,0,,4,,1.57542003E9
Raw,2065542156,1796291000000,,,-1311985616708809136,0.0,7.217388705652279,,,0,7,0.0,16431,176198879792093,15,29.578643798828125,-93.60795251490418,0.15836912678058068,1,-184110.50317676127,0.002869614167138934,1.56109798E9,,,,0,,5,,1.56109798E9
Raw,2065542156,1796291000000,,,-1311985616708809136,0.0,7.217388705652279,,,0,8,0.0,16431,176198878181852,6,37.76034164428711,-196.67922286670364,0.0636252022287189,1,-378700.5832433313,0.0011866287095472217,1.56109798E9,,,,0,,5,,1.56109798E9
Raw,2065542157,1796291000000,,,-1311985616708809136,0.0,7.217388705652279,,,0,10,0.0,16431,176198880426344,7,36.32201385498047,-159.3388754485626,0.07489841989244311,1,-266578.7904800252,0.0014003325486555696,1.56109798E9,,,,0,,5,,1.56109798E9
Raw,2065542157,1796291000000,,,-1311985616708809136,0.0,7.217388705652279,,,0,30,0.0,16431,176198924649409,6,42.16221237182617,-308.2666169855588,0.037195804884955525,1,-201675.64886912223,7.535289623774588E-4,1.56109798E9,,,,0,,5,,1.56109798E9
Raw,2065542157,1796291000000,,,-1311985616708809136,0.0,7.217388705652279,,,0,32,0.0,16431,176198913643641,12,31.583799362182617,-649.8112081901636,0.12535033246902783,1,-409330.53112984856,0.002278062282130122,1.56109798E9,,,,0,,5,,1.56109798E9
Raw,2065542157,1796291000000,,,-1311985616708809136,0.0,7.217388705652279,,,0,33,0.0,16431,176198910786854,61,22.59450912475586,47.98731062730994,4.201940326017603,4,9122.111934106772,3.4028234663852886E38,1.56109798E9,,,,0,,5,,1.56109798E9
Raw,2065542158,1796291000000,,,-1311985616708809136,0.0,7.217388705652279,,,0,36,0.0,16431,176198920921572,6,43.326171875,-300.5791485045563,0.03556273848886299,1,-244788.57119994273,6.590251578018069E-4,1.56109798E9,,,,0,,5,,1.56109798E9
Fix,gps,34.486369,109.464215,356.856079,0.408803,3.000000,1627952195999
Raw,2065543136,1797291000000,,,-1311985616708809521,0.0,6.995203721167465,,,0,1,0.0,16431,176213924887078,15,35.803829193115234,507.70454204813177,0.07648169811016547,1,552137.336931736,0.0014729035319760442,1.57542003E9,,,,0,,1,,1.57542003E9
Raw,2065543136,1797291000000,,,-1311985616708809521,0.0,6.995203721167465,,,0,2,0.0,16,1797014877791,1000000000,7.0,-686.7274164781065,2.99792458E8,2,-9.594758447081093,3.4028234663852886E38,1.57542003E9,,,,0,,1,,1.57542003E9
Raw,2065543136,1797291000000,,,-1311985616708809521,0.0,6.995203721167465,,,0,3,0.0,51,6092812,38,27.78888702392578,-150.8770705965901,0.19132814365862283,4,-151.84165940378207,3.4028234663852886E38,1.57542003E9,,,,0,,1,,1.57542003E9
Raw,2065543137,1797291000000,,,-1311985616708809521,0.0,6.995203721167465,,,0,6,0.0,39,5924976159,9,40.27140808105469,-628.0494915354361,0.04609710907141376,1,-530576.6174804003,8.806340047158301E-4,1.57542003E9,,,,0,,1,,1.57542003E9
Raw,2065543137,1797291000000,,,-1311985616708809521,0.0,6.995203721167465,,,0,14,0.0,16431,176213932494417,12,37.45920944213867,-46.24498136740735,0.06473130941329744,1,-253593.25449772947,0.0012173214927315712,1.57542003E9,,,,0,,1,,1.57542003E9
Raw,2065543137,1797291000000,,,-1311985616708809521,0.0,6.995203721167465,,,0,17,0.0,16431,176213929611013,21,32.85224151611328,-181.8702762189447,0.10792679157398077,1,-120721.26110464371,0.0020689673256129026,1.57542003E9,,,,0,,1,,1.57542003E9
Raw,2065543138,1797291000000,,,-1311985616708809521,0.0,6.995203721167465,,,0,19,0.0,16431,176213927933951,10,38.770137786865234,-431.0989382323544,0.05515769632036904,4,-532922.1441444161,3.4028234663852886E38,1.57542003E9,,,,0,,1,,1.57542003E9
Raw,2065543138,1797291000000,,,-1311985616708809521,0.0,6.995203721167465,,,0,21,0.0,16431,176213915354643,21,32.72776412963867,471.71489942321796,0.1104928111314557,1,560169.5139468749,0.0020988313481211662,1.57542003E9,,,,0,,1,,1.57542003E9
Raw,2065543138,1797291000000,,,-1311985616708809521,0.0,6.995203721167465,,,0,22,0.0,17,581449,27,30.791030883789062,175.2651643097371,0.13510519583275898,4,0.3483870895436496,3.4028234663852886E38,1.57542003E9,,,,0,,1,,1.57542003E9
Raw,2065543139,1797291000000,,,-1311985616708809521,0.0,6.995203721167465,,,0,24,0.0,16,1797016820725,1000000000,26.583911895751953,-367.9626189870221,2.99792458E8,2,-524293.8777127105,3.4028234663852886E38,1.57542003E9,,,,0,,1,,1.57542003E9
Raw,2065543139,1797291000000,,,-1311985616708809521,0.0,6.995203721167465,,,0,30,0.0,16431,176213920861323,28,30.309980392456055,491.5856873076034,0.14606046727945077,1,11798.226314518442,0.00261390907689929,1.57542003E9,,,,0,,1,,1.57542003E9
Raw,2065543139,1797291000000,,,-1311985616708809521,0.0,6.995203721167465,,,0,10,0.0,16,1797002320059,1000000000,27.07223892211914,-836.9630211604808,2.99792458E8,2,-524289.6881766819,3.4028234663852886E38,1.59806246E9,,,,0,,3,,1.59806246E9
Raw,2065543139,1797291000000,,,-1311985616708809521,0.0,6.995203721167465,,,0,2,0.0,32995,14195919993988,48,31.761343002319336,24.672582107896417,0.12400608909713817,4,934.0562613198596,3.4028234663852886E38,1.59975002E9,,,,0,,3,,1.59975002E9
Raw,2065543140,1797291000000,,,-1311985616708809521,0.0,6.995203721167465,,,0,18,0.0,32995,14195927735159,42,33.05282974243164,380.96251996623505,0.10516497263065666,1,17500.666354516572,0.001990287331864238,1.60031245E9,,,,0,,3,,1.60031245E9
Raw,2065543140,1797291000000,,,-1311985616708809521,0.0,6.995203721167465,,,0,9,0.0,32995,14195933334461,33,42.60784149169922,-339.80280726400656,0.03693965392265128,1,-657477.6867413674,6.980577018111944E-4,1.59862502E9,,,,0,,3,,1.59862502E9
Raw,2065543140,1797291000000,,,-1311985616708809521,0.0,6.995203721167465,,,0,16,0.0,32995,14195932335100,33,36.546058654785156,417.06119236956533,0.07162934149732614,1,7488.615663580119,0.0013302987208589911,1.60143744E9,,,,0,,3,,1.60143744E9
Raw,2065543141,1797291000000,,,-1311985616708809521,0.0,6.995203721167465,,,0,19,0.0,99,1933181197,73,28.20781898498535,-0.7655326461213359,0.18364577822667705,4,-2.0183191526984015,3.4028234663852886E38,1.60368755E9,,,,0,,3,,1.60368755E9
Raw,2065543141,1797291000000,,,-1311985616708809521,0.0,6.995203721167465,,,0,3,0.0,32995,14195922726953,59,29.988237380981445,-479.8887586412575,0.14816877009659202,1,-834328.6317104674,0.0026628682389855385,1.60481254E9,,,,0,,3,,1.60481254E9
Raw,2065543141,1797291000000,,,-1311985616708809521,0.0,6.995203721167465,,,0,193,0.0,35,11448542,26,30.95694923400879,-180.05185787485493,0.1341526427626023,1,-16041.430979219376,0.0024262857623398304,1.57542003E9,,,,0,,4,,1.57542003E9
Raw,2065543141,1797291000000,,,-1311985616708809521,0.0,6.995203721167465,,,0,194,0.0,35,15869370,8,41.36661148071289,-143.07636315379057,0.042701706747170554,1,-94982.57015805524,8.183026220649481E-4,1.57542003E9,,,,0,,4,,1.57542003E9
Raw,2065543142,1797291000000,,,-1311985616708809521,0.0,6.995203721167465,,,0,195,0.0,16,1797007967333,1000000000,21.867958068847656,-124.7582697412148,2.99792458E8,2,-0.9899028496277168,3.4028234663852886E38,1.57542003E9,,,,0,,4,,1.57542003E9
Raw,2065543142,1797291000000,,,-1311985616708809521,0.0,6.995203721167465,,,0,7,0.0,16431,176199879792381,10,32.66511535644531,-93.58852551468618,0.11207087213720546,1,-184204.1329733175,0.0021334190387278795,1.56109798E9,,,,0,,5,,1.56109798E9
Raw,2065543142,1797291000000,,,-1311985616708809521,0.0,6.995203721167465,,,0,8,0.0,16431,176199878182519,6,38.863563537597656,-196.63126885037605,0.056426331723217066,1,-378897.27332262514,0.0010450900299474597,1.56109798E9,,,,0,,5,,1.56109798E9
Raw,2065543143,1797291000000,,,-1311985616708809521,0.0,6.995203721167465,,,0,10,0.0,16431,176199880426894,8,34.54014587402344,-159.06123975772778,0.09111651023171391,1,-266738.08555187914,0.0016208706656470895,1.56109798E9,,,,0,,5,,1.56109798E9
Raw,2065543143,1797291000000,,,-1311985616708809521,0.0,6.995203721167465,,,0,30,0.0,16431,176199924650437,6,38.300018310546875,-308.05288590070427,0.0575553671814647,1,-201983.85524510092,0.001115144114010036,1.56109798E9,,,,0,,5,,1.56109798E9
Raw,2065543144,1797291000000,,,-1311985616708809521,0.0,6.995203721167465,,,0,32,0.0,16431,176199913645844,12,31.471342086791992,-649.7711953862058,0.1269522495301611,1,-409980.4059096694,0.002307748422026634,1.56109798E9,,,,0,,5,,1.56109798E9
Raw,2065543144,1797291000000,,,-1311985616708809521,0.0,6.995203721167465,,,0,33,0.0,16431,176199910786976,166,20.853654861450195,47.534797852056585,4.201940326017603,4,9170.388375893317,3.4028234663852886E38,1.56109798E9,,,,1,,5,,1.56109798E9
Raw,2065543144,1797291000000,,,-1311985616708809521,0.0,6.995203721167465,,,0,36,0.0,16431,176199920922593,6,40.65376281738281,-300.4017834008116,0.04701886644538125,1,-245089.03154409328,8.964425651356578E-4,1.56109798E9,,,,0,,5,,1.56109798E9
Fix,gps,34.486369,109.464214,356.917755,0.449136,2.000000,1627952196999
Raw,2065544178,1798291000000,,,-1311985616708809905,0.0,6.861810021483856,,,0,1,0.0,16431,176214924885378,15,35.86716079711914,507.6698801898481,0.07593216010329634,1,552645.0163687874,0.0014622029848396778,1.57542003E9,,,,0,,1,,1.57542003E9
Raw,2065544179,1798291000000,,,-1311985616708809905,0.0,6.861810021483856,,,0,2,0.0,16,1798014880081,1000000000,16.345260620117188,-686.5418034198833,2.99792458E8,2,-9.608271739364108,3.4028234663852886E38,1.57542003E9,,,,0,,1,,1.57542003E9
Raw,2065544179,1798291000000,,,-1311985616708809905,0.0,6.861810021483856,,,0,3,0.0,16431,176214926093303,39,27.522552490234375,-150.6771429066273,0.197251651303733,4,-302.60657308580073,3.4028234663852886E38,1.57542003E9,,,,0,,1,,1.57542003E9
Raw,2065544179,1798291000000,,,-1311985616708809905,0.0,6.861810021483856,,,0,6,0.0,16431,176214924978280,8,40.811458587646484,-628.1112489466555,0.04337263022175325,1,-531204.7337465469,8.275473373942077E-4,1.57542003E9,,,,0,,1,,1.57542003E9
Raw,2065544180,1798291000000,,,-1311985616708809905,0.0,6.861810021483856,,,0,14,0.0,16431,176214932494582,12,37.754390716552734,-46.40109605951008,0.06264356340983773,1,-253639.6796099584,0.0011766470270231366,1.57542003E9,,,,0,,1,,1.57542003E9
Raw,2065544180,1798291000000,,,-1311985616708809905,0.0,6.861810021483856,,,0,17,0.0,16431,176214929611584,19,33.74628829956055,-182.09503297848437,0.09753956384297324,1,-120903.3493893342,0.0018666002433747053,1.57542003E9,,,,0,,1,,1.57542003E9
Raw,2065544181,1798291000000,,,-1311985616708809905,0.0,6.861810021483856,,,0,19,0.0,16431,176214927935412,12,37.826358795166016,-431.3173726962091,0.06132512734725118,4,-533353.3938463755,3.4028234663852886E38,1.57542003E9,,,,0,,1,,1.57542003E9
Raw,2065544181,1798291000000,,,-1311985616708809905,0.0,6.861810021483856,,,0,21,0.0,16431,176214915353053,18,34.01418685913086,471.72072752328336,0.09566234940047835,1,560641.2782125841,0.0018099077278748155,1.57542003E9,,,,0,,1,,1.57542003E9
Raw,2065544182,1798291000000,,,-1311985616708809905,0.0,6.861810021483856,,,0,22,0.0,16431,176214922580869,23,32.04763412475586,175.35912964237048,0.11696977593309865,4,175.6812943453948,3.4028234663852886E38,1.57542003E9,,,,0,,1,,1.57542003E9
Raw,2065544182,1798291000000,,,-1311985616708809905,0.0,6.861810021483856,,,0,24,0.0,16,1798016821952,1000000000,26.949127197265625,-367.9626189870221,2.99792458E8,2,-524293.8863452646,3.4028234663852886E38,1.57542003E9,,,,0,,1,,1.57542003E9
Raw,2065544182,1798291000000,,,-1311985616708809905,0.0,6.861810021483856,,,0,30,0.0,16431,176214920859587,36,28.160987854003906,491.58708468832083,0.18600695356670116,1,12289.745893429255,0.0033476504031568766,1.57542003E9,,,,0,,1,,1.57542003E9
Raw,2065544183,1798291000000,,,-1311985616708809905,0.0,6.861810021483856,,,0,10,0.0,16,1798002322973,1000000000,30.68306541442871,-836.8716120120866,2.99792458E8,2,-524289.6748905561,3.4028234663852886E38,1.59806246E9,,,,0,,3,,1.59806246E9
Raw,2065544183,1798291000000,,,-1311985616708809905,0.0,6.861810021483856,,,0,2,0.0,32995,14196919993920,51,31.270315170288086,24.704815591152865,0.13100909364949292,1,958.7653105202787,0.0023047185968607664,1.59975002E9,,,,0,,3,,1.59975002E9
Raw,2065544184,1798291000000,,,-1311985616708809905,0.0,6.861810021483856,,,0,18,0.0,32995,14196927733928,40,33.367305755615234,380.9227116570164,0.1014747978299611,1,17881.62390215037,0.0019195176428183913,1.60031245E9,,,,0,,3,,1.60031245E9
Raw,2065544184,1798291000000,,,-1311985616708809905,0.0,6.861810021483856,,,0,9,0.0,32995,14196933335610,33,44.06180191040039,-339.7441172738743,0.03239875529552756,1,-657817.4507512564,5.904636927880347E-4,1.59862502E9,,,,0,,3,,1.59862502E9
Raw,2065544184,1798291000000,,,-1311985616708809905,0.0,6.861810021483856,,,0,16,0.0,32995,14196932333720,33,35.455528259277344,417.0673953766525,0.08091443111889218,1,7905.664990929675,0.001508258399553597,1.60143744E9,,,,0,,3,,1.60143744E9
Raw,2065544185,1798291000000,,,-1311985616708809905,0.0,6.861810021483856,,,0,19,0.0,99,933181151,67,28.953340530395508,-0.9876074092287745,0.16873571864924042,4,-2.9287604834370113,3.4028234663852886E38,1.60368755E9,,,,0,,3,,1.60368755E9
Raw,2065544185,1798291000000,,,-1311985616708809905,0.0,6.861810021483856,,,0,3,0.0,32995,14196922728450,64,29.37910270690918,-479.77096967151465,0.1588973715730353,1,-834808.3919658328,0.0028563165105879307,1.60481254E9,,,,0,,3,,1.60481254E9
Raw,2065544186,1798291000000,,,-1311985616708809905,0.0,6.861810021483856,,,0,193,0.0,35,11449151,26,31.078353881835938,-180.03157881322386,0.13231931281124543,1,-16221.439094715282,0.0023926093708723783,1.57542003E9,,,,0,,4,,1.57542003E9
Raw,2065544186,1798291000000,,,-1311985616708809905,0.0,6.861810021483856,,,0,194,0.0,35,15869851,7,41.688385009765625,-143.06307099574667,0.04125263236246288,1,-95125.64344568085,7.885427330620587E-4,1.57542003E9,,,,0,,4,,1.57542003E9
Raw,2065544186,1798291000000,,,-1311985616708809905,0.0,6.861810021483856,,,0,195,0.0,16,1798007967688,1000000000,22.913402557373047,-124.7582697412148,2.99792458E8,2,-0.988927222969332,3.4028234663852886E38,1.57542003E9,,,,0,,4,,1.57542003E9
Raw,2065544187,1798291000000,,,-1311985616708809905,0.0,6.861810021483856,,,0,7,0.0,16431,176200879792712,11,32.4157829284668,-93.52854891182017,0.11523093826110531,1,-184297.6989891725,0.002195546869188547,1.56109798E9,,,,0,,5,,1.56109798E9
Raw,2065544187,1798291000000,,,-1311985616708809905,0.0,6.861810021483856,,,0,8,0.0,16431,176200878183172,6,39.10251235961914,-196.67470694121437,0.0549840721656315,1,-379093.92903297045,0.0010167316067963839,1.56109798E9,,,,0,,5,,1.56109798E9
Raw,2065544188,1798291000000,,,-1311985616708809905,0.0,6.861810021483856,,,0,10,0.0,16431,176200880427410,9,33.799957275390625,-159.33804042837778,0.09889490731178707,1,-266897.37372970436,0.0018721212400123477,1.56109798E9,,,,0,,5,,1.56109798E9
Raw,2065544188,1798291000000,,,-1311985616708809905,0.0,6.861810021483856,,,0,30,0.0,16431,176200924651452,6,39.36434555053711,-308.2263656044054,0.05101441456471911,1,-202292.0608179134,9.865398751571774E-4,1.56109798E9,,,,0,,5,,1.56109798E9
Raw,2065544188,1798291000000,,,-1311985616708809905,0.0,6.861810021483856,,,0,32,0.0,16431,176200913648020,12,31.737796783447266,-649.8039827093808,0.12319143018457329,1,-410630.23274414137,0.002238029381260276,1.56109798E9,,,,0,,5,,1.56109798E9
Raw,2065544189,1798291000000,,,-1311985616708809905,0.0,6.861810021483856,,,0,33,0.0,16430,176200910786755,1000000000,22.43794059753418,47.9125081558565,2.99792458E8,4,9218.39762478755,3.4028234663852886E38,1.56109798E9,,,,1,,5,,1.56109798E9
Raw,2065544189,1798291000000,,,-1311985616708809905,0.0,6.861810021483856,,,0,36,0.0,16431,176200920923588,6,40.916526794433594,-300.42870854146463,0.04573006115127071,1,-245389.42044043163,8.697295561432838E-4,1.56109798E9,,,,0,,5,,1.56109798E9
Fix,gps,34.486368,109.464213,356.990814,0.309919,2.000000,1627952197999
Raw,2065545158,1799291000000,,,-1311985616708810290,0.0,6.755652234047548,,,0,1,0.0,16431,176215924883694,15,35.55898666381836,507.73824959763283,0.07864254748808347,1,553152.7248658699,0.0015150130493566394,1.57542003E9,,,,0,,1,,1.57542003E9
Raw,2065545158,1799291000000,,,-1311985616708810290,0.0,6.755652234047548,,,0,2,0.0,16,1799014882371,1000000000,18.087600708007812,-686.5418034198833,2.99792458E8,2,-9.602902888544987,3.4028234663852886E38,1.57542003E9,,,,0,,1,,1.57542003E9
Raw,2065545159,1799291000000,,,-1311985616708810290,0.0,6.755652234047548,,,0,3,0.0,16431,176215926093882,46,26.16547203063965,-150.61025608570128,0.23042291801111692,4,-453.2731455184886,3.4028234663852886E38,1.57542003E9,,,,0,,1,,1.57542003E9
Raw,2065545160,1799291000000,,,-1311985616708810290,0.0,6.755652234047548,,,0,6,0.0,16431,176215924980363,8,40.861595153808594,-627.9653760327378,0.0431285279403682,1,-531832.7746499759,8.227840298786759E-4,1.57542003E9,,,,0,,1,,1.57542003E9
Raw,2065545160,1799291000000,,,-1311985616708810290,0.0,6.755652234047548,,,0,14,0.0,16431,176215932494742,12,37.807579040527344,-46.258299087293636,0.06227488459089622,1,-253686.00368369016,0.0011694637360051274,1.57542003E9,,,,0,,1,,1.57542003E9
Raw,2065545161,1799291000000,,,-1311985616708810290,0.0,6.755652234047548,,,0,17,0.0,16431,176215929612181,17,34.74486541748047,-181.99445564928556,0.08713435462062152,1,-121085.39936183256,0.0016638815868645906,1.57542003E9,,,,0,,1,,1.57542003E9
Raw,2065545161,1799291000000,,,-1311985616708810290,0.0,6.755652234047548,,,0,19,0.0,16431,176215927936851,12,37.35607147216797,-431.1739537191611,0.06465788568371802,4,-533784.6122313705,3.4028234663852886E38,1.57542003E9,,,,0,,1,,1.57542003E9
Raw,2065545161,1799291000000,,,-1311985616708810290,0.0,6.755652234047548,,,0,21,0.0,16431,176215915351499,17,34.50222396850586,471.76629576765436,0.0905861768902878,1,561113.0293124754,0.0017110176850110292,1.57542003E9,,,,0,,1,,1.57542003E9
Raw,2065545162,1799291000000,,,-1311985616708810290,0.0,6.755652234047548,,,0,22,0.0,16431,176215922580242,30,29.90326499938965,175.4664552979608,0.14959414236279256,4,351.1198526822554,3.4028234663852886E38,1.57542003E9,,,,0,,1,,1.57542003E9
Raw,2065545162,1799291000000,,,-1311985616708810290,0.0,6.755652234047548,,,0,24,0.0,16,1799016823179,1000000000,19.351581573486328,-367.9626189870221,2.99792458E8,2,-524293.8834677465,3.4028234663852886E38,1.57542003E9,,,,0,,1,,1.57542003E9
Raw,2065545163,1799291000000,,,-1311985616708810290,0.0,6.755652234047548,,,0,30,0.0,16431,176215920857965,44,26.48324966430664,491.47553280812167,0.22484023493123484,1,12781.269381492639,0.004060944076627493,1.57542003E9,,,,0,,1,,1.57542003E9
Raw,2065545163,1799291000000,,,-1311985616708810290,0.0,6.755652234047548,,,0,10,0.0,16,1799002325764,1000000000,25.237253189086914,-836.8716120120866,2.99792458E8,2,-524289.6617888485,3.4028234663852886E38,1.59806246E9,,,,0,,3,,1.59806246E9
Raw,2065545163,1799291000000,,,-1311985616708810290,0.0,6.755652234047548,,,0,2,0.0,32995,14197919993984,54,30.852304458618164,24.92369099678882,0.1372908248873188,1,983.6205380072422,0.002418346470221877,1.59975002E9,,,,0,,3,,1.59975002E9
Raw,2065545164,1799291000000,,,-1311985616708810290,0.0,6.755652234047548,,,0,18,0.0,32995,14197927732605,41,33.164573669433594,380.91204384812477,0.10383803675622,1,18262.558594847458,0.0019648466259241104,1.60031245E9,,,,0,,3,,1.60031245E9
Raw,2065545164,1799291000000,,,-1311985616708810290,0.0,6.755652234047548,,,0,9,0.0,32995,14197933336721,33,44.001556396484375,-339.4759224234963,0.03239895499742125,1,-658157.0459244072,5.945735611021519E-4,1.59862502E9,,,,0,,3,,1.59862502E9
Raw,2065545165,1799291000000,,,-1311985616708810290,0.0,6.755652234047548,,,0,16,0.0,32995,14197932332306,39,33.49545669555664,417.19840833952617,0.10083615117394579,1,8322.842024346768,0.001890075858682394,1.60143744E9,,,,0,,3,,1.60143744E9
Raw,2065545165,1799291000000,,,-1311985616708810290,0.0,6.755652234047548,,,0,19,0.0,99,1933181051,71,28.40922737121582,-0.8462703244224894,0.1794907140592995,1,-3.7780921295391017,0.0031959840562194586,1.60368755E9,,,,0,,3,,1.60368755E9
Raw,2065545165,1799291000000,,,-1311985616708810290,0.0,6.755652234047548,,,0,3,0.0,32995,14197922729965,49,31.658266067504883,-479.52070219326765,0.12233811231375524,1,-835288.0247382506,0.002197091933339834,1.60481254E9,,,,0,,3,,1.60481254E9
Raw,2065545166,1799291000000,,,-1311985616708810290,0.0,6.755652234047548,,,0,193,0.0,35,11449708,27,30.635175704956055,-180.03706608872403,0.13913810068758492,1,-16401.442053594114,0.002517854794859886,1.57542003E9,,,,0,,4,,1.57542003E9
Raw,2065545166,1799291000000,,,-1311985616708810290,0.0,6.755652234047548,,,0,194,0.0,35,15870348,8,41.213706970214844,-143.05397097985508,0.04340955010934888,1,-95268.69779647572,8.328353287652135E-4,1.57542003E9,,,,0,,4,,1.57542003E9
Raw,2065545167,1799291000000,,,-1311985616708810290,0.0,6.755652234047548,,,0,195,0.0,16,1799007968104,1000000000,7.0,-124.7582697412148,2.99792458E8,2,-0.9879515962515787,3.4028234663852886E38,1.57542003E9,,,,0,,4,,1.57542003E9
Raw,2065545167,1799291000000,,,-1311985616708810290,0.0,6.755652234047548,,,0,7,0.0,16431,176201879793011,11,32.403499603271484,-93.60016467358872,0.11538900230995963,1,-184391.27818630182,0.002198653994128108,1.56109798E9,,,,0,,5,,1.56109798E9
Raw,2065545167,1799291000000,,,-1311985616708810290,0.0,6.755652234047548,,,0,8,0.0,16431,176201878183828,6,39.13955307006836,-196.61354597298418,0.054764129652926624,1,-379290.5556406195,0.0010124050313606858,1.56109798E9,,,,0,,5,,1.56109798E9
Raw,2065545168,1799291000000,,,-1311985616708810290,0.0,6.755652234047548,,,0,10,0.0,16431,176201880427940,8,34.9630126953125,-159.27328376098444,0.08696159584075663,1,-267056.6374500978,0.001637500012293458,1.56109798E9,,,,0,,5,,1.56109798E9
Raw,2065545168,1799291000000,,,-1311985616708810290,0.0,6.755652234047548,,,0,30,0.0,16431,176201924652476,6,39.68272018432617,-308.1125642820757,0.049208680918796294,1,-202600.228952761,9.510337258689106E-4,1.56109798E9,,,,0,,5,,1.56109798E9
Raw,2065545169,1799291000000,,,-1311985616708810290,0.0,6.755652234047548,,,0,32,0.0,16431,176201913650176,11,32.1977424621582,-649.8537430959041,0.1169647750648442,1,-411280.0581549792,0.0021226017270237207,1.56109798E9,,,,0,,5,,1.56109798E9
Raw,2065545169,1799291000000,,,-1311985616708810290,0.0,6.755652234047548,,,0,33,0.0,16431,176201910786566,26,25.087905883789062,48.20983924625443,0.2615571754774063,4,9266.469012000383,3.4028234663852886E38,1.56109798E9,,,,0,,5,,1.56109798E9
Raw,2065545169,1799291000000,,,-1311985616708810290,0.0,6.755652234047548,,,0,36,0.0,16431,176201920924594,6,41.23431396484375,-300.2031849266532,0.044222590604483664,1,-245689.71559304747,8.384844986721873E-4,1.56109798E9,,,,0,,5,,1.56109798E9
Raw,2065546091,1800291000000,,,-1311985616708810673,0.0,6.6818153713533395,,,0,1,0.0,16431,176216924881981,15,35.47205352783203,507.72212859569754,0.07942445529008346,1,553660.4788915295,0.0015302520478144288,1.57542003E9,,,,0,,1,,1.57542003E9
Raw,2065546092,1800291000000,,,-1311985616708810673,0.0,6.6818153713533395,,,0,2,0.0,16,1800014884661,1000000000,7.0,-686.5418034198833,2.99792458E8,2,-9.597534037585644,3.4028234663852886E38,1.57542003E9,,,,0,,1,,1.57542003E9
Raw,2065546099,1800291000000,,,-1311985616708810673,0.0,6.6818153713533395,,,0,3,0.0,16431,176216926094285,52,25.132339477539062,-150.41525331070602,0.25938851276289776,1,-603.786322077686,0.0047443038783967495,1.57542003E9,,,,0,,1,,1.57542003E9
Raw,2065546099,1800291000000,,,-1311985616708810673,0.0,6.6818153713533395,,,0,6,0.0,16431,176216924982471,6,42.63898468017578,-627.8554941929083,0.03531370190652139,1,-532460.7055808401,7.067979895509779E-4,1.57542003E9,,,,0,,1,,1.57542003E9
Raw,2065546099,1800291000000,,,-1311985616708810673,0.0,6.6818153713533395,,,0,14,0.0,16431,176216932494901,10,39.24911117553711,-46.11864622169142,0.053095395666530126,1,-253732.16534533515,9.906271006911993E-4,1.57542003E9,,,,0,,1,,1.57542003E9
Raw,2065546100,1800291000000,,,-1311985616708810673,0.0,6.6818153713533395,,,0,17,0.0,16431,176216929612745,17,34.85789489746094,-181.98518522111135,0.08603028605954105,1,-121267.3864815217,0.0016423700144514441,1.57542003E9,,,,0,,1,,1.57542003E9
Raw,2065546100,1800291000000,,,-1311985616708810673,0.0,6.6818153713533395,,,0,19,0.0,16431,176216927938257,16,34.881004333496094,-430.7018094489506,0.08550506175822847,4,-534215.6498591234,3.4028234663852886E38,1.57542003E9,,,,0,,1,,1.57542003E9
Raw,2065546100,1800291000000,,,-1311985616708810673,0.0,6.6818153713533395,,,0,21,0.0,16431,176216915349881,17,34.73970413208008,471.72444251104434,0.08821719653458537,1,561584.7573552467,0.0016648706514388323,1.57542003E9,,,,0,,1,,1.57542003E9
Raw,2065546101,1800291000000,,,-1311985616708810673,0.0,6.6818153713533395,,,0,22,0.0,16431,176216922579638,30,29.713977813720703,175.60655123549782,0.1528796212759287,4,526.6939140301034,3.4028234663852886E38,1.57542003E9,,,,0,,1,,1.57542003E9
Raw,2065546101,1800291000000,,,-1311985616708810673,0.0,6.6818153713533395,,,0,24,0.0,16,1800016824467,1000000000,25.413707733154297,-367.77697184634235,2.99792458E8,2,-524293.8776229625,3.4028234663852886E38,1.57542003E9,,,,0,,1,,1.57542003E9
Raw,2065546102,1800291000000,,,-1311985616708810673,0.0,6.6818153713533395,,,0,30,0.0,16431,176216920856458,50,25.496475219726562,491.9467227695495,0.25143936224280883,4,13272.930413943619,3.4028234663852886E38,1.57542003E9,,,,0,,1,,1.57542003E9
Raw,2065546102,1800291000000,,,-1311985616708810673,0.0,6.6818153713533395,,,0,10,0.0,16,1800002328433,1000000000,26.303369522094727,-836.7802028636925,2.99792458E8,2,-524289.7009081224,3.4028234663852886E38,1.59806246E9,,,,0,,3,,1.59806246E9
Raw,2065546102,1800291000000,,,-1311985616708810673,0.0,6.6818153713533395,,,0,2,0.0,32995,14198919993944,59,29.98821258544922,25.01914530674155,0.15127509976926523,1,1008.6348012405861,0.0026713025290519,1.59975002E9,,,,0,,3,,1.59975002E9
Raw,2065546102,1800291000000,,,-1311985616708810673,0.0,6.6818153713533395,,,0,18,0.0,32995,14198927731433,40,33.338111877441406,380.92468843949473,0.1018113038417382,1,18643.528001700128,0.001925979508087039,1.60031245E9,,,,0,,3,,1.60031245E9
Raw,2065546103,1800291000000,,,-1311985616708810673,0.0,6.6818153713533395,,,0,9,0.0,32995,14198933337853,33,44.065032958984375,-339.3172345059261,0.03239915885977106,1,-658496.4480826296,5.902443081140518E-4,1.59862502E9,,,,0,,3,,1.59862502E9
Raw,2065546103,1800291000000,,,-1311985616708810673,0.0,6.6818153713533395,,,0,16,0.0,32995,14198932330871,39,33.516666412353516,417.4739990829696,0.1005953689365433,1,8740.222052696907,0.0018854661611840129,1.60143744E9,,,,0,,3,,1.60143744E9
Raw,2065546103,1800291000000,,,-1311985616708810673,0.0,6.6818153713533395,,,0,19,0.0,99,933181147,77,27.752079010009766,-0.6550562271869871,0.1934110011261433,1,-4.501963991926976,0.003447164548560977,1.60368755E9,,,,0,,3,,1.60368755E9
Raw,2065546104,1800291000000,,,-1311985616708810673,0.0,6.6818153713533395,,,0,3,0.0,32995,14198922731596,55,30.593564987182617,-479.5597606884428,0.1382282089344674,1,-835767.5913025514,0.002483609365299344,1.60481254E9,,,,0,,3,,1.60481254E9
