# 
# Header Description:
# 
# Version: v2.0.0.1 Platform: 10 Manufacturer: HUAWEI Model: BLA-AL00
# 
# Raw,ElapsedRealtimeMillis,TimeNanos,LeapSecond,TimeUncertaintyNanos,FullBiasNanos,BiasNanos,BiasUncertaintyNanos,DriftNanosPerSecond,DriftUncertaintyNanosPerSecond,HardwareClockDiscontinuityCount,Svid,TimeOffsetNanos,State,ReceivedSvTimeNanos,ReceivedSvTimeUncertaintyNanos,Cn0DbHz,PseudorangeRateMetersPerSecond,PseudorangeRateUncertaintyMetersPerSecond,AccumulatedDeltaRangeState,AccumulatedDeltaRangeMeters,AccumulatedDeltaRangeUncertaintyMeters,CarrierFrequencyHz,CarrierCycles,CarrierPhase,CarrierPhaseUncertainty,MultipathIndicator,SnrInDb,ConstellationType,AgcDb,CarrierFrequencyHz
# 
# Fix,Provider,Latitude,Longitude,Altitude,Speed,Accuracy,(UTC)TimeInMs
# 
# Nav,Svid,Type,Status,MessageId,Sub-messageId,Data(Bytes)
# 
Fix,gps,34.486356,109.463911,359.638000,0.521392,3.000000,1627820306999
Raw,1933653475,1654824000000,,,-1311853870175825672,0.0,11.564508150213621,,,0,10,0.0,16431,44324931589066,6,43.33552932739258,-342.7429644584033,0.03384980797711959,1,-673836.5301402134,6.523311021737754E-4,1.57542003E9,,,,0,,1,,1.57542003E9
Raw,1933653475,1654824000000,,,-1311853870175825672,0.0,11.564508150213621,,,0,12,0.0,16431,44324923679526,12,37.63795852661133,-472.3453226215204,0.061872980369392316,4,-836929.0698179541,3.4028234663852886E38,1.57542003E9,,,,0,,1,,1.57542003E9
Raw,1933653475,1654824000000,,,-1311853870175825672,0.0,11.564508150213621,,,0,15,0.0,16431,44324916280271,10,38.80989456176758,415.58307031262757,0.056413625690231145,4,525541.0200535486,3.4028234663852886E38,1.57542003E9,,,,0,,1,,1.57542003E9
Raw,1933653475,1654824000000,,,-1311853870175825672,0.0,11.564508150213621,,,0,18,0.0,16431,44324921074741,25,31.20589828491211,564.2983247744323,0.12855442453957372,1,897103.9977667228,0.0023577329702675343,1.57542003E9,,,,0,,1,,1.57542003E9
Raw,1933653475,1654824000000,,,-1311853870175825672,0.0,11.564508150213621,,,0,23,0.0,16431,44324931320922,15,35.94718551635742,117.31241179450251,0.07640145123255171,1,61955.91478476377,0.0014487935695797205,1.57542003E9,,,,0,,1,,1.57542003E9
Raw,1933653475,1654824000000,,,-1311853870175825672,0.0,11.564508150213621,,,0,24,0.0,16,1654005994419,1000000000,32.184059143066406,462.2739226365734,2.99792458E8,2,524290.7438474898,3.4028234663852886E38,1.57542003E9,,,,0,,1,,1.57542003E9
Raw,1933653475,1654824000000,,,-1311853870175825672,0.0,11.564508150213621,,,0,25,0.0,16431,44324922955870,9,39.55371856689453,-703.7960470345561,0.049627268569335414,4,-949096.0730247208,3.4028234663852886E38,1.57542003E9,,,,0,,1,,1.57542003E9
Raw,1933653475,1654824000000,,,-1311853870175825672,0.0,11.564508150213621,,,0,31,0.0,16431,44324918056689,68,21.25179672241211,-829.7208399739488,4.203247974017474,4,-7480.629190383218,3.4028234663852886E38,1.57542003E9,,,,0,,1,,1.57542003E9
Raw,1933653475,1654824000000,,,-1311853870175825672,0.0,11.564508150213621,,,0,32,0.0,16431,44324927058262,16,35.102046966552734,-397.9253926600943,0.08323413503232702,4,-698403.4065463871,3.4028234663852886E38,1.57542003E9,,,,0,,1,,1.57542003E9
Raw,1933653476,1654824000000,,,-1311853870175825672,0.0,11.564508150213621,,,0,10,0.0,32995,55106930494148,33,38.0171012878418,-775.3413944479353,0.060484361572542666,4,-1394232.5065204958,3.4028234663852886E38,1.59806246E9,,,,0,,3,,1.59806246E9
Raw,1933653476,1654824000000,,,-1311853870175825672,0.0,11.564508150213621,,,0,9,0.0,32995,55106933658324,33,43.110328674316406,-98.53951356147223,0.03505638185604784,4,-389066.16119873297,3.4028234663852886E38,1.59862502E9,,,,0,,3,,1.59862502E9
Raw,1933653476,1654824000000,,,-1311853870175825672,0.0,11.564508150213621,,,0,16,0.0,16,4821070,1000000000,7.0,538.6145353528859,2.99792458E8,6,524721.0968565765,3.4028234663852886E38,1.60143744E9,,,,0,,3,,1.60143744E9
Raw,1933653476,1654824000000,,,-1311853870175825672,0.0,11.564508150213621,,,0,23,0.0,32961,55106924507848,33,36.09806442260742,-0.5438116549185661,0.07389531728044657,4,-8366.038739073963,3.4028234663852886E38,1.60368755E9,,,,0,,3,,1.60368755E9
Raw,1933653476,1654824000000,,,-1311853870175825672,0.0,11.564508150213621,,,0,7,0.0,32995,55106932828066,33,42.43609619140625,-170.9208269478288,0.037538339397648335,1,-344048.91724560346,7.102508679963648E-4,1.60481254E9,,,,0,,3,,1.60481254E9
Raw,1933653476,1654824000000,,,-1311853870175825672,0.0,11.564508150213621,,,0,8,0.0,32961,55106927484636,33,34.906070709228516,-561.3108270479254,0.08518121185396388,4,-586065.8636016486,3.4028234663852886E38,1.60537498E9,,,,0,,3,,1.60537498E9
Raw,1933653476,1654824000000,,,-1311853870175825672,0.0,11.564508150213621,,,0,193,0.0,35,9337542,7,42.17398452758789,-254.91676838864282,0.03798983625608485,4,-407196.9260459479,3.4028234663852886E38,1.57542003E9,,,,0,,4,,1.57542003E9
Raw,1933653476,1654824000000,,,-1311853870175825672,0.0,11.564508150213621,,,0,194,0.0,35,12380131,9,40.07017135620117,-103.09175390816966,0.04848839779282363,4,-65373.98415339134,3.4028234663852886E38,1.57542003E9,,,,0,,4,,1.57542003E9
Raw,1933653476,1654824000000,,,-1311853870175825672,0.0,11.564508150213621,,,0,6,0.0,16431,44310878583568,10,33.244537353515625,-78.88387970450117,0.10485104125377859,4,-107556.34755953193,3.4028234663852886E38,1.56109798E9,,,,0,,5,,1.56109798E9
Raw,1933653476,1654824000000,,,-1311853870175825672,0.0,11.564508150213621,,,0,14,0.0,16431,44310924418557,6,36.70998001098633,131.32303654251353,0.06890770839965069,1,146100.96184712622,0.001339161186479032,1.56109798E9,,,,0,,5,,1.56109798E9
Raw,1933653477,1654824000000,,,-1311853870175825672,0.0,11.564508150213621,,,0,16,0.0,16431,44310877941849,10,32.776153564453125,-77.23879621367229,0.11035967653566348,4,-106444.29664502319,3.4028234663852886E38,1.56109798E9,,,,0,,5,,1.56109798E9
Raw,1933653477,1654824000000,,,-1311853870175825672,0.0,11.564508150213621,,,0,24,0.0,16431,44310924168285,6,38.586204528808594,28.075668528321316,0.05563027837041415,1,-79855.81574654453,0.0010790006490424275,1.56109798E9,,,,0,,5,,1.56109798E9
Raw,1933653477,1654824000000,,,-1311853870175825672,0.0,11.564508150213621,,,0,25,0.0,16431,44310922919359,8,35.04903030395508,-580.6979848742521,0.08299150555240792,1,-700665.9025740861,0.001621363451704383,1.56109798E9,,,,0,,5,,1.56109798E9
Raw,1933653477,1654824000000,,,-1311853870175825672,0.0,11.564508150213621,,,0,26,0.0,16431,44310915221146,75,19.931377410888672,431.6864857003511,4.20273806851559,4,599801.9400289295,3.4028234663852886E38,1.56109798E9,,,,0,,5,,1.56109798E9
Raw,1933653477,1654824000000,,,-1311853870175825672,0.0,11.564508150213621,,,0,27,0.0,16431,44310913151875,11,32.2276496887207,122.11947814800686,0.11648152976576737,4,88439.12069437957,3.4028234663852886E38,1.56109798E9,,,,0,,5,,1.56109798E9
Raw,1933653477,1654824000000,,,-1311853870175825672,0.0,11.564508150213621,,,0,33,0.0,16431,44310926009356,6,38.30716323852539,-113.40078530060782,0.05775315526533853,1,-233127.45454954644,0.0011142271105200052,1.56109798E9,,,,0,,5,,1.56109798E9
Fix,gps,34.486357,109.463915,359.579468,0.362519,3.000000,1627820307999
Raw,1933654506,1655824000000,,,-1311853870175826061,0.0,11.625049542327911,,,0,10,0.0,16431,44325931590222,6,42.89752960205078,-342.6274590132475,0.03549291355382608,1,-674179.2428567777,6.860692519694567E-4,1.57542003E9,,,,0,,1,,1.57542003E9
Raw,1933654506,1655824000000,,,-1311853870175826061,0.0,11.625049542327911,,,0,12,0.0,16431,44325923681107,11,38.20281219482422,-472.183362788124,0.05801930380369555,4,-837401.3673852466,3.4028234663852886E38,1.57542003E9,,,,0,,1,,1.57542003E9
Raw,1933654506,1655824000000,,,-1311853870175826061,0.0,11.625049542327911,,,0,15,0.0,16431,44325916278878,10,39.24909210205078,415.5953399969758,0.05377616278028921,4,525956.5883541834,3.4028234663852886E38,1.57542003E9,,,,0,,1,,1.57542003E9
Raw,1933654506,1655824000000,,,-1311853870175826061,0.0,11.625049542327911,,,0,18,0.0,16431,44325921072820,24,31.548337936401367,564.2466557703438,0.12359193233236526,1,897668.2210503058,0.002266587922349572,1.57542003E9,,,,0,,1,,1.57542003E9
Raw,1933654507,1655824000000,,,-1311853870175826061,0.0,11.625049542327911,,,0,23,0.0,16431,44325931320508,16,35.33975601196289,117.33083336225309,0.0817880852992175,1,62073.1888142736,0.0015537384897470474,1.57542003E9,,,,0,,1,,1.57542003E9
Raw,1933654507,1655824000000,,,-1311853870175826061,0.0,11.625049542327911,,,0,24,0.0,16,1655005992892,1000000000,35.846824645996094,462.2739226365734,2.99792458E8,2,524290.7691528057,3.4028234663852886E38,1.57542003E9,,,,0,,1,,1.57542003E9
Raw,1933654507,1655824000000,,,-1311853870175826061,0.0,11.625049542327911,,,0,25,0.0,16431,44325922958207,10,39.47914123535156,-703.7830957010774,0.05005105262956655,4,-949799.8561207262,3.4028234663852886E38,1.57542003E9,,,,0,,1,,1.57542003E9
Raw,1933654507,1655824000000,,,-1311853870175826061,0.0,11.625049542327911,,,0,31,0.0,16431,44325918059449,76,19.83489990234375,-828.9877944990562,4.203248506555857,4,-8309.809371278167,3.4028234663852886E38,1.57542003E9,,,,0,,1,,1.57542003E9
Raw,1933654508,1655824000000,,,-1311853870175826061,0.0,11.625049542327911,,,0,32,0.0,16431,44325927059608,20,33.193294525146484,-398.238746765365,0.10337877232621023,4,-698801.7344688675,3.4028234663852886E38,1.57542003E9,,,,0,,1,,1.57542003E9
Raw,1933654508,1655824000000,,,-1311853870175826061,0.0,11.625049542327911,,,0,10,0.0,32995,55107930496701,33,37.998443603515625,-775.2100406604964,0.06061084775945752,4,-1395007.74229675,3.4028234663852886E38,1.59806246E9,,,,0,,3,,1.59806246E9
Raw,1933654508,1655824000000,,,-1311853870175826061,0.0,11.625049542327911,,,0,9,0.0,32995,55107933658631,33,42.50897216796875,-98.39165534446215,0.037393397427391784,4,-389164.6101481903,3.4028234663852886E38,1.59862502E9,,,,0,,3,,1.59862502E9
Raw,1933654508,1655824000000,,,-1311853870175826061,0.0,11.625049542327911,,,0,16,0.0,16,4819235,1000000000,7.0,538.4320578806628,2.99792458E8,4,524720.9052252838,3.4028234663852886E38,1.60143744E9,,,,0,,3,,1.60143744E9
Raw,1933654508,1655824000000,,,-1311853870175826061,0.0,11.625049542327911,,,0,23,0.0,32961,55107924507850,33,36.028804779052734,-0.7280126543351702,0.0744804188662167,4,-8366.736054019919,3.4028234663852886E38,1.60368755E9,,,,0,,3,,1.60368755E9
Raw,1933654508,1655824000000,,,-1311853870175826061,0.0,11.625049542327911,,,0,7,0.0,32995,55107932828619,33,43.058258056640625,-170.83555264160873,0.03510315786418822,1,-344219.81437613873,6.611555581912398E-4,1.60481254E9,,,,0,,3,,1.60481254E9
Raw,1933654509,1655824000000,,,-1311853870175826061,0.0,11.625049542327911,,,0,8,0.0,32961,55107927486498,33,36.508567810058594,-561.1704073270514,0.0710574119156272,4,-586627.0698937793,3.4028234663852886E38,1.60537498E9,,,,0,,3,,1.60537498E9
Raw,1933654509,1655824000000,,,-1311853870175826061,0.0,11.625049542327911,,,0,193,0.0,35,9338386,8,41.346900939941406,-254.93588864675212,0.04161747940131924,4,-407451.85862922244,3.4028234663852886E38,1.57542003E9,,,,0,,4,,1.57542003E9
Raw,1933654509,1655824000000,,,-1311853870175826061,0.0,11.625049542327911,,,0,194,0.0,35,12380484,8,41.033599853515625,-103.10898258994195,0.043631518764183475,4,-65477.08780011806,3.4028234663852886E38,1.57542003E9,,,,0,,4,,1.57542003E9
Raw,1933654509,1655824000000,,,-1311853870175826061,0.0,11.625049542327911,,,0,3,0.0,16,629661615,1000000000,34.764827728271484,-116.53506764674438,2.99792458E8,6,-73.18179883499624,3.4028234663852886E38,1.56109798E9,,,,0,,5,,1.56109798E9
Raw,1933654509,1655824000000,,,-1311853870175826061,0.0,11.625049542327911,,,0,6,0.0,16431,44311878583819,10,33.000057220458984,-78.85393826644588,0.10774881558214328,4,-107635.2370712939,3.4028234663852886E38,1.56109798E9,,,,0,,5,,1.56109798E9
Raw,1933654509,1655824000000,,,-1311853870175826061,0.0,11.625049542327911,,,0,14,0.0,16431,44311924418111,6,38.19855499267578,131.44523919037607,0.05818001806309736,1,146232.3234116667,0.0011282468913123012,1.56109798E9,,,,0,,5,,1.56109798E9
Raw,1933654510,1655824000000,,,-1311853870175826061,0.0,11.625049542327911,,,0,16,0.0,16431,44311877942113,12,31.646968841552734,-77.30786431181576,0.1252329826437492,4,-106521.56182469867,3.4028234663852886E38,1.56109798E9,,,,0,,5,,1.56109798E9
Raw,1933654510,1655824000000,,,-1311853870175826061,0.0,11.625049542327911,,,0,24,0.0,16431,44311924168180,6,37.48795700073242,28.17662076454188,0.06302716994533245,1,-79827.72223203028,0.0012244301615282893,1.56109798E9,,,,0,,5,,1.56109798E9
Raw,1933654510,1655824000000,,,-1311853870175826061,0.0,11.625049542327911,,,0,25,0.0,16431,44311922921298,6,37.59022521972656,-580.6187090803801,0.06207391375809174,1,-701246.5529643272,0.0012100982712581754,1.56109798E9,,,,0,,5,,1.56109798E9
Raw,1933654510,1655824000000,,,-1311853870175826061,0.0,11.625049542327911,,,0,26,0.0,16431,44311915219656,73,20.260238647460938,432.00001021790445,4.202737802246398,4,600233.2577285313,3.4028234663852886E38,1.56109798E9,,,,0,,5,,1.56109798E9
Raw,1933654510,1655824000000,,,-1311853870175826061,0.0,11.625049542327911,,,0,27,0.0,16431,44311913151462,12,31.583755493164062,122.378555941265,0.12526243867306824,4,88561.2938885123,3.4028234663852886E38,1.56109798E9,,,,0,,5,,1.56109798E9
Raw,1933654510,1655824000000,,,-1311853870175826061,0.0,11.625049542327911,,,0,33,0.0,16431,44311926009742,6,38.10780334472656,-113.3767997718299,0.059069020166043845,1,-233240.84595448402,0.0011400969233363867,1.56109798E9,,,,0,,5,,1.56109798E9
Fix,gps,34.486357,109.463915,359.542847,0.000000,3.000000,1627820308999
Raw,1933655519,1656824000000,,,-1311853870175826448,0.0,11.196449951489623,,,0,10,0.0,16431,44326931591346,8,41.41033935546875,-342.5501600018538,0.041732095806927993,1,-674521.8831833638,8.141931029967964E-4,1.57542003E9,,,,0,,1,,1.57542003E9
Raw,1933655519,1656824000000,,,-1311853870175826448,0.0,11.196449951489623,,,0,12,0.0,16431,44326923682689,10,39.16267776489258,-472.1407597174705,0.05201881107856851,4,-837873.5675544713,3.4028234663852886E38,1.57542003E9,,,,0,,1,,1.57542003E9
Raw,1933655519,1656824000000,,,-1311853870175826448,0.0,11.196449951489623,,,0,15,0.0,16431,44326916277494,14,36.00723648071289,415.6174595112591,0.07678065184501692,4,526372.1205700091,3.4028234663852886E38,1.57542003E9,,,,0,,1,,1.57542003E9
Raw,1933655520,1656824000000,,,-1311853870175826448,0.0,11.196449951489623,,,0,18,0.0,16431,44326921070921,16,34.95215606689453,564.1824785047113,0.0835838796154732,1,898232.4347542399,0.0016246428713202477,1.57542003E9,,,,0,,1,,1.57542003E9
Raw,1933655520,1656824000000,,,-1311853870175826448,0.0,11.196449951489623,,,0,23,0.0,16431,44326931320112,18,34.24869918823242,117.3396607184925,0.09246224304689399,1,62190.52887420454,0.0017616951372474432,1.57542003E9,,,,0,,1,,1.57542003E9
Raw,1933655520,1656824000000,,,-1311853870175826448,0.0,11.196449951489623,,,0,24,0.0,16,1656005991363,1000000000,34.6031608581543,462.6452510003894,2.99792458E8,2,524290.7677592768,3.4028234663852886E38,1.57542003E9,,,,0,,1,,1.57542003E9
Raw,1933655520,1656824000000,,,-1311853870175826448,0.0,11.196449951489623,,,0,25,0.0,16431,44326922960556,9,40.186710357666016,-703.7584881674679,0.04617749324407944,1,-950503.6377432228,8.892629994079471E-4,1.57542003E9,,,,0,,1,,1.57542003E9
Raw,1933655520,1656824000000,,,-1311853870175826448,0.0,11.196449951489623,,,0,31,0.0,16431,44326918062268,69,21.162858963012695,-828.7981597109633,4.20324903909424,4,-9138.908502051838,3.4028234663852886E38,1.57542003E9,,,,0,,1,,1.57542003E9
Raw,1933655520,1656824000000,,,-1311853870175826448,0.0,11.196449951489623,,,0,32,0.0,16431,44326927060959,27,30.680585861206055,-398.3181929715197,0.13763387945702643,4,-699199.8938216397,3.4028234663852886E38,1.57542003E9,,,,0,,1,,1.57542003E9
Raw,1933655521,1656824000000,,,-1311853870175826448,0.0,11.196449951489623,,,0,10,0.0,32995,55108930499328,33,37.478065490722656,-775.1517596598424,0.06423694321501583,4,-1395782.9242540335,3.4028234663852886E38,1.59806246E9,,,,0,,3,,1.59806246E9
Raw,1933655521,1656824000000,,,-1311853870175826448,0.0,11.196449951489623,,,0,9,0.0,32995,55108933658984,33,41.666412353515625,-98.21481851879355,0.04095223078888219,1,-389262.91358672746,7.779698935337365E-4,1.59862502E9,,,,0,,3,,1.59862502E9
Raw,1933655521,1656824000000,,,-1311853870175826448,0.0,11.196449951489623,,,0,16,0.0,16,4817401,1000000000,13.806177139282227,538.3433412463339,2.99792458E8,4,524720.8736259824,3.4028234663852886E38,1.60143744E9,,,,0,,3,,1.60143744E9
Raw,1933655521,1656824000000,,,-1311853870175826448,0.0,11.196449951489623,,,0,23,0.0,32961,55108924507817,33,35.05668640136719,-0.4878302215703816,0.08320456251023667,4,-8367.216246126667,3.4028234663852886E38,1.60368755E9,,,,0,,3,,1.60368755E9
Raw,1933655522,1656824000000,,,-1311853870175826448,0.0,11.196449951489623,,,0,7,0.0,32995,55108932829191,33,41.507591247558594,-170.89427671419753,0.041513318221936296,1,-344390.696938924,7.903816876932979E-4,1.60481254E9,,,,0,,3,,1.60481254E9
Raw,1933655522,1656824000000,,,-1311853870175826448,0.0,11.196449951489623,,,0,8,0.0,32961,55108927488380,38,33.8726692199707,-561.3291974919912,0.09577369152712184,1,-587188.2910507255,0.0018053115345537663,1.60537498E9,,,,0,,3,,1.60537498E9
Raw,1933655522,1656824000000,,,-1311853870175826448,0.0,11.196449951489623,,,0,193,0.0,35,9339227,8,40.97687530517578,-254.94069427312184,0.043355759572192704,4,-407706.8186419968,3.4028234663852886E38,1.57542003E9,,,,0,,4,,1.57542003E9
Raw,1933655522,1656824000000,,,-1311853870175826448,0.0,11.196449951489623,,,0,194,0.0,35,12380833,8,41.35917282104492,-103.07836802337033,0.042108346656005186,4,-65580.17491990444,3.4028234663852886E38,1.57542003E9,,,,0,,4,,1.57542003E9
Raw,1933655523,1656824000000,,,-1311853870175826448,0.0,11.196449951489623,,,0,6,0.0,16431,44312878584073,10,32.99726867675781,-78.91632620311088,0.1077823405375462,4,-107714.15078361411,3.4028234663852886E38,1.56109798E9,,,,0,,5,,1.56109798E9
Raw,1933655523,1656824000000,,,-1311853870175826448,0.0,11.196449951489623,,,0,14,0.0,16431,44312924417675,6,39.24501419067383,131.4102791105978,0.051666507814909446,1,146363.74817008784,0.0010001868940889835,1.56109798E9,,,,0,,5,,1.56109798E9
Raw,1933655523,1656824000000,,,-1311853870175826448,0.0,11.196449951489623,,,0,16,0.0,16431,44312877942375,12,31.87710189819336,-77.3393991047135,0.12204296955670835,4,-106598.85542590711,3.4028234663852886E38,1.56109798E9,,,,0,,5,,1.56109798E9
Raw,1933655523,1656824000000,,,-1311853870175826448,0.0,11.196449951489623,,,0,24,0.0,16431,44312924168084,7,36.08275604248047,28.273393639531335,0.07396314103609047,1,-79799.57779804748,0.0014394416939467192,1.56109798E9,,,,0,,5,,1.56109798E9
Raw,1933655523,1656824000000,,,-1311853870175826448,0.0,11.196449951489623,,,0,25,0.0,16431,44312922923222,6,36.6243896484375,-580.5774011430744,0.0693132114156971,1,-701827.1701306886,0.0013524227542802691,1.56109798E9,,,,0,,5,,1.56109798E9
Raw,1933655523,1656824000000,,,-1311853870175826448,0.0,11.196449951489623,,,0,26,0.0,16431,44312915218212,80,18.999919891357422,431.8191687035944,4.202737535977207,4,600664.5769510644,3.4028234663852886E38,1.56109798E9,,,,0,,5,,1.56109798E9
Raw,1933655524,1656824000000,,,-1311853870175826448,0.0,11.196449951489623,,,0,27,0.0,16431,44312913151032,13,30.7902774810791,122.31707971031199,0.1370180903469262,4,88684.01122754322,3.4028234663852886E38,1.56109798E9,,,,0,,5,,1.56109798E9
Raw,1933655524,1656824000000,,,-1311853870175826448,0.0,11.196449951489623,,,0,33,0.0,16431,44312926010129,6,39.268741607666016,-113.31678908650736,0.05181417488392362,1,-233354.20026074268,9.974584681913257E-4,1.56109798E9,,,,0,,5,,1.56109798E9
Fix,gps,34.486357,109.463915,359.446411,0.000000,3.000000,1627820309999
Raw,1933656536,1657824000000,,,-1311853870175826833,0.0,11.104057644389943,,,0,10,0.0,16431,44327931592479,8,41.06894302368164,-342.44341374802434,0.043321643832020945,1,-674864.3935201094,8.46831884700805E-4,1.57542003E9,,,,0,,1,,1.57542003E9
Raw,1933656536,1657824000000,,,-1311853870175826833,0.0,11.104057644389943,,,0,12,0.0,16431,44327923684257,9,40.34037780761719,-472.4150894100226,0.04550724376338794,1,-838345.7535778044,8.736690506339073E-4,1.57542003E9,,,,0,,1,,1.57542003E9
Raw,1933656537,1657824000000,,,-1311853870175826833,0.0,11.104057644389943,,,0,15,0.0,16431,44327916276126,12,37.75368118286133,415.32053315003236,0.06332870732343349,1,526787.5265538065,0.001176742953248322,1.57542003E9,,,,0,,1,,1.57542003E9
Raw,1933656537,1657824000000,,,-1311853870175826833,0.0,11.104057644389943,,,0,18,0.0,16431,44327921069028,166,31.003803253173828,564.7707076218385,0.13157501553255674,4,898796.6058802316,3.4028234663852886E38,1.57542003E9,,,,1,,1,,1.57542003E9
Raw,1933656537,1657824000000,,,-1311853870175826833,0.0,11.104057644389943,,,0,23,0.0,16431,44327931319714,17,34.70988082885742,117.16181846035647,0.08778618160162027,4,62308.04760888425,3.4028234663852886E38,1.57542003E9,,,,0,,1,,1.57542003E9
Raw,1933656538,1657824000000,,,-1311853870175826833,0.0,11.104057644389943,,,0,24,0.0,16,1657005989759,1000000000,22.855270385742188,462.6452510003894,2.99792458E8,2,524290.7641413277,3.4028234663852886E38,1.57542003E9,,,,0,,1,,1.57542003E9
Raw,1933656538,1657824000000,,,-1311853870175826833,0.0,11.104057644389943,,,0,25,0.0,16431,44327922962920,8,41.32909393310547,-703.900475681342,0.04055263562052405,1,-951207.3845940279,7.796704303473234E-4,1.57542003E9,,,,0,,1,,1.57542003E9
Raw,1933656538,1657824000000,,,-1311853870175826833,0.0,11.104057644389943,,,0,31,0.0,16431,44327918065096,72,20.53792953491211,-828.3256405337311,4.2032495716326235,4,-9967.83808074186,3.4028234663852886E38,1.57542003E9,,,,0,,1,,1.57542003E9
Raw,1933656539,1657824000000,,,-1311853870175826833,0.0,11.104057644389943,,,0,32,0.0,16431,44327927062195,28,30.39398765563965,-397.97924294140034,0.14220860051216555,4,-699597.4856033614,3.4028234663852886E38,1.57542003E9,,,,0,,1,,1.57542003E9
Raw,1933656539,1657824000000,,,-1311853870175826833,0.0,11.104057644389943,,,0,10,0.0,32995,55109930501908,33,36.837806701660156,-775.007727198577,0.06900688119214754,1,-1396557.898390227,0.001289074425585568,1.59806246E9,,,,0,,3,,1.59806246E9
Raw,1933656539,1657824000000,,,-1311853870175826833,0.0,11.104057644389943,,,0,9,0.0,32995,55109933659305,33,42.723060607910156,-98.20208020066815,0.03654292946901491,1,-389361.08971651003,6.888591451570392E-4,1.59862502E9,,,,0,,3,,1.59862502E9
Raw,1933656540,1657824000000,,,-1311853870175826833,0.0,11.104057644389943,,,0,16,0.0,16,4815602,1000000000,11.513477325439453,538.8882174787641,2.99792458E8,4,524290.1443852442,3.4028234663852886E38,1.60143744E9,,,,0,,3,,1.60143744E9
Raw,1933656540,1657824000000,,,-1311853870175826833,0.0,11.104057644389943,,,0,23,0.0,32961,55109924507883,37,33.929264068603516,-0.13779264246250866,0.09462434056164754,4,-8367.533253672806,3.4028234663852886E38,1.60368755E9,,,,0,,3,,1.60368755E9
Raw,1933656540,1657824000000,,,-1311853870175826833,0.0,11.104057644389943,,,0,7,0.0,32995,55109932829767,33,43.452598571777344,-170.73240208694244,0.0336477242223034,1,-344561.46852844907,6.318102241493762E-4,1.60481254E9,,,,0,,3,,1.60481254E9
Raw,1933656541,1657824000000,,,-1311853870175826833,0.0,11.104057644389943,,,0,8,0.0,32961,55109927490233,38,33.849796295166016,-560.7052840428846,0.09602303598321621,4,-587749.2114391682,3.4028234663852886E38,1.60537498E9,,,,0,,3,,1.60537498E9
Raw,1933656541,1657824000000,,,-1311853870175826833,0.0,11.104057644389943,,,0,193,0.0,35,9340098,8,40.59986114501953,-255.09333255465924,0.045204712036274575,1,-407961.82639260404,8.938228129409254E-4,1.57542003E9,,,,0,,4,,1.57542003E9
Raw,1933656541,1657824000000,,,-1311853870175826833,0.0,11.104057644389943,,,0,194,0.0,35,12381164,7,42.246788024902344,-103.32572145158463,0.03823423809031043,4,-65683.3022107296,3.4028234663852886E38,1.57542003E9,,,,0,,4,,1.57542003E9
Raw,1933656542,1657824000000,,,-1311853870175826833,0.0,11.104057644389943,,,0,4,0.0,16,580784635,1000000000,33.43955993652344,-116.53506764674438,2.99792458E8,6,-67.47158422467649,3.4028234663852886E38,1.56109798E9,,,,0,,5,,1.56109798E9
Raw,1933656542,1657824000000,,,-1311853870175826833,0.0,11.104057644389943,,,0,6,0.0,16431,44313878584340,11,32.5934944152832,-78.7591975579266,0.11275201369201521,1,-107793.01049412733,0.0021510832011699677,1.56109798E9,,,,0,,5,,1.56109798E9
Raw,1933656542,1657824000000,,,-1311853870175826833,0.0,11.104057644389943,,,0,14,0.0,16431,44313924417230,6,39.85652160644531,131.33528066501935,0.04820809538275145,1,146495.1631085411,9.321928955614567E-4,1.56109798E9,,,,0,,5,,1.56109798E9
Raw,1933656543,1657824000000,,,-1311853870175826833,0.0,11.104057644389943,,,0,16,0.0,16431,44313877942635,12,31.52432632446289,-76.83113595120295,0.1269679843752013,1,-106676.01932971775,0.00229371408931911,1.56109798E9,,,,0,,5,,1.56109798E9
Raw,1933656544,1657824000000,,,-1311853870175826833,0.0,11.104057644389943,,,0,24,0.0,16431,44313924167994,6,38.152462005615234,28.239575322046576,0.05844034612334459,1,-79771.40138541244,0.0011342500802129507,1.56109798E9,,,,0,,5,,1.56109798E9
Raw,1933656544,1657824000000,,,-1311853870175826833,0.0,11.104057644389943,,,0,25,0.0,16431,44313922925153,7,36.01128005981445,-580.4581807101576,0.07434450508573731,1,-702407.5918808782,0.0014513356145471334,1.56109798E9,,,,0,,5,,1.56109798E9
Raw,1933656544,1657824000000,,,-1311853870175826833,0.0,11.104057644389943,,,0,26,0.0,16431,44313915216843,72,20.443668365478516,431.6913594916339,4.202737269708015,4,601096.0654425903,3.4028234663852886E38,1.56109798E9,,,,0,,5,,1.56109798E9
Raw,1933656545,1657824000000,,,-1311853870175826833,0.0,11.104057644389943,,,0,27,0.0,16431,44313913150627,13,30.73059844970703,122.72099090256381,0.1379463713160875,4,88807.78145737042,3.4028234663852886E38,1.56109798E9,,,,0,,5,,1.56109798E9
Raw,1933656545,1657824000000,,,-1311853870175826833,0.0,11.104057644389943,,,0,33,0.0,16431,44313926010506,6,40.039024353027344,-113.16931429713316,0.04750883920200172,1,-233467.4381187305,9.128105593845248E-4,1.56109798E9,,,,0,,5,,1.56109798E9
Fix,gps,34.486357,109.463915,359.412567,0.000000,3.000000,1627820310999
Raw,1933657593,1658824000000,,,-1311853870175827219,0.0,11.034994044910274,,,0,10,0.0,16431,44328931593637,9,39.72543716430664,-342.27024078643194,0.05021991722250452,1,-675206.762437426,9.884907631203532E-4,1.57542003E9,,,,0,,1,,1.57542003E9
Raw,1933657593,1658824000000,,,-1311853870175827219,0.0,11.034994044910274,,,0,12,0.0,16431,44328923685838,11,37.95284652709961,-472.1697979704279,0.05969479853128462,1,-838818.1132659819,0.00115006766282022,1.57542003E9,,,,0,,1,,1.57542003E9
Raw,1933657593,1658824000000,,,-1311853870175827219,0.0,11.034994044910274,,,0,15,0.0,16431,44328916274718,10,39.45592498779297,415.34098262394605,0.05257888752078582,1,527202.7423128914,9.673185413703322E-4,1.57542003E9,,,,0,,1,,1.57542003E9
Raw,1933657594,1658824000000,,,-1311853870175827219,0.0,11.034994044910274,,,0,18,0.0,16431,44328921067151,26,31.015504837036133,563.8231812480478,0.13139778010190833,4,899360.7894170501,3.4028234663852886E38,1.57542003E9,,,,0,,1,,1.57542003E9
Raw,1933657594,1658824000000,,,-1311853870175827219,0.0,11.034994044910274,,,0,23,0.0,16431,44328931319340,9,40.376434326171875,117.52013584639491,0.046694825160135206,4,62425.45909628973,3.4028234663852886E38,1.57542003E9,,,,0,,1,,1.57542003E9
Raw,1933657594,1658824000000,,,-1311853870175827219,0.0,11.034994044910274,,,0,24,0.0,16,1658005988215,1000000000,30.21270751953125,462.83089814106916,2.99792458E8,2,524290.7471534478,3.4028234663852886E38,1.57542003E9,,,,0,,1,,1.57542003E9
Raw,1933657595,1658824000000,,,-1311853870175827219,0.0,11.034994044910274,,,0,25,0.0,16431,44328922965276,8,41.148582458496094,-703.7939339222517,0.04139346380207434,1,-951911.3209588224,7.960431976243854E-4,1.57542003E9,,,,0,,1,,1.57542003E9
Raw,1933657595,1658824000000,,,-1311853870175827219,0.0,11.034994044910274,,,0,31,0.0,16431,44328918067780,63,22.243877410888672,-828.8792759574876,4.203249837901815,4,-10797.075036029737,3.4028234663852886E38,1.57542003E9,,,,0,,1,,1.57542003E9
Raw,1933657595,1658824000000,,,-1311853870175827219,0.0,11.034994044910274,,,0,32,0.0,16431,44328927063568,15,35.52855682373047,-397.86107906463576,0.07930756311497789,4,-699995.4690131099,3.4028234663852886E38,1.57542003E9,,,,0,,1,,1.57542003E9
Raw,1933657595,1658824000000,,,-1311853870175827219,0.0,11.034994044910274,,,0,10,0.0,32995,55110930504492,33,36.26668930053711,-774.9206124397047,0.07356883796791508,1,-1397332.9334340196,0.0013766827760264277,1.59806246E9,,,,0,,3,,1.59806246E9
Raw,1933657596,1658824000000,,,-1311853870175827219,0.0,11.034994044910274,,,0,9,0.0,32995,55110933659634,33,44.649112701416016,-97.97958140387311,0.03245704120551979,1,-389459.2148758224,5.51858451217413E-4,1.59862502E9,,,,0,,3,,1.59862502E9
Raw,1933657596,1658824000000,,,-1311853870175827219,0.0,11.034994044910274,,,0,16,0.0,17,814042,97,15.758872032165527,539.0128229398115,4.200865929829559,4,524829.1809245704,3.4028234663852886E38,1.60143744E9,,,,0,,3,,1.60143744E9
Raw,1933657596,1658824000000,,,-1311853870175827219,0.0,11.034994044910274,,,0,23,0.0,32961,55110924507850,33,35.879180908203125,0.04509130216294019,0.07576044143746108,4,-8367.446300432075,3.4028234663852886E38,1.60368755E9,,,,0,,3,,1.60368755E9
Raw,1933657596,1658824000000,,,-1311853870175827219,0.0,11.034994044910274,,,0,7,0.0,32995,55110932830316,33,39.850608825683594,-170.70021120675665,0.04975368818895237,1,-344732.29038681445,9.074178524315357E-4,1.60481254E9,,,,0,,3,,1.60481254E9
Raw,1933657597,1658824000000,,,-1311853870175827219,0.0,11.034994044910274,,,0,8,0.0,32961,55110927492072,33,36.0333366394043,-561.0185018183292,0.07497879990465267,4,-588310.1555159972,3.4028234663852886E38,1.60537498E9,,,,0,,3,,1.60537498E9
Raw,1933657597,1658824000000,,,-1311853870175827219,0.0,11.034994044910274,,,0,193,0.0,35,9340958,12,37.3572998046875,-254.85414187478216,0.06490150119173721,1,-408216.96493929566,0.0012316880747675896,1.57542003E9,,,,0,,4,,1.57542003E9
Raw,1933657598,1658824000000,,,-1311853870175827219,0.0,11.034994044910274,,,0,194,0.0,35,12381500,8,40.43531036376953,-103.11020955837677,0.04658421111331246,1,-65786.57045263815,9.109173552133143E-4,1.57542003E9,,,,0,,4,,1.57542003E9
Raw,1933657598,1658824000000,,,-1311853870175827219,0.0,11.034994044910274,,,0,6,0.0,16431,44314878584585,14,30.06076431274414,-78.55501808151257,0.14979317858350194,1,-107871.83275966781,0.002714672591537237,1.56109798E9,,,,0,,5,,1.56109798E9
Raw,1933657598,1658824000000,,,-1311853870175827219,0.0,11.034994044910274,,,0,14,0.0,16431,44314924416802,9,34.36985397338867,131.51283322227493,0.08996797471563883,1,146626.47307716458,0.001753231161274016,1.56109798E9,,,,0,,5,,1.56109798E9
Raw,1933657599,1658824000000,,,-1311853870175827219,0.0,11.034994044910274,,,0,16,0.0,16431,44314877942872,15,29.482606887817383,-77.12557429310351,0.15975765404739573,4,-106753.24288731311,3.4028234663852886E38,1.56109798E9,,,,0,,5,,1.56109798E9
Raw,1933657599,1658824000000,,,-1311853870175827219,0.0,11.034994044910274,,,0,24,0.0,16431,44314924167903,6,41.28767013549805,28.277724241663265,0.04096070563799559,1,-79743.21356479921,7.90584716014564E-4,1.56109798E9,,,,0,,5,,1.56109798E9
Raw,1933657599,1658824000000,,,-1311853870175827219,0.0,11.034994044910274,,,0,25,0.0,16431,44314922927094,9,34.02867126464844,-580.1687524893659,0.09327245027141207,1,-702988.0665002496,0.0018234688322991133,1.56109798E9,,,,0,,5,,1.56109798E9
Raw,1933657600,1658824000000,,,-1311853870175827219,0.0,11.034994044910274,,,0,26,0.0,16431,44314915215368,74,20.080917358398438,431.7336899026352,4.202737003438823,4,601527.4125987535,3.4028234663852886E38,1.56109798E9,,,,0,,5,,1.56109798E9
Raw,1933657600,1658824000000,,,-1311853870175827219,0.0,11.034994044910274,,,0,27,0.0,16431,44314913150237,16,28.880157470703125,122.75106014983106,0.17013782564482627,4,88931.3182033073,3.4028234663852886E38,1.56109798E9,,,,0,,5,,1.56109798E9
Raw,1933657600,1658824000000,,,-1311853870175827219,0.0,11.034994044910274,,,0,33,0.0,16431,44314926010895,7,35.89506149291992,-113.20735883922674,0.07589390886974279,1,-233580.74558503402,0.0014708853559568524,1.56109798E9,,,,0,,5,,1.56109798E9
Fix,gps,34.486357,109.463915,359.413208,0.000000,3.000000,1627820311999
Raw,1933658586,1659824000000,,,-1311853870175827605,0.0,11.380733540059994,,,0,10,0.0,16431,44329931594765,14,36.38035583496094,-341.74298518402406,0.07283302801970815,1,-675548.9748809104,0.0013783134054392576,1.57542003E9,,,,0,,1,,1.57542003E9
Raw,1933658586,1659824000000,,,-1311853870175827605,0.0,11.380733540059994,,,0,12,0.0,16431,44329923687393,21,32.720672607421875,-472.3418802934116,0.10848214589850358,4,-839290.3773150445,3.4028234663852886E38,1.57542003E9,,,,0,,1,,1.57542003E9
Raw,1933658586,1659824000000,,,-1311853870175827605,0.0,11.380733540059994,,,0,15,0.0,16431,44329916273350,11,38.473323822021484,414.80680828286404,0.05852556890647609,1,527617.7159345369,0.0010831771651282907,1.57542003E9,,,,0,,1,,1.57542003E9
Raw,1933658587,1659824000000,,,-1311853870175827605,0.0,11.380733540059994,,,0,18,0.0,16431,44329921065261,18,34.090675354003906,564.239498454474,0.09227784331080952,4,899925.2330598705,3.4028234663852886E38,1.57542003E9,,,,0,,1,,1.57542003E9
Raw,1933658587,1659824000000,,,-1311853870175827605,0.0,11.380733540059994,,,0,23,0.0,16431,44329931318933,6,43.12267303466797,117.4616333097735,0.03458928328716693,4,62542.94548849901,3.4028234663852886E38,1.57542003E9,,,,0,,1,,1.57542003E9
Raw,1933658587,1659824000000,,,-1311853870175827605,0.0,11.380733540059994,,,0,24,0.0,16,1659005986719,1000000000,34.772010803222656,462.83089814106916,2.99792458E8,2,524290.7435340472,3.4028234663852886E38,1.57542003E9,,,,0,,1,,1.57542003E9
Raw,1933658587,1659824000000,,,-1311853870175827605,0.0,11.380733540059994,,,0,25,0.0,16431,44329922967610,7,41.60783767700195,-704.0341470758244,0.03928957522887483,1,-952615.2458284404,7.958891801536083E-4,1.57542003E9,,,,0,,1,,1.57542003E9
Raw,1933658588,1659824000000,,,-1311853870175827605,0.0,11.380733540059994,,,0,31,0.0,16431,44329918070564,74,20.21818733215332,-829.479059027376,4.203250370440198,4,-11626.281852504388,3.4028234663852886E38,1.57542003E9,,,,0,,1,,1.57542003E9
Raw,1933658588,1659824000000,,,-1311853870175827605,0.0,11.380733540059994,,,0,32,0.0,16431,44329927064901,15,35.54755401611328,-397.8997967352457,0.07913730892969634,4,-700393.3654839045,3.4028234663852886E38,1.57542003E9,,,,0,,1,,1.57542003E9
Raw,1933658588,1659824000000,,,-1311853870175827605,0.0,11.380733540059994,,,0,10,0.0,32995,55111930507051,33,37.02970504760742,-774.7335679183075,0.06754123987117597,1,-1398107.784952237,0.0012609070399776101,1.59806246E9,,,,0,,3,,1.59806246E9
Raw,1933658588,1659824000000,,,-1311853870175827605,0.0,11.380733540059994,,,0,9,0.0,32995,55111933659958,33,41.72370529174805,-97.913861907083,0.04069932498235038,1,-389557.259452594,7.728553027845919E-4,1.59862502E9,,,,0,,3,,1.59862502E9
Raw,1933658588,1659824000000,,,-1311853870175827605,0.0,11.380733540059994,,,0,16,0.0,16,4812117,1000000000,16.593273162841797,538.9558711549619,2.99792458E8,6,524721.1355885866,3.4028234663852886E38,1.60143744E9,,,,0,,3,,1.60143744E9
Raw,1933658588,1659824000000,,,-1311853870175827605,0.0,11.380733540059994,,,0,23,0.0,32961,55111924507911,33,34.9222297668457,0.804181419577926,0.08448995206987392,4,-8367.050578051249,3.4028234663852886E38,1.60368755E9,,,,0,,3,,1.60368755E9
Raw,1933658589,1659824000000,,,-1311853870175827605,0.0,11.380733540059994,,,0,7,0.0,32995,55111932830915,33,45.09880828857422,-170.73132848956197,0.03230796998256562,1,-344903.1480465082,5.227283108979464E-4,1.60481254E9,,,,0,,3,,1.60481254E9
Raw,1933658589,1659824000000,,,-1311853870175827605,0.0,11.380733540059994,,,0,8,0.0,32961,55111927493938,33,37.381797790527344,-560.5966973364029,0.06439122956971455,4,-588871.0150068932,3.4028234663852886E38,1.60537498E9,,,,0,,3,,1.60537498E9
Raw,1933658589,1659824000000,,,-1311853870175827605,0.0,11.380733540059994,,,0,193,0.0,35,9341796,19,33.781524658203125,-254.9566448627745,0.09710314031705408,1,-408472.1758603479,0.0018590433755889535,1.57542003E9,,,,0,,4,,1.57542003E9
Raw,1933658589,1659824000000,,,-1311853870175827605,0.0,11.380733540059994,,,0,194,0.0,35,12381860,14,36.33414840698242,-103.6723911581064,0.07335197835319401,1,-65889.94517733974,0.001306417747400701,1.57542003E9,,,,0,,4,,1.57542003E9
Raw,1933658590,1659824000000,,,-1311853870175827605,0.0,11.380733540059994,,,0,6,0.0,16431,44315878584854,15,29.9365177154541,-78.55322875254512,0.15190317886673954,1,-107950.67301379365,0.002753783017396927,1.56109798E9,,,,0,,5,,1.56109798E9
Raw,1933658590,1659824000000,,,-1311853870175827605,0.0,11.380733540059994,,,0,14,0.0,16431,44315924416351,9,33.48044967651367,131.08012235426133,0.0995827888055088,1,146757.7045064796,0.0019422693876549602,1.56109798E9,,,,0,,5,,1.56109798E9
Raw,1933658590,1659824000000,,,-1311853870175827605,0.0,11.380733540059994,,,0,16,0.0,16431,44315877943119,11,32.31075668334961,-76.95588626269057,0.11625670703803548,4,-106830.39899779331,3.4028234663852886E38,1.56109798E9,,,,0,,5,,1.56109798E9
Raw,1933658590,1659824000000,,,-1311853870175827605,0.0,11.380733540059994,,,0,24,0.0,16431,44315924167805,6,44.227256774902344,28.16238494848301,0.030749689865431307,1,-79715.02518201283,5.940839182585478E-4,1.56109798E9,,,,0,,5,,1.56109798E9
Raw,1933658591,1659824000000,,,-1311853870175827605,0.0,11.380733540059994,,,0,25,0.0,16431,44315922929013,8,35.19473648071289,-580.1632311314092,0.08162140078528562,1,-703568.3527198959,0.0015943920006975532,1.56109798E9,,,,0,,5,,1.56109798E9
Raw,1933658591,1659824000000,,,-1311853870175827605,0.0,11.380733540059994,,,0,26,0.0,16431,44315915214039,70,21.004423141479492,431.6283410295232,4.202736737169632,4,601958.7410015796,3.4028234663852886E38,1.56109798E9,,,,0,,5,,1.56109798E9
Raw,1933658591,1659824000000,,,-1311853870175827605,0.0,11.380733540059994,,,0,27,0.0,16431,44315913149822,21,26.915000915527344,122.85229356631794,0.2127326585952246,4,89054.1310390314,3.4028234663852886E38,1.56109798E9,,,,0,,5,,1.56109798E9
Raw,1933658591,1659824000000,,,-1311853870175827605,0.0,11.380733540059994,,,0,33,0.0,16431,44315926011271,6,40.4454345703125,-113.14609562362699,0.0453866737450736,1,-233694.05743747388,9.182036155834794E-4,1.56109798E9,,,,0,,5,,1.56109798E9
Fix,gps,34.486357,109.463915,359.279541,0.000000,3.000000,1627820312999
Raw,1933659537,1660824000000,,,-1311853870175827992,0.0,11.795988353034245,,,0,10,0.0,16431,44330931595918,10,39.044002532958984,-341.87757680483264,0.05414871082342093,4,-675891.149344878,3.4028234663852886E38,1.57542003E9,,,,0,,1,,1.57542003E9
Raw,1933659537,1660824000000,,,-1311853870175827992,0.0,11.795988353034245,,,0,12,0.0,16431,44330923688959,23,31.967267990112305,-472.41791825391397,0.11825207843429597,4,-839762.8589243132,3.4028234663852886E38,1.57542003E9,,,,0,,1,,1.57542003E9
Raw,1933659537,1660824000000,,,-1311853870175827992,0.0,11.795988353034245,,,0,15,0.0,16431,44330916271952,11,38.32727813720703,414.6079030665969,0.0594680578332821,1,528032.315427669,0.0011015437776222825,1.57542003E9,,,,0,,1,,1.57542003E9
Raw,1933659537,1660824000000,,,-1311853870175827992,0.0,11.795988353034245,,,0,18,0.0,16431,44330921063411,21,33.025787353515625,564.569689293267,0.10428848101925853,4,900489.6972034439,3.4028234663852886E38,1.57542003E9,,,,0,,1,,1.57542003E9
Raw,1933659537,1660824000000,,,-1311853870175827992,0.0,11.795988353034245,,,0,23,0.0,16431,44330931318560,7,42.13425064086914,117.45251625265365,0.038512655813760927,4,62660.378474508296,3.4028234663852886E38,1.57542003E9,,,,0,,1,,1.57542003E9
Raw,1933659538,1660824000000,,,-1311853870175827992,0.0,11.795988353034245,,,0,24,0.0,16,1660005985192,1000000000,32.27682113647461,462.83089814106916,2.99792458E8,2,524290.7688698524,3.4028234663852886E38,1.57542003E9,,,,0,,1,,1.57542003E9
Raw,1933659538,1660824000000,,,-1311853870175827992,0.0,11.795988353034245,,,0,25,0.0,16431,44330922969981,6,42.66426086425781,-704.1117187468703,0.034851699896385646,1,-953319.3339789605,7.047440740279853E-4,1.57542003E9,,,,0,,1,,1.57542003E9
Raw,1933659538,1660824000000,,,-1311853870175827992,0.0,11.795988353034245,,,0,31,0.0,16431,44330918073430,82,18.568586349487305,-829.6246592816415,4.203250902978581,4,-12454.980331941057,3.4028234663852886E38,1.57542003E9,,,,0,,1,,1.57542003E9
Raw,1933659538,1660824000000,,,-1311853870175827992,0.0,11.795988353034245,,,0,32,0.0,16431,44330927066233,16,35.211631774902344,-397.00383711817403,0.08220798349343394,4,-700790.9169738934,3.4028234663852886E38,1.57542003E9,,,,0,,1,,1.57542003E9
Raw,1933659538,1660824000000,,,-1311853870175827992,0.0,11.795988353034245,,,0,10,0.0,32995,55112930509628,33,36.344032287597656,-774.8940281236169,0.0729343351261938,4,-1398882.6358188372,3.4028234663852886E38,1.59806246E9,,,,0,,3,,1.59806246E9
Raw,1933659538,1660824000000,,,-1311853870175827992,0.0,11.795988353034245,,,0,9,0.0,32995,55112933660313,33,40.76010513305664,-97.7295610234359,0.045186206327459455,4,-389655.3487879844,3.4028234663852886E38,1.59862502E9,,,,0,,3,,1.59862502E9
Raw,1933659539,1660824000000,,,-1311853870175827992,0.0,11.795988353034245,,,0,16,0.0,16,4810307,1000000000,20.41595458984375,539.1311231464022,2.99792458E8,4,524721.1591489111,3.4028234663852886E38,1.60143744E9,,,,0,,3,,1.60143744E9
Raw,1933659539,1660824000000,,,-1311853870175827992,0.0,11.795988353034245,,,0,23,0.0,32961,55112924507943,33,35.63694763183594,0.6656410266581503,0.07788011062071809,4,-8366.224839907125,3.4028234663852886E38,1.60368755E9,,,,0,,3,,1.60368755E9
Raw,1933659539,1660824000000,,,-1311853870175827992,0.0,11.795988353034245,,,0,7,0.0,32995,55112932831462,33,44.303985595703125,-170.81535878611896,0.0323080677532844,1,-345074.0608901605,5.728187970817089E-4,1.60481254E9,,,,0,,3,,1.60481254E9
Raw,1933659539,1660824000000,,,-1311853870175827992,0.0,11.795988353034245,,,0,8,0.0,32961,55112927495848,33,38.415565490722656,-560.6747802442967,0.057317663681589914,4,-589431.6935844122,3.4028234663852886E38,1.60537498E9,,,,0,,3,,1.60537498E9
Raw,1933659540,1660824000000,,,-1311853870175827992,0.0,11.795988353034245,,,0,193,0.0,35,9342669,17,34.53823471069336,-255.26098415829495,0.08914194111604595,4,-408727.75237957557,3.4028234663852886E38,1.57542003E9,,,,0,,4,,1.57542003E9
Raw,1933659540,1660824000000,,,-1311853870175827992,0.0,11.795988353034245,,,0,194,0.0,35,12382205,19,33.477806091308594,-103.47480663702953,0.10104570502772275,4,-65993.64526789778,3.4028234663852886E38,1.57542003E9,,,,0,,4,,1.57542003E9
Raw,1933659540,1660824000000,,,-1311853870175827992,0.0,11.795988353034245,,,0,6,0.0,16431,44316878585126,14,30.400672912597656,-78.81824541385237,0.14417286833848408,4,-108029.56284947117,3.4028234663852886E38,1.56109798E9,,,,0,,5,,1.56109798E9
Raw,1933659540,1660824000000,,,-1311853870175827992,0.0,11.795988353034245,,,0,14,0.0,16431,44316924415921,11,32.33558654785156,131.0582158553313,0.1135008541887853,4,146888.6196466661,3.4028234663852886E38,1.56109798E9,,,,0,,5,,1.56109798E9
Raw,1933659540,1660824000000,,,-1311853870175827992,0.0,11.795988353034245,,,0,16,0.0,16431,44316877943386,10,33.002479553222656,-77.38892091404114,0.10760448935939226,4,-106907.5716991927,3.4028234663852886E38,1.56109798E9,,,,0,,5,,1.56109798E9
Raw,1933659540,1660824000000,,,-1311853870175827992,0.0,11.795988353034245,,,0,24,0.0,16431,44316924167711,6,43.366920471191406,28.140122713913016,0.032400305065431706,1,-79686.94269528243,6.55940908472985E-4,1.56109798E9,,,,0,,5,,1.56109798E9
Raw,1933659541,1660824000000,,,-1311853870175827992,0.0,11.795988353034245,,,0,25,0.0,16431,44316922930946,9,33.94664764404297,-580.5322078057252,0.09415311065984094,4,-704148.5894697201,3.4028234663852886E38,1.56109798E9,,,,0,,5,,1.56109798E9
Raw,1933659541,1660824000000,,,-1311853870175827992,0.0,11.795988353034245,,,0,26,0.0,16431,44316915212658,166,28.21839141845703,430.5998006565778,0.1837906952341969,4,602389.8553465678,3.4028234663852886E38,1.56109798E9,,,,1,,5,,1.56109798E9
Raw,1933659541,1660824000000,,,-1311853870175827992,0.0,11.795988353034245,,,0,27,0.0,16431,44316913149402,21,27.014549255371094,123.19041709686661,0.21033537049609186,4,89177.53477868308,3.4028234663852886E38,1.56109798E9,,,,0,,5,,1.56109798E9
Raw,1933659541,1660824000000,,,-1311853870175827992,0.0,11.795988353034245,,,0,33,0.0,16431,44316926011649,6,39.92291259765625,-113.33666767927429,0.04813385204331669,1,-233807.43724540286,9.250949369743466E-4,1.56109798E9,,,,0,,5,,1.56109798E9
Fix,gps,34.486360,109.463933,359.064423,0.573970,3.000000,1627820313999
Raw,1933660530,1661824000000,,,-1311853870175828381,0.0,10.480369807528314,,,0,10,0.0,16431,44331931597051,11,38.27812957763672,-341.8342920850487,0.05894799249755647,4,-676233.0230713557,3.4028234663852886E38,1.57542003E9,,,,0,,1,,1.57542003E9
Raw,1933660532,1661824000000,,,-1311853870175828381,0.0,10.480369807528314,,,0,12,0.0,16431,44331923690561,28,30.51695442199707,-472.8772475204719,0.13962089665740096,4,-840235.668597785,3.4028234663852886E38,1.57542003E9,,,,0,,1,,1.57542003E9
Raw,1933660532,1661824000000,,,-1311853870175828381,0.0,10.480369807528314,,,0,15,0.0,16431,44331916270587,9,40.06660461425781,414.0369878373833,0.04920720811733034,1,528446.7444815334,9.016447584144771E-4,1.57542003E9,,,,0,,1,,1.57542003E9
Raw,1933660532,1661824000000,,,-1311853870175828381,0.0,10.480369807528314,,,0,18,0.0,16431,44331921061502,20,33.435447692871094,564.6254822745948,0.09949248194500049,4,901054.1451241055,3.4028234663852886E38,1.57542003E9,,,,0,,1,,1.57542003E9
Raw,1933660533,1661824000000,,,-1311853870175828381,0.0,10.480369807528314,,,0,23,0.0,16431,44331931318162,6,43.095558166503906,117.36282826831388,0.03469091282900176,4,62777.84944118217,3.4028234663852886E38,1.57542003E9,,,,0,,1,,1.57542003E9
Raw,1933660533,1661824000000,,,-1311853870175828381,0.0,10.480369807528314,,,0,24,0.0,17,983554,21,32.88252639770508,462.55564822219094,0.10690467567752265,4,524660.7901984265,3.4028234663852886E38,1.57542003E9,,,,0,,1,,1.57542003E9
Raw,1933660533,1661824000000,,,-1311853870175828381,0.0,10.480369807528314,,,0,25,0.0,16431,44331922972311,7,41.97178268432617,-704.2465489448746,0.03770007296879918,1,-954023.5513786416,7.632297347299755E-4,1.57542003E9,,,,0,,1,,1.57542003E9
Raw,1933660534,1661824000000,,,-1311853870175828381,0.0,10.480369807528314,,,0,31,0.0,16,1661018076247,1000000000,24.58354949951172,-829.1226246970605,2.99792458E8,2,-14.912911066805464,3.4028234663852886E38,1.57542003E9,,,,0,,1,,1.57542003E9
Raw,1933660534,1661824000000,,,-1311853870175828381,0.0,10.480369807528314,,,0,32,0.0,16431,44331927067581,17,34.78506851196289,-397.59854190204055,0.08628225992390232,4,-701188.3716864918,3.4028234663852886E38,1.57542003E9,,,,0,,1,,1.57542003E9
Raw,1933660534,1661824000000,,,-1311853870175828381,0.0,10.480369807528314,,,0,10,0.0,32995,55113930512223,33,36.21171951293945,-775.0538066797958,0.07402528992958873,4,-1399657.423070075,3.4028234663852886E38,1.59806246E9,,,,0,,3,,1.59806246E9
Raw,1933660535,1661824000000,,,-1311853870175828381,0.0,10.480369807528314,,,0,9,0.0,32995,55113933660629,33,40.19106674194336,-98.25964546973518,0.048079295982234704,4,-389753.2597633814,3.4028234663852886E38,1.59862502E9,,,,0,,3,,1.59862502E9
Raw,1933660536,1661824000000,,,-1311853870175828381,0.0,10.480369807528314,,,0,16,0.0,16,4808202,1000000000,20.865703582763672,539.3674168174748,2.99792458E8,4,524290.1462923341,3.4028234663852886E38,1.60143744E9,,,,0,,3,,1.60143744E9
Raw,1933660536,1661824000000,,,-1311853870175828381,0.0,10.480369807528314,,,0,23,0.0,32961,55113924507887,38,33.874732971191406,1.3481612567746266,0.09521513365138778,4,-8364.95472454206,3.4028234663852886E38,1.60368755E9,,,,0,,3,,1.60368755E9
Raw,1933660536,1661824000000,,,-1311853870175828381,0.0,10.480369807528314,,,0,7,0.0,32995,55113932832035,33,45.170692443847656,-171.29779595819934,0.032308171764687366,1,-345244.93803172803,5.18420129083097E-4,1.60481254E9,,,,0,,3,,1.60481254E9
Raw,1933660537,1661824000000,,,-1311853870175828381,0.0,10.480369807528314,,,0,8,0.0,32961,55113927497720,33,37.210052490234375,-560.5756343782718,0.06565084926415377,4,-589992.1604842647,3.4028234663852886E38,1.60537498E9,,,,0,,3,,1.60537498E9
Raw,1933660537,1661824000000,,,-1311853870175828381,0.0,10.480369807528314,,,0,193,0.0,35,9343517,13,37.024383544921875,-255.88229029947752,0.06737217973680043,4,-408983.24152541446,3.4028234663852886E38,1.57542003E9,,,,0,,4,,1.57542003E9
Raw,1933660537,1661824000000,,,-1311853870175828381,0.0,10.480369807528314,,,0,194,0.0,35,12382568,24,31.824478149414062,-103.90335944534735,0.1217649013115718,4,-66097.21158638955,3.4028234663852886E38,1.57542003E9,,,,0,,4,,1.57542003E9
Raw,1933660537,1661824000000,,,-1311853870175828381,0.0,10.480369807528314,,,0,6,0.0,16431,44317878585389,13,30.945236206054688,-78.96301916854713,0.13561464368447018,4,-108108.36533625334,3.4028234663852886E38,1.56109798E9,,,,0,,5,,1.56109798E9
Raw,1933660538,1661824000000,,,-1311853870175828381,0.0,10.480369807528314,,,0,14,0.0,16431,44317924415487,9,33.87889862060547,130.95355715196388,0.09515325934799335,4,147019.4287802861,3.4028234663852886E38,1.56109798E9,,,,0,,5,,1.56109798E9
Raw,1933660538,1661824000000,,,-1311853870175828381,0.0,10.480369807528314,,,0,16,0.0,16431,44317877943647,10,32.6710090637207,-77.29924145031549,0.11166471176909232,4,-106984.68086281823,3.4028234663852886E38,1.56109798E9,,,,0,,5,,1.56109798E9
Raw,1933660539,1661824000000,,,-1311853870175828381,0.0,10.480369807528314,,,0,24,0.0,16431,44317924167612,6,44.077884674072266,27.74454681243455,0.03074965658178236,1,-79658.87340106769,6.043889443390071E-4,1.56109798E9,,,,0,,5,,1.56109798E9
Raw,1933660539,1661824000000,,,-1311853870175828381,0.0,10.480369807528314,,,0,25,0.0,16431,44317922932898,8,34.56387710571289,-580.1935645177145,0.08773118869264585,4,-704728.7450514056,3.4028234663852886E38,1.56109798E9,,,,0,,5,,1.56109798E9
Raw,1933660539,1661824000000,,,-1311853870175828381,0.0,10.480369807528314,,,0,26,0.0,16431,44317915211229,11,31.960275650024414,430.42608237568106,0.12041935987737318,4,602820.7362940557,3.4028234663852886E38,1.56109798E9,,,,0,,5,,1.56109798E9
Raw,1933660540,1661824000000,,,-1311853870175828381,0.0,10.480369807528314,,,0,27,0.0,16431,44317913148941,24,25.66885757446289,123.76336875285745,0.24518573072560734,4,89301.17400325641,3.4028234663852886E38,1.56109798E9,,,,0,,5,,1.56109798E9
Raw,1933660540,1661824000000,,,-1311853870175828381,0.0,10.480369807528314,,,0,33,0.0,16431,44317926012029,6,40.78230285644531,-113.84919113985018,0.04370140194560604,1,-233920.7847244155,8.832740131765604E-4,1.56109798E9,,,,0,,5,,1.56109798E9
Fix,gps,34.486360,109.463943,359.036011,0.812582,3.000000,1627820314999
Raw,1933661526,1662824000000,,,-1311853870175828769,0.0,10.991015128588383,,,0,10,0.0,16431,44332931598205,9,39.68603515625,-342.0533400331208,0.05043959762647393,4,-676574.9167933072,3.4028234663852886E38,1.57542003E9,,,,0,,1,,1.57542003E9
Raw,1933661526,1662824000000,,,-1311853870175828769,0.0,10.991015128588383,,,0,12,0.0,16431,44332923692137,21,32.70283889770508,-472.133363824405,0.10870459716624792,4,-840708.2217327753,3.4028234663852886E38,1.57542003E9,,,,0,,1,,1.57542003E9
Raw,1933661527,1662824000000,,,-1311853870175828769,0.0,10.991015128588383,,,0,15,0.0,16431,44332916269183,8,41.013648986816406,414.1404962578431,0.044426219968747876,4,528861.1916763469,3.4028234663852886E38,1.57542003E9,,,,0,,1,,1.57542003E9
Raw,1933661527,1662824000000,,,-1311853870175828769,0.0,10.991015128588383,,,0,18,0.0,16431,44332921059619,23,32.210289001464844,565.2808197486154,0.11453477745970775,4,901618.666451447,3.4028234663852886E38,1.57542003E9,,,,0,,1,,1.57542003E9
Raw,1933661527,1662824000000,,,-1311853870175828769,0.0,10.991015128588383,,,0,23,0.0,16431,44332931317765,7,41.935691833496094,117.707044037966,0.03935596362715785,1,62895.449327261485,7.66407756600529E-4,1.57542003E9,,,,0,,1,,1.57542003E9
Raw,1933661528,1662824000000,,,-1311853870175828769,0.0,10.991015128588383,,,0,24,0.0,17,982013,20,33.391937255859375,462.1636999721786,0.10087622468727925,4,525123.0315509544,3.4028234663852886E38,1.57542003E9,,,,0,,1,,1.57542003E9
Raw,1933661528,1662824000000,,,-1311853870175828769,0.0,10.991015128588383,,,0,25,0.0,16431,44332922974653,6,43.34305191040039,-703.9822735769967,0.0322727850051714,1,-954727.6333777572,6.517662550322711E-4,1.57542003E9,,,,0,,1,,1.57542003E9
Raw,1933661528,1662824000000,,,-1311853870175828769,0.0,10.991015128588383,,,0,31,0.0,16,1662018078949,1000000000,24.047988891601562,-828.1943549112052,2.99792458E8,2,-14.88973801431988,3.4028234663852886E38,1.57542003E9,,,,0,,1,,1.57542003E9
Raw,1933661528,1662824000000,,,-1311853870175828769,0.0,10.991015128588383,,,0,32,0.0,16431,44332927068890,17,34.84397506713867,-397.3055691057705,0.0857079089567424,4,-701585.728465922,3.4028234663852886E38,1.57542003E9,,,,0,,1,,1.57542003E9
Raw,1933661529,1662824000000,,,-1311853870175828769,0.0,10.991015128588383,,,0,10,0.0,32995,55114930514807,33,37.380699157714844,-774.3065829029897,0.06494255657271464,4,-1400431.9945216523,3.4028234663852886E38,1.59806246E9,,,,0,,3,,1.59806246E9
Raw,1933661529,1662824000000,,,-1311853870175828769,0.0,10.991015128588383,,,0,9,0.0,32995,55114933660921,33,41.54569625854492,-97.6829617847551,0.04149130940906939,4,-389850.9640388428,3.4028234663852886E38,1.59862502E9,,,,0,,3,,1.59862502E9
Raw,1933661530,1662824000000,,,-1311853870175828769,0.0,10.991015128588383,,,0,16,0.0,17,806614,124,23.5993709564209,538.6905392309318,0.30901291893842364,4,524829.4038753327,3.4028234663852886E38,1.60143744E9,,,,0,,3,,1.60143744E9
Raw,1933661530,1662824000000,,,-1311853870175828769,0.0,10.991015128588383,,,0,23,0.0,32961,55114924507865,38,33.79369354248047,1.8384622900246672,0.09610006266779425,4,-8364.042966495132,3.4028234663852886E38,1.60368755E9,,,,0,,3,,1.60368755E9
Raw,1933661531,1662824000000,,,-1311853870175828769,0.0,10.991015128588383,,,0,7,0.0,32995,55114932832602,33,43.570655822753906,-170.78027089712873,0.03322515085480275,1,-345415.75501503213,6.232807063497603E-4,1.60481254E9,,,,0,,3,,1.60481254E9
Raw,1933661531,1662824000000,,,-1311853870175828769,0.0,10.991015128588383,,,0,8,0.0,32961,55114927499547,33,37.422298431396484,-560.3732527514394,0.0640989533669333,1,-590552.6748273985,0.001199694350361824,1.60537498E9,,,,0,,3,,1.60537498E9
Raw,1933661531,1662824000000,,,-1311853870175828769,0.0,10.991015128588383,,,0,193,0.0,35,9344358,14,36.21215057373047,-255.53234867712956,0.07381163386607892,4,-409238.8324714865,3.4028234663852886E38,1.57542003E9,,,,0,,4,,1.57542003E9
Raw,1933661532,1662824000000,,,-1311853870175828769,0.0,10.991015128588383,,,0,194,0.0,35,12382889,17,34.8234977722168,-103.76476313589734,0.08686307623987038,4,-66200.83319713404,3.4028234663852886E38,1.57542003E9,,,,0,,4,,1.57542003E9
Raw,1933661532,1662824000000,,,-1311853870175828769,0.0,10.991015128588383,,,0,6,0.0,16431,44318878585666,14,30.540119171142578,-78.84632083741303,0.1419300829377682,4,-108187.36189636667,3.4028234663852886E38,1.56109798E9,,,,0,,5,,1.56109798E9
Raw,1933661532,1662824000000,,,-1311853870175828769,0.0,10.991015128588383,,,0,14,0.0,16431,44318924415059,10,32.85961151123047,130.9075202738157,0.10690210451564142,4,147150.28850177058,3.4028234663852886E38,1.56109798E9,,,,0,,5,,1.56109798E9
Raw,1933661532,1662824000000,,,-1311853870175828769,0.0,10.991015128588383,,,0,16,0.0,16431,44318877943908,11,32.55569076538086,-76.89312341900381,0.11311403162071099,4,-107061.96586298542,3.4028234663852886E38,1.56109798E9,,,,0,,5,,1.56109798E9
Raw,1933661533,1662824000000,,,-1311853870175828769,0.0,10.991015128588383,,,0,24,0.0,16431,44318924167530,6,44.00194549560547,28.14749943559667,0.030749639939957885,1,-79630.64783084676,6.096959696151316E-4,1.56109798E9,,,,0,,5,,1.56109798E9
Raw,1933661533,1662824000000,,,-1311853870175828769,0.0,10.991015128588383,,,0,25,0.0,16431,44318922934830,7,35.523712158203125,-580.0305822106225,0.07860843174791171,4,-705308.7464112758,3.4028234663852886E38,1.56109798E9,,,,0,,5,,1.56109798E9
Raw,1933661534,1662824000000,,,-1311853870175828769,0.0,10.991015128588383,,,0,26,0.0,16431,44318915209807,12,31.612966537475586,430.9220843654575,0.12522008522978184,4,603251.7610550281,3.4028234663852886E38,1.56109798E9,,,,0,,5,,1.56109798E9
Raw,1933661534,1662824000000,,,-1311853870175828769,0.0,10.991015128588383,,,0,27,0.0,16431,44318913148558,27,24.700271606445312,124.00935888281083,0.2738307373707205,4,89425.02941583708,3.4028234663852886E38,1.56109798E9,,,,0,,5,,1.56109798E9
Raw,1933661534,1662824000000,,,-1311853870175828769,0.0,10.991015128588383,,,0,33,0.0,16431,44318926012399,6,39.44806671142578,-113.24277903216807,0.05077790511575034,4,-234034.12171499393,3.4028234663852886E38,1.56109798E9,,,,0,,5,,1.56109798E9
Fix,gps,34.486360,109.463954,359.162201,0.996274,3.000000,1627820315999
Raw,1933662548,1663824000000,,,-1311853870175829157,0.0,11.30022508371254,,,0,10,0.0,16431,44333931599338,9,39.677772521972656,-341.671207530587,0.05048580365212607,4,-676916.7441569744,3.4028234663852886E38,1.57542003E9,,,,0,,1,,1.57542003E9
Raw,1933662549,1663824000000,,,-1311853870175829157,0.0,11.30022508371254,,,0,12,0.0,16431,44333923693732,22,32.4073371887207,-472.8140586460786,0.11244376549819501,4,-841180.4310274812,3.4028234663852886E38,1.57542003E9,,,,0,,1,,1.57542003E9
Raw,1933662549,1663824000000,,,-1311853870175829157,0.0,11.30022508371254,,,0,15,0.0,16431,44333916267824,8,40.98348617553711,414.5885783137485,0.044570334008236845,4,529275.6283845898,3.4028234663852886E38,1.57542003E9,,,,0,,1,,1.57542003E9
Raw,1933662550,1663824000000,,,-1311853870175829157,0.0,11.30022508371254,,,0,18,0.0,16431,44333921057718,24,31.604045867919922,564.911945321669,0.1228002973839602,4,902182.9204649101,3.4028234663852886E38,1.57542003E9,,,,0,,1,,1.57542003E9
Raw,1933662551,1663824000000,,,-1311853870175829157,0.0,11.30022508371254,,,0,23,0.0,16431,44333931317385,7,42.40748596191406,117.85719430017724,0.03738284235021913,1,63013.12917675659,7.258890545926988E-4,1.57542003E9,,,,0,,1,,1.57542003E9
Raw,1933662551,1663824000000,,,-1311853870175829157,0.0,11.30022508371254,,,0,24,0.0,51,5980474,22,32.271217346191406,462.1502374018521,0.11462059934852031,4,525585.5204014048,3.4028234663852886E38,1.57542003E9,,,,0,,1,,1.57542003E9
Raw,1933662551,1663824000000,,,-1311853870175829157,0.0,11.30022508371254,,,0,25,0.0,16431,44333922977027,6,42.80388259887695,-703.9594383311264,0.03430573780155037,1,-955431.7477089699,6.935060955584049E-4,1.57542003E9,,,,0,,1,,1.57542003E9
Raw,1933662551,1663824000000,,,-1311853870175829157,0.0,11.30022508371254,,,0,31,0.0,16,1663018081773,1000000000,17.04749870300293,-828.1943549112052,2.99792458E8,2,-14.88326142138182,3.4028234663852886E38,1.57542003E9,,,,0,,1,,1.57542003E9
Raw,1933662552,1663824000000,,,-1311853870175829157,0.0,11.30022508371254,,,0,32,0.0,16431,44333927070225,15,35.55000305175781,-397.4091797735998,0.07911629862629788,4,-701983.0434866922,3.4028234663852886E38,1.57542003E9,,,,0,,1,,1.57542003E9
Raw,1933662552,1663824000000,,,-1311853870175829157,0.0,11.30022508371254,,,0,10,0.0,32995,55115930517392,33,35.61119079589844,-774.4069898199059,0.07918992205777098,4,-1401206.5558998014,3.4028234663852886E38,1.59806246E9,,,,0,,3,,1.59806246E9
Raw,1933662552,1663824000000,,,-1311853870175829157,0.0,11.30022508371254,,,0,9,0.0,32995,55115933661266,33,42.115047454833984,-97.31890150479256,0.03901478958361579,4,-389948.555892376,3.4028234663852886E38,1.59862502E9,,,,0,,3,,1.59862502E9
Raw,1933662553,1663824000000,,,-1311853870175829157,0.0,11.30022508371254,,,0,16,0.0,17,804790,95,25.958555221557617,538.9848071605497,0.23571972783018413,4,525368.2261551031,3.4028234663852886E38,1.60143744E9,,,,0,,3,,1.60143744E9
Raw,1933662553,1663824000000,,,-1311853870175829157,0.0,11.30022508371254,,,0,23,0.0,32961,55115924507877,33,35.5552864074707,1.414042645233219,0.07860807394868552,4,-8362.489459514192,3.4028234663852886E38,1.60368755E9,,,,0,,3,,1.60368755E9
