# 
# Header Description:
# 
# Version: v2.0.0.1 Platform: 10 Manufacturer: HUAWEI Model: BLA-AL00
# 
# Raw,ElapsedRealtimeMillis,TimeNanos,LeapSecond,TimeUncertaintyNanos,FullBiasNanos,BiasNanos,BiasUncertaintyNanos,DriftNanosPerSecond,DriftUncertaintyNanosPerSecond,HardwareClockDiscontinuityCount,Svid,TimeOffsetNanos,State,ReceivedSvTimeNanos,ReceivedSvTimeUncertaintyNanos,Cn0DbHz,PseudorangeRateMetersPerSecond,PseudorangeRateUncertaintyMetersPerSecond,AccumulatedDeltaRangeState,AccumulatedDeltaRangeMeters,AccumulatedDeltaRangeUncertaintyMeters,CarrierFrequencyHz,CarrierCycles,CarrierPhase,CarrierPhaseUncertainty,MultipathIndicator,SnrInDb,ConstellationType,AgcDb,CarrierFrequencyHz
# 
# Fix,Provider,Latitude,Longitude,Altitude,Speed,Accuracy,(UTC)TimeInMs
# 
# Nav,Svid,Type,Status,MessageId,Sub-messageId,Data(Bytes)
# 
Raw,1933424501,1425824000000,,,-1311853870175736961,0.0,10.252976542338399,,,0,10,0.0,16431,44095931319736,17,34.65879440307617,-362.5601747211349,0.0882920181774206,4,-593096.1108828713,3.4028234663852886E38,1.57542003E9,,,,0,,1,,1.57542003E9
Raw,1933424501,1425824000000,,,-1311853870175736961,0.0,10.252976542338399,,,0,12,0.0,16431,44095923310998,9,39.61199188232422,-492.39950820445506,0.04936287990391652,4,-726419.1404987561,3.4028234663852886E38,1.57542003E9,,,,0,,1,,1.57542003E9
Raw,1933424501,1425824000000,,,-1311853870175736961,0.0,10.252976542338399,,,0,15,0.0,16431,44095916597711,12,37.36331558227539,415.00271424295715,0.06616303885644706,4,690716.9244702241,3.4028234663852886E38,1.57542003E9,,,,0,,1,,1.57542003E9
Raw,1933424501,1425824000000,,,-1311853870175736961,0.0,10.252976542338399,,,0,18,0.0,16431,44095921504536,6,42.73085021972656,560.2993960681545,0.034326011704215856,1,768250.5006796124,6.993618444539607E-4,1.57542003E9,,,,0,,1,,1.57542003E9
Raw,1933424501,1425824000000,,,-1311853870175736961,0.0,10.252976542338399,,,0,23,0.0,16431,44095931401900,7,41.448455810546875,94.24591645671228,0.04152442247931659,1,37677.76659274535,8.106283494271338E-4,1.57542003E9,,,,0,,1,,1.57542003E9
Raw,1933424501,1425824000000,,,-1311853870175736961,0.0,10.252976542338399,,,0,24,0.0,16,1425006343062,1000000000,27.34126853942871,449.09263482374604,2.99792458E8,2,524290.6831692731,3.4028234663852886E38,1.57542003E9,,,,0,,1,,1.57542003E9
Raw,1933424502,1425824000000,,,-1311853870175736961,0.0,10.252976542338399,,,0,25,0.0,16431,44095922415122,15,35.55356979370117,-712.6141328457898,0.078247012924897,1,-786979.7009805029,0.0014292591949924827,1.57542003E9,,,,0,,1,,1.57542003E9
Raw,1933424502,1425824000000,,,-1311853870175736961,0.0,10.252976542338399,,,0,31,0.0,16,17421066,1000000000,21.91932487487793,-835.9078964714477,2.99792458E8,4,-683.1325709326908,3.4028234663852886E38,1.57542003E9,,,,0,,1,,1.57542003E9
Raw,1933424502,1425824000000,,,-1311853870175736961,0.0,10.252976542338399,,,0,32,0.0,16431,44095926751464,12,37.82054901123047,-405.545923196486,0.0611522354327905,1,-606403.8598301322,0.0011677187867462635,1.57542003E9,,,,0,,1,,1.57542003E9
Raw,1933424502,1425824000000,,,-1311853870175736961,0.0,10.252976542338399,,,0,10,0.0,32995,54877929893282,33,37.60039138793945,-798.6700861237555,0.06325601583413093,1,-1214098.4875489196,0.001180725172162056,1.59806246E9,,,,0,,3,,1.59806246E9
Raw,1933424502,1425824000000,,,-1311853870175736961,0.0,10.252976542338399,,,0,9,0.0,32995,54877933568415,33,43.80702209472656,-137.410393334069,0.032527529733307595,1,-362108.08858944784,6.080403691157699E-4,1.59862502E9,,,,0,,3,,1.59862502E9
Raw,1933424502,1425824000000,,,-1311853870175736961,0.0,10.252976542338399,,,0,16,0.0,17,224203,89,17.14798355102539,516.2329610613781,4.200939686395628,4,525322.9964289842,3.4028234663852886E38,1.60143744E9,,,,0,,3,,1.60143744E9
Raw,1933424502,1425824000000,,,-1311853870175736961,0.0,10.252976542338399,,,0,23,0.0,32961,54877924494012,43,32.80203628540039,-35.52818107466969,0.1076219882378267,1,-4207.381831877604,0.0019273662474006414,1.60368755E9,,,,0,,3,,1.60368755E9
Raw,1933424503,1425824000000,,,-1311853870175736961,0.0,10.252976542338399,,,0,7,0.0,32995,54877932693111,81,27.31683921813965,-182.44509388943015,0.20313994484825615,4,-303595.33887078066,3.4028234663852886E38,1.60481254E9,,,,0,,3,,1.60481254E9
Raw,1933424503,1425824000000,,,-1311853870175736961,0.0,10.252976542338399,,,0,8,0.0,99,1927055463,99,25.54118537902832,-563.2663420733782,0.24768523291065958,4,-531047.9665362829,3.4028234663852886E38,1.60537498E9,,,,0,,3,,1.60537498E9
Raw,1933424503,1425824000000,,,-1311853870175736961,0.0,10.252976542338399,,,0,193,0.0,35,9143615,13,36.73484802246094,-253.29926612575503,0.0695628762269126,1,-349054.6035764143,0.001323193428106606,1.57542003E9,,,,0,,4,,1.57542003E9
Raw,1933424503,1425824000000,,,-1311853870175736961,0.0,10.252976542338399,,,0,194,0.0,35,12300175,17,34.78622817993164,-106.86894215231013,0.08721211354547642,1,-41404.08676456588,0.0016559769865125418,1.57542003E9,,,,0,,4,,1.57542003E9
Raw,1933424503,1425824000000,,,-1311853870175736961,0.0,10.252976542338399,,,0,6,0.0,16431,44081878523711,166,28.801326751708984,-78.33235739304905,0.17263394953951028,4,-89619.99035213546,3.4028234663852886E38,1.56109798E9,,,,1,,5,,1.56109798E9
Raw,1933424503,1425824000000,,,-1311853870175736961,0.0,10.252976542338399,,,0,14,0.0,16431,44081924514595,6,37.13156509399414,119.64215219257574,0.06569794146695915,4,117312.58248351452,3.4028234663852886E38,1.56109798E9,,,,0,,5,,1.56109798E9
Raw,1933424503,1425824000000,,,-1311853870175736961,0.0,10.252976542338399,,,0,16,0.0,16431,44081877883038,166,28.792617797851562,-77.32948963047949,0.17268851808196062,4,-88824.62277933204,3.4028234663852886E38,1.56109798E9,,,,1,,5,,1.56109798E9
Raw,1933424504,1425824000000,,,-1311853870175736961,0.0,10.252976542338399,,,0,24,0.0,16431,44081924180817,6,41.387916564941406,3.9793845476155667,0.0405016159471428,4,-83598.7062857915,3.4028234663852886E38,1.56109798E9,,,,0,,5,,1.56109798E9
Raw,1933424504,1425824000000,,,-1311853870175736961,0.0,10.252976542338399,,,0,25,0.0,16431,44081922469588,6,43.092079162597656,-597.7092205739173,0.033112358809201964,1,-565836.5618729416,6.770280888304114E-4,1.56109798E9,,,,0,,5,,1.56109798E9
Raw,1933424504,1425824000000,,,-1311853870175736961,0.0,10.252976542338399,,,0,26,0.0,16431,44081915546780,167,15.188398361206055,420.22902037353447,4.202796381468547,4,502208.6142764776,3.4028234663852886E38,1.56109798E9,,,,1,,5,,1.56109798E9
Raw,1933424504,1425824000000,,,-1311853870175736961,0.0,10.252976542338399,,,0,27,0.0,16431,44081913238871,19,27.477832794189453,105.61120577986298,0.19954950450163345,4,62372.76565387975,3.4028234663852886E38,1.56109798E9,,,,0,,5,,1.56109798E9
Raw,1933424504,1425824000000,,,-1311853870175736961,0.0,10.252976542338399,,,0,33,0.0,16431,44081925918246,7,35.55058288574219,-125.81949518996555,0.07890392398327256,4,-205801.65300488283,3.4028234663852886E38,1.56109798E9,,,,0,,5,,1.56109798E9
Fix,gps,34.486446,109.463970,360.190002,0.413651,3.000000,1627820077999
Fix,gps,34.486445,109.463969,360.167358,0.388734,3.000000,1627820078999
Raw,1933425507,1426824000000,,,-1311853870175737349,0.0,10.647274964281943,,,0,10,0.0,16431,44096931320965,11,38.327423095703125,-362.599880782984,0.058576551135752275,4,-593458.707054924,3.4028234663852886E38,1.57542003E9,,,,0,,1,,1.57542003E9
Raw,1933425507,1426824000000,,,-1311853870175737349,0.0,10.647274964281943,,,0,12,0.0,16431,44096923312676,18,34.17262268066406,-493.16254624108774,0.09181735570670091,4,-726911.268619832,3.4028234663852886E38,1.57542003E9,,,,0,,1,,1.57542003E9
Raw,1933425507,1426824000000,,,-1311853870175737349,0.0,10.647274964281943,,,0,15,0.0,16431,44096916596322,18,33.97001647949219,414.9908194656307,0.09635963352502791,4,691131.8730432445,3.4028234663852886E38,1.57542003E9,,,,0,,1,,1.57542003E9
Raw,1933425508,1426824000000,,,-1311853870175737349,0.0,10.647274964281943,,,0,18,0.0,16431,44096921502661,10,38.8535270690918,560.4840889000516,0.053487489532506594,1,768810.9296460322,0.0010367867071181536,1.57542003E9,,,,0,,1,,1.57542003E9
Raw,1933425508,1426824000000,,,-1311853870175737349,0.0,10.647274964281943,,,0,23,0.0,16431,44096931401585,9,40.11549377441406,94.25136964975593,0.04807161578023994,1,37772.10054507671,9.450825746171176E-4,1.57542003E9,,,,0,,1,,1.57542003E9
Raw,1933425508,1426824000000,,,-1311853870175737349,0.0,10.647274964281943,,,0,24,0.0,16,1426006341595,1000000000,17.974510192871094,449.09263482374604,2.99792458E8,2,524290.6937051704,3.4028234663852886E38,1.57542003E9,,,,0,,1,,1.57542003E9
Raw,1933425508,1426824000000,,,-1311853870175737349,0.0,10.647274964281943,,,0,25,0.0,16431,44096922417481,7,42.39097213745117,-712.4965483707861,0.03584924413900786,1,-787692.2936420168,7.272704388014972E-4,1.57542003E9,,,,0,,1,,1.57542003E9
Raw,1933425508,1426824000000,,,-1311853870175737349,0.0,10.647274964281943,,,0,31,0.0,16,17423805,1000000000,19.10602569580078,-836.9173506687403,2.99792458E8,4,-14.209440864145904,3.4028234663852886E38,1.57542003E9,,,,0,,1,,1.57542003E9
Raw,1933425508,1426824000000,,,-1311853870175737349,0.0,10.647274964281943,,,0,32,0.0,16431,44096926752729,19,33.67930603027344,-405.9509931922596,0.09776702429988426,4,-606809.2299426269,3.4028234663852886E38,1.57542003E9,,,,0,,1,,1.57542003E9
Raw,1933425509,1426824000000,,,-1311853870175737349,0.0,10.647274964281943,,,0,10,0.0,32995,54878929895928,33,36.608177185058594,-798.2022021606103,0.0706959514880513,1,-1214896.728877481,0.0013236083323135972,1.59806246E9,,,,0,,3,,1.59806246E9
Raw,1933425509,1426824000000,,,-1311853870175737349,0.0,10.647274964281943,,,0,9,0.0,32995,54878933568890,33,41.950645446777344,-137.3969904080414,0.03969670082280746,1,-362245.5214652784,7.529238937422633E-4,1.59862502E9,,,,0,,3,,1.59862502E9
Raw,1933425509,1426824000000,,,-1311853870175737349,0.0,10.647274964281943,,,0,16,0.0,16,5222666,1000000000,20.37666893005371,515.9002140383459,2.99792458E8,6,524703.723713487,3.4028234663852886E38,1.60143744E9,,,,0,,3,,1.60143744E9
Raw,1933425509,1426824000000,,,-1311853870175737349,0.0,10.647274964281943,,,0,23,0.0,32961,54878924494042,65,29.14463996887207,-35.95574762190188,0.16354914427548917,4,-4243.167999113603,3.4028234663852886E38,1.60368755E9,,,,0,,3,,1.60368755E9
Raw,1933425509,1426824000000,,,-1311853870175737349,0.0,10.647274964281943,,,0,7,0.0,32995,54878932693726,46,32.084102630615234,-183.07873787987398,0.11830073912905803,4,-303778.067968345,3.4028234663852886E38,1.60481254E9,,,,0,,3,,1.60481254E9
Raw,1933425510,1426824000000,,,-1311853870175737349,0.0,10.647274964281943,,,0,8,0.0,99,927057364,125,23.549938201904297,-562.892525690236,0.31117648925464314,4,-531611.1805862148,3.4028234663852886E38,1.60537498E9,,,,0,,3,,1.60537498E9
Raw,1933425510,1426824000000,,,-1311853870175737349,0.0,10.647274964281943,,,0,193,0.0,35,9144455,14,36.02104187011719,-253.58290032893785,0.07538030056191308,1,-349308.05011867825,0.0013543701497837901,1.57542003E9,,,,0,,4,,1.57542003E9
Raw,1933425510,1426824000000,,,-1311853870175737349,0.0,10.647274964281943,,,0,194,0.0,35,12300574,18,34.19218444824219,-107.13905414086753,0.09322888197493906,1,-41510.99409205972,0.0016717842081561685,1.57542003E9,,,,0,,4,,1.57542003E9
Raw,1933425510,1426824000000,,,-1311853870175737349,0.0,10.647274964281943,,,0,6,0.0,16431,44082878523976,13,30.6886043548584,-78.42251401116602,0.13956997267451043,4,-89698.19254112121,3.4028234663852886E38,1.56109798E9,,,,0,,5,,1.56109798E9
Raw,1933425510,1426824000000,,,-1311853870175737349,0.0,10.647274964281943,,,0,14,0.0,16431,44082924514211,10,33.2036018371582,119.39635803674736,0.10279980325275878,4,117432.0996718584,3.4028234663852886E38,1.56109798E9,,,,0,,5,,1.56109798E9
Raw,1933425511,1426824000000,,,-1311853870175737349,0.0,10.647274964281943,,,0,16,0.0,16431,44082877883338,15,29.841604232788086,-77.16726565804504,0.15340926398163912,4,-88901.63139952057,3.4028234663852886E38,1.56109798E9,,,,0,,5,,1.56109798E9
Raw,1933425511,1426824000000,,,-1311853870175737349,0.0,10.647274964281943,,,0,24,0.0,16431,44082924180774,6,37.56912612915039,3.862494502663523,0.06245015628625669,4,-83594.54887849255,3.4028234663852886E38,1.56109798E9,,,,0,,5,,1.56109798E9
Raw,1933425511,1426824000000,,,-1311853870175737349,0.0,10.647274964281943,,,0,25,0.0,16431,44082922471586,6,41.132877349853516,-597.2812812498169,0.041378606813275154,1,-566433.8737660126,8.483336423523724E-4,1.56109798E9,,,,0,,5,,1.56109798E9
Raw,1933425511,1426824000000,,,-1311853870175737349,0.0,10.647274964281943,,,0,26,0.0,16431,44082915545345,167,15.672226905822754,420.18928022922887,4.202796381468547,4,502628.55215215264,3.4028234663852886E38,1.56109798E9,,,,1,,5,,1.56109798E9
Raw,1933425511,1426824000000,,,-1311853870175737349,0.0,10.647274964281943,,,0,27,0.0,16431,44082913238532,23,26.091991424560547,105.7012090269256,0.23365637458094723,4,62478.376189082046,3.4028234663852886E38,1.56109798E9,,,,0,,5,,1.56109798E9
Raw,1933425511,1426824000000,,,-1311853870175737349,0.0,10.647274964281943,,,0,33,0.0,16431,44082925918665,6,37.16926574707031,-125.79246780194296,0.06566948810756468,4,-205927.24828554882,3.4028234663852886E38,1.56109798E9,,,,0,,5,,1.56109798E9
Fix,gps,34.486445,109.463968,360.191956,0.369669,3.000000,1627820079999
Raw,1933426507,1427824000000,,,-1311853870175737738,0.0,10.975841209539164,,,0,10,0.0,16431,44097931322158,6,43.5157356262207,-362.6091512111582,0.033149557447357536,4,-593821.4018157556,3.4028234663852886E38,1.57542003E9,,,,0,,1,,1.57542003E9
Raw,1933426508,1427824000000,,,-1311853870175737738,0.0,10.975841209539164,,,0,12,0.0,16431,44097923314296,21,33.007606506347656,-492.25622555723317,0.10491145107661931,4,-727404.0656288988,3.4028234663852886E38,1.57542003E9,,,,0,,1,,1.57542003E9
Raw,1933426509,1427824000000,,,-1311853870175737738,0.0,10.975841209539164,,,0,15,0.0,16431,44097916594917,18,34.108707427978516,414.91392944371523,0.09488026685932138,4,691546.7571385324,3.4028234663852886E38,1.57542003E9,,,,0,,1,,1.57542003E9
Raw,1933426509,1427824000000,,,-1311853870175737738,0.0,10.975841209539164,,,0,18,0.0,16431,44097921500761,16,34.895538330078125,561.2555112209889,0.08420654179908121,4,769371.6298341007,3.4028234663852886E38,1.57542003E9,,,,0,,1,,1.57542003E9
Raw,1933426509,1427824000000,,,-1311853870175737738,0.0,10.975841209539164,,,0,23,0.0,16431,44097931401261,11,38.257057189941406,94.37453512701524,0.05905090137964775,1,37866.5378912561,0.0011104854056611657,1.57542003E9,,,,0,,1,,1.57542003E9
Raw,1933426509,1427824000000,,,-1311853870175737738,0.0,10.975841209539164,,,0,24,0.0,16,1427006340036,1000000000,26.20732307434082,449.09263482374604,2.99792458E8,2,524290.6901932046,3.4028234663852886E38,1.57542003E9,,,,0,,1,,1.57542003E9
Raw,1933426510,1427824000000,,,-1311853870175737738,0.0,10.975841209539164,,,0,25,0.0,16431,44097922419880,8,41.00455856323242,-712.2906903333883,0.04197851962282717,1,-788404.5679145037,8.531326893717051E-4,1.57542003E9,,,,0,,1,,1.57542003E9
Raw,1933426510,1427824000000,,,-1311853870175737738,0.0,10.975841209539164,,,0,31,0.0,17,426522,87,17.677339553833008,-836.6566198763408,4.203134543341859,4,-851.2070802634703,3.4028234663852886E38,1.57542003E9,,,,0,,1,,1.57542003E9
Raw,1933426512,1427824000000,,,-1311853870175737738,0.0,10.975841209539164,,,0,32,0.0,16431,44097926754124,13,36.59465026855469,-405.48978939059293,0.07023820978498091,4,-607214.5171244651,3.4028234663852886E38,1.57542003E9,,,,0,,1,,1.57542003E9
Raw,1933426512,1427824000000,,,-1311853870175737738,0.0,10.975841209539164,,,0,10,0.0,32995,54879929898568,33,36.43648147583008,-797.993958351256,0.0720722636557024,1,-1215694.7435585307,0.0013500326313078403,1.59806246E9,,,,0,,3,,1.59806246E9
Raw,1933426512,1427824000000,,,-1311853870175737738,0.0,10.975841209539164,,,0,9,0.0,32995,54879933569311,33,42.64982223510742,-137.11730976981522,0.036815368617023114,1,-362382.7399620155,6.94691960234195E-4,1.59862502E9,,,,0,,3,,1.59862502E9
Raw,1933426513,1427824000000,,,-1311853870175737738,0.0,10.975841209539164,,,0,16,0.0,16,5220610,1000000000,20.212474822998047,516.4428408286456,2.99792458E8,4,524290.5886800265,3.4028234663852886E38,1.60143744E9,,,,0,,3,,1.60143744E9
Raw,1933426513,1427824000000,,,-1311853870175737738,0.0,10.975841209539164,,,0,23,0.0,32961,54879924494279,61,29.722959518432617,-34.846623540815386,0.15306650896477203,4,-4277.153802138287,3.4028234663852886E38,1.60368755E9,,,,0,,3,,1.60368755E9
Raw,1933426514,1427824000000,,,-1311853870175737738,0.0,10.975841209539164,,,0,7,0.0,32995,54879932694347,33,39.81899642944336,-182.78571395991912,0.04990221231192696,4,-303960.8787743428,3.4028234663852886E38,1.60481254E9,,,,0,,3,,1.60481254E9
Raw,1933426515,1427824000000,,,-1311853870175737738,0.0,10.975841209539164,,,0,8,0.0,99,1927059152,53,30.91021156311035,-562.7883015381892,0.13407581577991795,4,-532175.0878105833,3.4028234663852886E38,1.60537498E9,,,,0,,3,,1.60537498E9
Raw,1933426515,1427824000000,,,-1311853870175737738,0.0,10.975841209539164,,,0,193,0.0,35,9145302,10,39.3021125793457,-253.44844503795537,0.052183560980405275,1,-349561.496981787,9.846006287261844E-4,1.57542003E9,,,,0,,4,,1.57542003E9
Raw,1933426515,1427824000000,,,-1311853870175737738,0.0,10.975841209539164,,,0,194,0.0,35,12300917,9,40.014007568359375,-106.7178801843869,0.048774233609533424,1,-41617.73214527722,9.561895858496428E-4,1.57542003E9,,,,0,,4,,1.57542003E9
Raw,1933426516,1427824000000,,,-1311853870175737738,0.0,10.975841209539164,,,0,6,0.0,16431,44083878524219,9,34.08681106567383,-78.42669763270419,0.09545924425368507,4,-89776.46014670354,3.4028234663852886E38,1.56109798E9,,,,0,,5,,1.56109798E9
Raw,1933426516,1427824000000,,,-1311853870175737738,0.0,10.975841209539164,,,0,14,0.0,16431,44083924513795,6,38.344539642333984,119.63685237058644,0.05724080757571273,4,117551.67382777394,3.4028234663852886E38,1.56109798E9,,,,0,,5,,1.56109798E9
Raw,1933426516,1427824000000,,,-1311853870175737738,0.0,10.975841209539164,,,0,16,0.0,16431,44083877883598,10,33.205162048339844,-77.04784925100324,0.1051863157705446,4,-88978.68802345177,3.4028234663852886E38,1.56109798E9,,,,0,,5,,1.56109798E9
Raw,1933426517,1427824000000,,,-1311853870175737738,0.0,10.975841209539164,,,0,24,0.0,16431,44083924180777,6,39.43452835083008,4.156161995254445,0.050525952053669665,4,-83590.33538606859,3.4028234663852886E38,1.56109798E9,,,,0,,5,,1.56109798E9
Raw,1933426517,1427824000000,,,-1311853870175737738,0.0,10.975841209539164,,,0,25,0.0,16431,44083922473562,6,36.819671630859375,-595.6432783893306,0.0677030608119053,4,-567030.621647381,3.4028234663852886E38,1.56109798E9,,,,0,,5,,1.56109798E9
Raw,1933426517,1427824000000,,,-1311853870175737738,0.0,10.975841209539164,,,0,26,0.0,16431,44083915543942,167,17.2000732421875,420.08631712807346,4.202796115199355,4,503048.6314960802,3.4028234663852886E38,1.56109798E9,,,,1,,5,,1.56109798E9
Raw,1933426518,1427824000000,,,-1311853870175737738,0.0,10.975841209539164,,,0,27,0.0,16431,44083913238163,26,24.953855514526367,106.02725032663693,0.26603597305627713,4,62584.67788266108,3.4028234663852886E38,1.56109798E9,,,,0,,5,,1.56109798E9
Raw,1933426518,1427824000000,,,-1311853870175737738,0.0,10.975841209539164,,,0,33,0.0,16431,44083925919085,6,39.777099609375,-125.61957602061688,0.04891375866592368,4,-206052.9211483624,3.4028234663852886E38,1.56109798E9,,,,0,,5,,1.56109798E9
Fix,gps,34.486444,109.463967,360.026489,0.354086,3.000000,1627820080999
Raw,1933427481,1428824000000,,,-1311853870175738127,0.0,11.324399172671612,,,0,10,0.0,16431,44098931323358,6,45.94514083862305,-362.6021302251145,0.03203679353298938,4,-594183.9768827233,3.4028234663852886E38,1.57542003E9,,,,0,,1,,1.57542003E9
Raw,1933427482,1428824000000,,,-1311853870175738127,0.0,11.324399172671612,,,0,12,0.0,16431,44098923315932,14,36.284339904785156,-492.5338953305245,0.07213025209308216,4,-727896.6462826687,3.4028234663852886E38,1.57542003E9,,,,0,,1,,1.57542003E9
Raw,1933427482,1428824000000,,,-1311853870175738127,0.0,11.324399172671612,,,0,15,0.0,16431,44098916593584,24,31.604341506958008,415.04228397498014,0.12559065705625727,4,691961.815574961,3.4028234663852886E38,1.57542003E9,,,,0,,1,,1.57542003E9
Raw,1933427482,1428824000000,,,-1311853870175738127,0.0,11.324399172671612,,,0,18,0.0,16431,44098921498858,27,30.693572998046875,561.6421085253271,0.13642966039626125,4,769933.0484677395,3.4028234663852886E38,1.57542003E9,,,,0,,1,,1.57542003E9
Raw,1933427482,1428824000000,,,-1311853870175738127,0.0,11.324399172671612,,,0,23,0.0,16431,44098931400954,11,38.313621520996094,94.67050717945932,0.05868085377064325,1,37961.16888075104,0.0011032770853489637,1.57542003E9,,,,0,,1,,1.57542003E9
Raw,1933427482,1428824000000,,,-1311853870175738127,0.0,11.324399172671612,,,0,24,0.0,16,1428006338598,1000000000,26.83786392211914,449.2782819644258,2.99792458E8,2,524290.6877918144,3.4028234663852886E38,1.57542003E9,,,,0,,1,,1.57542003E9
Raw,1933427482,1428824000000,,,-1311853870175738127,0.0,11.324399172671612,,,0,25,0.0,16431,44098922422246,9,40.35764694213867,-712.155791970471,0.04519115727024048,1,-789116.7735766468,9.190986747853458E-4,1.57542003E9,,,,0,,1,,1.57542003E9
Raw,1933427483,1428824000000,,,-1311853870175738127,0.0,11.324399172671612,,,0,31,0.0,17,429329,114,12.345558166503906,-836.4607139162476,4.203135075880242,4,-1688.413731077847,3.4028234663852886E38,1.57542003E9,,,,0,,1,,1.57542003E9
Raw,1933427483,1428824000000,,,-1311853870175738127,0.0,11.324399172671612,,,0,32,0.0,16431,44098926755487,16,35.14789581298828,-405.50372911531076,0.08274816879494867,4,-607619.9693035414,3.4028234663852886E38,1.57542003E9,,,,0,,1,,1.57542003E9
Raw,1933427483,1428824000000,,,-1311853870175738127,0.0,11.324399172671612,,,0,10,0.0,32995,54880929901252,33,38.15400695800781,-797.783260605032,0.05946137198029966,1,-1216492.6402084266,0.0011078170500695705,1.59806246E9,,,,0,,3,,1.59806246E9
Raw,1933427483,1428824000000,,,-1311853870175738127,0.0,11.324399172671612,,,0,9,0.0,32995,54880933569770,33,39.298500061035156,-136.89219514448206,0.0530004332556252,1,-362519.69343651354,0.0010217822855338454,1.59862502E9,,,,0,,3,,1.59862502E9
Raw,1933427483,1428824000000,,,-1311853870175738127,0.0,11.324399172671612,,,0,16,0.0,17,218965,79,19.132755279541016,516.5858508162153,4.200938887588054,4,524807.1591871224,3.4028234663852886E38,1.60143744E9,,,,0,,3,,1.60143744E9
Raw,1933427483,1428824000000,,,-1311853870175738127,0.0,11.324399172671612,,,0,23,0.0,32961,54880924494463,44,32.523284912109375,-35.42093423476007,0.11110553814585272,4,-4312.682445990416,3.4028234663852886E38,1.60368755E9,,,,0,,3,,1.60368755E9
Raw,1933427484,1428824000000,,,-1311853870175738127,0.0,11.324399172671612,,,0,7,0.0,32995,54880932694945,33,41.600746154785156,-182.62121498351178,0.04107094940422379,4,-304143.53525596834,3.4028234663852886E38,1.60481254E9,,,,0,,3,,1.60481254E9
Raw,1933427484,1428824000000,,,-1311853870175738127,0.0,11.324399172671612,,,0,8,0.0,99,927061003,33,37.1729736328125,-563.0034640862177,0.06584737672982369,4,-532738.0513650312,3.4028234663852886E38,1.60537498E9,,,,0,,3,,1.60537498E9
Raw,1933427484,1428824000000,,,-1311853870175738127,0.0,11.324399172671612,,,0,193,0.0,35,9146166,8,40.8690185546875,-253.3247086795493,0.043841763253676114,1,-349814.82065025135,8.220814634114504E-4,1.57542003E9,,,,0,,4,,1.57542003E9
Raw,1933427484,1428824000000,,,-1311853870175738127,0.0,11.324399172671612,,,0,194,0.0,35,12301260,6,43.61692810058594,-106.62117973461756,0.03296530748769333,1,-41724.37603673122,6.31535891443491E-4,1.57542003E9,,,,0,,4,,1.57542003E9
Raw,1933427484,1428824000000,,,-1311853870175738127,0.0,11.324399172671612,,,0,6,0.0,16431,44084878524491,6,37.865482330322266,-78.29768701415122,0.06296066505427811,4,-89854.75492781971,3.4028234663852886E38,1.56109798E9,,,,0,,5,,1.56109798E9
Raw,1933427484,1428824000000,,,-1311853870175738127,0.0,11.324399172671612,,,0,14,0.0,16431,44084924513393,6,41.093570709228516,119.79206387759132,0.04193154391279311,4,117671.44437171877,3.4028234663852886E38,1.56109798E9,,,,0,,5,,1.56109798E9
Raw,1933427485,1428824000000,,,-1311853870175738127,0.0,11.324399172671612,,,0,16,0.0,16431,44084877883858,6,38.25497055053711,-77.18343778366511,0.060230644477067746,4,-89055.78615465827,3.4028234663852886E38,1.56109798E9,,,,0,,5,,1.56109798E9
Raw,1933427485,1428824000000,,,-1311853870175738127,0.0,11.324399172671612,,,0,24,0.0,16431,44084924180760,6,41.10601043701172,4.516886188515613,0.04181287522292493,1,-83585.86518730708,8.072934579104185E-4,1.56109798E9,,,,0,,5,,1.56109798E9
Raw,1933427485,1428824000000,,,-1311853870175738127,0.0,11.324399172671612,,,0,25,0.0,16431,44084922475537,10,33.14323425292969,-597.190417420727,0.10314438054940578,4,-567626.5507846861,3.4028234663852886E38,1.56109798E9,,,,0,,5,,1.56109798E9
Raw,1933427488,1428824000000,,,-1311853870175738127,0.0,11.324399172671612,,,0,26,0.0,16431,44084915542628,167,21.873634338378906,420.9885479171453,4.202795848930164,4,503468.31306477933,3.4028234663852886E38,1.56109798E9,,,,1,,5,,1.56109798E9
Raw,1933427488,1428824000000,,,-1311853870175738127,0.0,11.324399172671612,,,0,27,0.0,16431,44084913237795,22,26.52436637878418,105.83676347713094,0.22242545627457988,4,62690.54971194578,3.4028234663852886E38,1.56109798E9,,,,0,,5,,1.56109798E9
Raw,1933427488,1428824000000,,,-1311853870175738127,0.0,11.324399172671612,,,0,33,0.0,16431,44084925919503,6,44.463653564453125,-125.53627849687513,0.031064777849110325,4,-206178.43886340276,3.4028234663852886E38,1.56109798E9,,,,0,,5,,1.56109798E9
Fix,gps,34.486444,109.463966,360.012421,0.342689,3.000000,1627820081999
Raw,1933428533,1429824000000,,,-1311853870175738518,0.0,11.403468969712982,,,0,10,0.0,16431,44099931324588,6,45.9872932434082,-362.43877301100065,0.032037014037163664,4,-594546.4497189176,3.4028234663852886E38,1.57542003E9,,,,0,,1,,1.57542003E9
Raw,1933428533,1429824000000,,,-1311853870175738518,0.0,11.403468969712982,,,0,12,0.0,16431,44099923317575,13,36.89975357055664,-492.5070383547845,0.06723762226501567,4,-728389.1648294844,3.4028234663852886E38,1.57542003E9,,,,0,,1,,1.57542003E9
Raw,1933428533,1429824000000,,,-1311853870175738518,0.0,11.403468969712982,,,0,15,0.0,16431,44099916592194,35,28.532155990600586,415.1411571813528,0.17761523036654991,4,692376.9209529185,3.4028234663852886E38,1.57542003E9,,,,0,,1,,1.57542003E9
Raw,1933428533,1429824000000,,,-1311853870175738518,0.0,11.403468969712982,,,0,18,0.0,16431,44099921497073,28,30.286691665649414,560.5420631585969,0.1429593631396624,4,770495.1322526236,3.4028234663852886E38,1.57542003E9,,,,0,,1,,1.57542003E9
Raw,1933428534,1429824000000,,,-1311853870175738518,0.0,11.403468969712982,,,0,23,0.0,16431,44099931400658,10,38.73850631713867,94.80743344853971,0.05597729369434659,1,38055.91227380726,0.0010506073012948036,1.57542003E9,,,,0,,1,,1.57542003E9
Raw,1933428534,1429824000000,,,-1311853870175738518,0.0,11.403468969712982,,,0,24,0.0,16,6336907,1000000000,20.980064392089844,449.35145699858026,2.99792458E8,4,524649.3087402119,3.4028234663852886E38,1.57542003E9,,,,0,,1,,1.57542003E9
Raw,1933428534,1429824000000,,,-1311853870175738518,0.0,11.403468969712982,,,0,25,0.0,16431,44099922424624,9,39.562225341796875,-712.1051454400781,0.04948365378458067,1,-789828.9321228401,0.0010072404984384775,1.57542003E9,,,,0,,1,,1.57542003E9
Raw,1933428534,1429824000000,,,-1311853870175738518,0.0,11.403468969712982,,,0,31,0.0,16,1429017432262,1000000000,7.0,-835.6204450331343,2.99792458E8,2,-14.193345733380056,3.4028234663852886E38,1.57542003E9,,,,0,,1,,1.57542003E9
Raw,1933428534,1429824000000,,,-1311853870175738518,0.0,11.403468969712982,,,0,32,0.0,16431,44099926756833,20,33.46333312988281,-405.42557804250396,0.10019866112473141,4,-608025.3668406426,3.4028234663852886E38,1.57542003E9,,,,0,,1,,1.57542003E9
Raw,1933428535,1429824000000,,,-1311853870175738518,0.0,11.403468969712982,,,0,10,0.0,32995,54881929903886,33,36.831947326660156,-797.6864664285072,0.06894463244770244,1,-1217290.4260827007,0.0012899443972855806,1.59806246E9,,,,0,,3,,1.59806246E9
Raw,1933428535,1429824000000,,,-1311853870175738518,0.0,11.403468969712982,,,0,9,0.0,32995,54881933570243,33,39.90021514892578,-136.67597604030135,0.049616592838935325,1,-362656.4537682946,9.044695761986077E-4,1.59862502E9,,,,0,,3,,1.59862502E9
Raw,1933428535,1429824000000,,,-1311853870175738518,0.0,11.403468969712982,,,0,16,0.0,17,217365,81,18.79273223876953,516.9303222042913,4.200938621318862,4,525324.005496574,3.4028234663852886E38,1.60143744E9,,,,0,,3,,1.60143744E9
Raw,1933428535,1429824000000,,,-1311853870175738518,0.0,11.403468969712982,,,0,23,0.0,32961,54881924494575,46,32.08784866333008,-35.44764422990629,0.11677586539432727,4,-4348.201679137238,3.4028234663852886E38,1.60368755E9,,,,0,,3,,1.60368755E9
Raw,1933428535,1429824000000,,,-1311853870175738518,0.0,11.403468969712982,,,0,7,0.0,32995,54881932695540,33,42.398929595947266,-182.58435480678236,0.03766557862712064,4,-304326.1290531094,3.4028234663852886E38,1.60481254E9,,,,0,,3,,1.60481254E9
Raw,1933428535,1429824000000,,,-1311853870175738518,0.0,11.403468969712982,,,0,8,0.0,99,1927062903,33,37.23130416870117,-563.0019985405872,0.06541549226152982,4,-533301.0025738647,3.4028234663852886E38,1.60537498E9,,,,0,,3,,1.60537498E9
Raw,1933428535,1429824000000,,,-1311853870175738518,0.0,11.403468969712982,,,0,193,0.0,35,9146992,8,40.67013168334961,-253.31008730570102,0.04481926657917548,1,-350068.13253393385,8.41122237034142E-4,1.57542003E9,,,,0,,4,,1.57542003E9
Raw,1933428536,1429824000000,,,-1311853870175738518,0.0,11.403468969712982,,,0,194,0.0,35,12301628,6,43.2779541015625,-106.58913370487198,0.03418924919068829,1,-41831.00039303519,6.566693191416562E-4,1.57542003E9,,,,0,,4,,1.57542003E9
Raw,1933428536,1429824000000,,,-1311853870175738518,0.0,11.403468969712982,,,0,6,0.0,16431,44085878524758,6,37.692604064941406,-78.30417972211882,0.06415939647342297,4,-89933.06041351224,3.4028234663852886E38,1.56109798E9,,,,0,,5,,1.56109798E9
Raw,1933428536,1429824000000,,,-1311853870175738518,0.0,11.403468969712982,,,0,14,0.0,16431,44085924512995,6,41.57042694091797,119.9000711823121,0.039734848044958054,1,117791.29523048655,7.65262811910361E-4,1.56109798E9,,,,0,,5,,1.56109798E9
Raw,1933428536,1429824000000,,,-1311853870175738518,0.0,11.403468969712982,,,0,16,0.0,16431,44085877884109,6,39.10777282714844,-77.10633474639639,0.054898953393902966,4,-89132.86501268488,3.4028234663852886E38,1.56109798E9,,,,0,,5,,1.56109798E9
Raw,1933428536,1429824000000,,,-1311853870175738518,0.0,11.403468969712982,,,0,24,0.0,16431,44085924180756,6,40.80702209472656,4.679534594041446,0.043250882794357376,1,-83581.2669682243,8.35566024761647E-4,1.56109798E9,,,,0,,5,,1.56109798E9
Raw,1933428536,1429824000000,,,-1311853870175738518,0.0,11.403468969712982,,,0,25,0.0,16431,44085922477523,8,35.04645538330078,-596.9228019721099,0.08293646271796007,4,-568223.5321928778,3.4028234663852886E38,1.56109798E9,,,,0,,5,,1.56109798E9
Raw,1933428537,1429824000000,,,-1311853870175738518,0.0,11.403468969712982,,,0,26,0.0,16431,44085915541238,167,22.799959182739258,420.93002833929563,4.202795582660972,4,503888.5658304388,3.4028234663852886E38,1.56109798E9,,,,1,,5,,1.56109798E9
Raw,1933428537,1429824000000,,,-1311853870175738518,0.0,11.403468969712982,,,0,27,0.0,16431,44085913237426,26,24.931480407714844,105.27767486033076,0.26671589143698804,4,62796.01540695296,3.4028234663852886E38,1.56109798E9,,,,0,,5,,1.56109798E9
Raw,1933428537,1429824000000,,,-1311853870175738518,0.0,11.403468969712982,,,0,33,0.0,16431,44085925919919,6,44.81515884399414,-125.42136097409434,0.03106485273732046,1,-206303.87884280953,5.552041693590581E-4,1.56109798E9,,,,0,,5,,1.56109798E9
Raw,1933429497,1430824000000,,,-1311853870175738906,0.0,11.638826951846184,,,0,10,0.0,16431,44100931325774,7,41.7758903503418,-362.0561633540756,0.040050372876529516,1,-594908.7742417878,7.806385401636362E-4,1.57542003E9,,,,0,,1,,1.57542003E9
Raw,1933429497,1430824000000,,,-1311853870175738906,0.0,11.638826951846184,,,0,12,0.0,16431,44100923319246,19,33.83980178833008,-492.6615341302024,0.09538177656075847,4,-728881.5568539974,3.4028234663852886E38,1.57542003E9,,,,0,,1,,1.57542003E9
Raw,1933429497,1430824000000,,,-1311853870175738906,0.0,11.638826951846184,,,0,15,0.0,16431,44100916590759,13,36.67844772338867,415.06518738576347,0.07134489943341604,4,692792.0387100838,3.4028234663852886E38,1.57542003E9,,,,0,,1,,1.57542003E9
Raw,1933429497,1430824000000,,,-1311853870175738906,0.0,11.638826951846184,,,0,18,0.0,16431,44100921495074,37,28.124515533447266,560.3015091804589,0.18329064169240128,4,771055.9210772435,3.4028234663852886E38,1.57542003E9,,,,0,,1,,1.57542003E9
Raw,1933429497,1430824000000,,,-1311853870175738906,0.0,11.638826951846184,,,0,23,0.0,16431,44100931400309,14,36.22679901123047,95.0023339761654,0.07405990492449471,1,38150.86414398044,0.0014028968289494514,1.57542003E9,,,,0,,1,,1.57542003E9
Raw,1933429498,1430824000000,,,-1311853870175738906,0.0,11.638826951846184,,,0,24,0.0,5,926335465,64,23.24431800842285,450.25000688234763,0.3221450824818264,4,525098.6787269617,3.4028234663852886E38,1.57542003E9,,,,0,,1,,1.57542003E9
Raw,1933429498,1430824000000,,,-1311853870175738906,0.0,11.638826951846184,,,0,25,0.0,16431,44100922426976,9,40.12101745605469,-712.1326840649485,0.046428035911535936,1,-790541.0406430629,9.444819879718125E-4,1.57542003E9,,,,0,,1,,1.57542003E9
Raw,1933429498,1430824000000,,,-1311853870175738906,0.0,11.638826951846184,,,0,31,0.0,16,1430017435049,1000000000,7.0,-835.6204450331343,2.99792458E8,2,-14.18681106741751,3.4028234663852886E38,1.57542003E9,,,,0,,1,,1.57542003E9
Raw,1933429499,1430824000000,,,-1311853870175738906,0.0,11.638826951846184,,,0,32,0.0,16431,44100926758209,15,35.43690490722656,-405.16617646590885,0.08008043440628848,4,-608430.7394837845,3.4028234663852886E38,1.57542003E9,,,,0,,1,,1.57542003E9
Raw,1933429499,1430824000000,,,-1311853870175738906,0.0,11.638826951846184,,,0,10,0.0,32995,54882929906605,42,32.949520111083984,-797.4870840578487,0.1067971861332449,1,-1218088.042151901,0.001901586540043354,1.59806246E9,,,,0,,3,,1.59806246E9
Raw,1933429499,1430824000000,,,-1311853870175738906,0.0,11.638826951846184,,,0,9,0.0,32995,54882933570692,33,43.5546989440918,-136.49681308697507,0.03341476572263177,1,-362792.9992224439,6.25962857156992E-4,1.59862502E9,,,,0,,3,,1.59862502E9
Raw,1933429499,1430824000000,,,-1311853870175738906,0.0,11.638826951846184,,,0,16,0.0,17,215561,78,19.39999771118164,517.0818187235352,4.200938088780479,4,525841.0214896424,3.4028234663852886E38,1.60143744E9,,,,0,,3,,1.60143744E9
Raw,1933429499,1430824000000,,,-1311853870175738906,0.0,11.638826951846184,,,0,23,0.0,32961,54882924494629,63,29.41175079345703,-35.09399827056501,0.15862076780845247,4,-4383.583115695036,3.4028234663852886E38,1.60368755E9,,,,0,,3,,1.60368755E9
Raw,1933429499,1430824000000,,,-1311853870175738906,0.0,11.638826951846184,,,0,7,0.0,32995,54882932696130,33,39.954345703125,-182.30239064396915,0.049166260908211995,1,-304508.59914551827,9.451467194594443E-4,1.60481254E9,,,,0,,3,,1.60481254E9
Raw,1933429500,1430824000000,,,-1311853870175738906,0.0,11.638826951846184,,,0,8,0.0,99,927064855,35,34.39346694946289,-562.7523104641011,0.0902021667905496,4,-533863.9335114077,3.4028234663852886E38,1.60537498E9,,,,0,,3,,1.60537498E9
Raw,1933429500,1430824000000,,,-1311853870175738906,0.0,11.638826951846184,,,0,193,0.0,35,9147854,11,38.60251235961914,-253.1941899122952,0.05642302832105897,1,-350321.38839003805,0.0010671860072761774,1.57542003E9,,,,0,,4,,1.57542003E9
Raw,1933429500,1430824000000,,,-1311853870175738906,0.0,11.638826951846184,,,0,194,0.0,35,12301965,9,39.76001739501953,-106.46520989295504,0.05015608750473438,1,-41937.52618147593,9.340386604890227E-4,1.57542003E9,,,,0,,4,,1.57542003E9
Raw,1933429500,1430824000000,,,-1311853870175738906,0.0,11.638826951846184,,,0,6,0.0,16431,44086878525044,166,33.48846435546875,-78.07579318095947,0.10202949480241719,4,-90011.29719943478,3.4028234663852886E38,1.56109798E9,,,,1,,5,,1.56109798E9
Raw,1933429500,1430824000000,,,-1311853870175738906,0.0,11.638826951846184,,,0,14,0.0,16431,44086924512586,6,38.68698501586914,120.01244104146781,0.05505913095446549,1,117911.26993658266,0.0010665534064173698,1.56109798E9,,,,0,,5,,1.56109798E9
Raw,1933429500,1430824000000,,,-1311853870175738906,0.0,11.638826951846184,,,0,16,0.0,16431,44086877884372,8,35.186439514160156,-76.88266862546544,0.08438897779987775,4,-89209.85429142436,3.4028234663852886E38,1.56109798E9,,,,0,,5,,1.56109798E9
Raw,1933429501,1430824000000,,,-1311853870175738906,0.0,11.638826951846184,,,0,24,0.0,16431,44086924180733,6,38.91652297973633,4.862254371228914,0.05358465282469821,1,-83576.47750614614,0.0010387372458353639,1.56109798E9,,,,0,,5,,1.56109798E9
Raw,1933429501,1430824000000,,,-1311853870175738906,0.0,11.638826951846184,,,0,25,0.0,16431,44086922479531,7,36.539154052734375,-596.803377044454,0.06991174711427389,4,-568820.3871383134,3.4028234663852886E38,1.56109798E9,,,,0,,5,,1.56109798E9
Raw,1933429501,1430824000000,,,-1311853870175738906,0.0,11.638826951846184,,,0,26,0.0,16431,44086915539834,166,20.33751106262207,422.93595131794564,4.20279531639178,4,504309.54640364763,3.4028234663852886E38,1.56109798E9,,,,1,,5,,1.56109798E9
Raw,1933429501,1430824000000,,,-1311853870175738906,0.0,11.638826951846184,,,0,27,0.0,16431,44086913237141,32,23.130565643310547,106.2518111120516,0.32761814586389804,4,62901.6011145569,3.4028234663852886E38,1.56109798E9,,,,0,,5,,1.56109798E9
Raw,1933429501,1430824000000,,,-1311853870175738906,0.0,11.638826951846184,,,0,33,0.0,16431,44086925920341,6,38.47663879394531,-125.23002206317528,0.0566421054588912,4,-206429.1827564544,3.4028234663852886E38,1.56109798E9,,,,0,,5,,1.56109798E9
Fix,gps,34.486444,109.463965,359.846344,0.318362,3.000000,1627820082999
Fix,gps,34.486443,109.463965,359.730011,0.481149,3.000000,1627820083999
Raw,1933430535,1431824000000,,,-1311853870175739296,0.0,11.969316181184176,,,0,10,0.0,16431,44101931326989,11,38.23780822753906,-362.1915388713842,0.05916397841649265,4,-595270.9797060497,3.4028234663852886E38,1.57542003E9,,,,0,,1,,1.57542003E9
Raw,1933430535,1431824000000,,,-1311853870175739296,0.0,11.969316181184176,,,0,12,0.0,16431,44101923320859,14,36.055091857910156,-492.7705979910754,0.07404428657222584,4,-729374.2382472126,3.4028234663852886E38,1.57542003E9,,,,0,,1,,1.57542003E9
Raw,1933430535,1431824000000,,,-1311853870175739296,0.0,11.969316181184176,,,0,15,0.0,16431,44101916589403,16,35.22346115112305,414.602040884075,0.08381080753400105,1,693206.5975167159,0.0015746814897283912,1.57542003E9,,,,0,,1,,1.57542003E9
Raw,1933430536,1431824000000,,,-1311853870175739296,0.0,11.969316181184176,,,0,18,0.0,16431,44101921493295,29,30.187883377075195,560.435350987224,0.14459117723846326,4,771616.4555850019,3.4028234663852886E38,1.57542003E9,,,,0,,1,,1.57542003E9
Raw,1933430536,1431824000000,,,-1311853870175739296,0.0,11.969316181184176,,,0,23,0.0,16431,44101931400011,10,39.346282958984375,95.1760607776763,0.05233277989955165,1,38245.65900035508,9.796064114198089E-4,1.57542003E9,,,,0,,1,,1.57542003E9
Raw,1933430536,1431824000000,,,-1311853870175739296,0.0,11.969316181184176,,,0,24,0.0,39,1926334021,58,24.111034393310547,449.6144713155668,0.2916597230354283,4,525548.3052887202,3.4028234663852886E38,1.57542003E9,,,,0,,1,,1.57542003E9
Raw,1933430536,1431824000000,,,-1311853870175739296,0.0,11.969316181184176,,,0,25,0.0,16431,44101922429361,8,40.49324035644531,-712.4149549698705,0.044499186048154254,1,-791253.3898520085,9.04862186871469E-4,1.57542003E9,,,,0,,1,,1.57542003E9
Raw,1933430536,1431824000000,,,-1311853870175739296,0.0,11.969316181184176,,,0,31,0.0,16,1431017437836,1000000000,21.251953125,-835.6204450331343,2.99792458E8,2,-14.180276401290776,3.4028234663852886E38,1.57542003E9,,,,0,,1,,1.57542003E9
Raw,1933430537,1431824000000,,,-1311853870175739296,0.0,11.969316181184176,,,0,32,0.0,16431,44101926759496,19,33.65960693359375,-405.02316647833914,0.09798751183234067,4,-608835.7521987881,3.4028234663852886E38,1.57542003E9,,,,0,,1,,1.57542003E9
Raw,1933430537,1431824000000,,,-1311853870175739296,0.0,11.969316181184176,,,0,10,0.0,32995,54883929909248,39,33.67865753173828,-797.6284580875054,0.0983420326191109,4,-1218885.6745366713,3.4028234663852886E38,1.59806246E9,,,,0,,3,,1.59806246E9
Raw,1933430537,1431824000000,,,-1311853870175739296,0.0,11.969316181184176,,,0,9,0.0,32995,54883933571134,33,43.216556549072266,-136.5858535046409,0.0346444322132458,1,-362929.6651432256,6.508119986392558E-4,1.59862502E9,,,,0,,3,,1.59862502E9
Raw,1933430537,1431824000000,,,-1311853870175739296,0.0,11.969316181184176,,,0,16,0.0,17,213821,81,18.7431697845459,516.9009431267687,4.200937822511287,4,526357.9193299774,3.4028234663852886E38,1.60143744E9,,,,0,,3,,1.60143744E9
Raw,1933430537,1431824000000,,,-1311853870175739296,0.0,11.969316181184176,,,0,23,0.0,32961,54883924494763,47,32.01991653442383,-34.81093068822187,0.11768644778316045,4,-4418.444660906271,3.4028234663852886E38,1.60368755E9,,,,0,,3,,1.60368755E9
Raw,1933430537,1431824000000,,,-1311853870175739296,0.0,11.969316181184176,,,0,7,0.0,32995,54883932696742,33,39.999847412109375,-182.18139792331317,0.048921405584269495,1,-304691.20034889766,9.402084979228675E-4,1.60481254E9,,,,0,,3,,1.60481254E9
Raw,1933430538,1431824000000,,,-1311853870175739296,0.0,11.969316181184176,,,0,8,0.0,99,1927066662,49,31.622079849243164,-561.9306846847057,0.12362687184284848,4,-534426.6862422592,3.4028234663852886E38,1.60537498E9,,,,0,,3,,1.60537498E9
Raw,1933430538,1431824000000,,,-1311853870175739296,0.0,11.969316181184176,,,0,193,0.0,35,9148686,11,38.20151138305664,-253.92321365731812,0.0590113936883464,4,-350574.9677447544,3.4028234663852886E38,1.57542003E9,,,,0,,4,,1.57542003E9
Raw,1933430538,1431824000000,,,-1311853870175739296,0.0,11.969316181184176,,,0,194,0.0,35,12302332,15,35.55720901489258,-107.27675578583381,0.07999287344681838,4,-42044.40025761284,3.4028234663852886E38,1.57542003E9,,,,0,,4,,1.57542003E9
Raw,1933430539,1431824000000,,,-1311853870175739296,0.0,11.969316181184176,,,0,6,0.0,16431,44087878525261,12,31.638301849365234,-78.29061490442274,0.12545971086038338,4,-90089.49899489917,3.4028234663852886E38,1.56109798E9,,,,0,,5,,1.56109798E9
Raw,1933430539,1431824000000,,,-1311853870175739296,0.0,11.969316181184176,,,0,14,0.0,16431,44087924512193,6,37.324039459228516,119.70328759896353,0.06427548152004156,1,118030.86093724173,0.0012477566488087177,1.56109798E9,,,,0,,5,,1.56109798E9
Raw,1933430539,1431824000000,,,-1311853870175739296,0.0,11.969316181184176,,,0,16,0.0,16431,44087877884638,10,32.994117736816406,-76.96657111281047,0.10769442177884991,4,-89286.89153449744,3.4028234663852886E38,1.56109798E9,,,,0,,5,,1.56109798E9
Raw,1933430539,1431824000000,,,-1311853870175739296,0.0,11.969316181184176,,,0,24,0.0,16431,44087924180711,6,42.12599182128906,4.717622804282453,0.03726342893870574,1,-83571.95428076037,7.566777057945728E-4,1.56109798E9,,,,0,,5,,1.56109798E9
Raw,1933430539,1431824000000,,,-1311853870175739296,0.0,11.969316181184176,,,0,25,0.0,16431,44087922481531,9,34.32862854003906,-596.2705319191764,0.09004407777895856,4,-569417.0932154827,3.4028234663852886E38,1.56109798E9,,,,0,,5,,1.56109798E9
Raw,1933430539,1431824000000,,,-1311853870175739296,0.0,11.969316181184176,,,0,26,0.0,16431,44087915538408,166,17.146224975585938,422.7567116790922,4.202795050122589,4,504732.2904321697,3.4028234663852886E38,1.56109798E9,,,,1,,5,,1.56109798E9
Raw,1933430540,1431824000000,,,-1311853870175739296,0.0,11.969316181184176,,,0,27,0.0,16431,44087913236799,29,24.18326187133789,106.37168763225645,0.29049559412982107,4,63008.717322591125,3.4028234663852886E38,1.56109798E9,,,,0,,5,,1.56109798E9
Raw,1933430540,1431824000000,,,-1311853870175739296,0.0,11.969316181184176,,,0,33,0.0,16431,44087925920746,6,39.6955680847168,-124.98375075295559,0.04936531793120197,1,-206554.61857402793,9.496279526501894E-4,1.56109798E9,,,,0,,5,,1.56109798E9
Fix,gps,34.486443,109.463965,359.584137,0.522664,4.000000,1627820084999
Raw,1933431514,1432824000000,,,-1311853870175739687,0.0,12.13792323451879,,,0,10,0.0,16431,44102931328200,12,37.82666778564453,-361.71888336432585,0.06193327369946172,4,-595633.0193920573,3.4028234663852886E38,1.57542003E9,,,,0,,1,,1.57542003E9
Raw,1933431514,1432824000000,,,-1311853870175739687,0.0,12.13792323451879,,,0,12,0.0,16431,44102923322538,11,38.106239318847656,-493.34723907298485,0.05859609695859702,1,-729867.4045987042,0.0011299358448013663,1.57542003E9,,,,0,,1,,1.57542003E9
Raw,1933431515,1432824000000,,,-1311853870175739687,0.0,12.13792323451879,,,0,15,0.0,16431,44102916587996,16,35.16770935058594,413.88344637074806,0.0843310559297959,4,693620.6658722609,3.4028234663852886E38,1.57542003E9,,,,0,,1,,1.57542003E9
Raw,1933431515,1432824000000,,,-1311853870175739687,0.0,12.13792323451879,,,0,18,0.0,16431,44102921491412,25,31.266874313354492,561.2050351028786,0.1277314197520351,4,772177.0162435933,3.4028234663852886E38,1.57542003E9,,,,0,,1,,1.57542003E9
Raw,1933431515,1432824000000,,,-1311853870175739687,0.0,12.13792323451879,,,0,23,0.0,16431,44102931399678,7,41.74977111816406,94.48507305413284,0.04017814464438499,1,38340.32729880234,7.829892565496266E-4,1.57542003E9,,,,0,,1,,1.57542003E9
Raw,1933431515,1432824000000,,,-1311853870175739687,0.0,12.13792323451879,,,0,24,0.0,39,2926332494,66,23.030879974365234,448.9274712394365,0.3301303291191995,4,525997.5277126394,3.4028234663852886E38,1.57542003E9,,,,0,,1,,1.57542003E9
Raw,1933431515,1432824000000,,,-1311853870175739687,0.0,12.13792323451879,,,0,25,0.0,16431,44102922431742,15,35.659542083740234,-712.3711930956952,0.07730642532653714,1,-791965.9168174067,0.0014975751983001828,1.57542003E9,,,,0,,1,,1.57542003E9
Raw,1933431515,1432824000000,,,-1311853870175739687,0.0,12.13792323451879,,,0,31,0.0,16,1432017440624,1000000000,23.70754623413086,-835.6204450331343,2.99792458E8,2,-14.199880399510297,3.4028234663852886E38,1.57542003E9,,,,0,,1,,1.57542003E9
Raw,1933431516,1432824000000,,,-1311853870175739687,0.0,12.13792323451879,,,0,32,0.0,16431,44102926760830,24,31.69158363342285,-404.28016892614187,0.1225966929824327,4,-609240.4151048744,3.4028234663852886E38,1.57542003E9,,,,0,,1,,1.57542003E9
Raw,1933431516,1432824000000,,,-1311853870175739687,0.0,12.13792323451879,,,0,10,0.0,32995,54884929911893,38,33.70512771606445,-797.7517002502918,0.09804870382093167,4,-1219683.328042022,3.4028234663852886E38,1.59806246E9,,,,0,,3,,1.59806246E9
Raw,1933431516,1432824000000,,,-1311853870175739687,0.0,12.13792323451879,,,0,9,0.0,32995,54884933571615,33,41.995479583740234,-136.57682165366236,0.03950538640865403,4,-363066.44981197984,3.4028234663852886E38,1.59862502E9,,,,0,,3,,1.59862502E9
Raw,1933431516,1432824000000,,,-1311853870175739687,0.0,12.13792323451879,,,0,16,0.0,17,212170,85,18.042970657348633,516.8458658770278,4.200937556242096,4,526875.6220345239,3.4028234663852886E38,1.60143744E9,,,,0,,3,,1.60143744E9
Raw,1933431516,1432824000000,,,-1311853870175739687,0.0,12.13792323451879,,,0,24,0.0,16,357934128,1000000000,30.990890502929688,-486.3752636017657,2.99792458E8,6,-173.65313701235095,3.4028234663852886E38,1.60312499E9,,,,0,,3,,1.60312499E9
Raw,1933431516,1432824000000,,,-1311853870175739687,0.0,12.13792323451879,,,0,23,0.0,32961,54884924494841,56,30.506488800048828,-34.659747301547284,0.13993313056818268,4,-4453.331683210663,3.4028234663852886E38,1.60368755E9,,,,0,,3,,1.60368755E9
Raw,1933431516,1432824000000,,,-1311853870175739687,0.0,12.13792323451879,,,0,7,0.0,32995,54884932697390,33,38.83899688720703,-183.1122920583207,0.05559024646164187,1,-304873.91850422375,0.001019501592963934,1.60481254E9,,,,0,,3,,1.60481254E9
Raw,1933431517,1432824000000,,,-1311853870175739687,0.0,12.13792323451879,,,0,8,0.0,99,927068565,36,34.24395751953125,-562.0974160620153,0.09174686925914116,4,-534989.0605550132,3.4028234663852886E38,1.60537498E9,,,,0,,3,,1.60537498E9
Raw,1933431517,1432824000000,,,-1311853870175739687,0.0,12.13792323451879,,,0,193,0.0,35,9149535,13,37.191654205322266,-253.96457271830855,0.06608430638486043,4,-350828.9023531016,3.4028234663852886E38,1.57542003E9,,,,0,,4,,1.57542003E9
Raw,1933431517,1432824000000,,,-1311853870175739687,0.0,12.13792323451879,,,0,194,0.0,35,12302690,20,33.240760803222656,-107.2060687710055,0.10376537022965415,4,-42151.0003624693,3.4028234663852886E38,1.57542003E9,,,,0,,4,,1.57542003E9
Raw,1933431520,1432824000000,,,-1311853870175739687,0.0,12.13792323451879,,,0,6,0.0,16431,44088878525541,12,31.628589630126953,-77.81588888813064,0.12559638184387634,4,-90167.70618020398,3.4028234663852886E38,1.56109798E9,,,,0,,5,,1.56109798E9
Raw,1933431520,1432824000000,,,-1311853870175739687,0.0,12.13792323451879,,,0,14,0.0,16431,44088924511801,9,33.61960220336914,118.9432062154342,0.09802992352201273,4,118150.53738767841,3.4028234663852886E38,1.56109798E9,,,,0,,5,,1.56109798E9
Raw,1933431520,1432824000000,,,-1311853870175739687,0.0,12.13792323451879,,,0,16,0.0,16431,44088877884883,11,32.13495635986328,-76.7732042957283,0.11855719796511505,4,-89363.83097760496,3.4028234663852886E38,1.56109798E9,,,,0,,5,,1.56109798E9
Raw,1933431520,1432824000000,,,-1311853870175739687,0.0,12.13792323451879,,,0,24,0.0,16431,44088924180700,6,43.205223083496094,4.245202679189479,0.032997370042770605,1,-83567.60185194803,6.68266206048429E-4,1.56109798E9,,,,0,,5,,1.56109798E9
Raw,1933431521,1432824000000,,,-1311853870175739687,0.0,12.13792323451879,,,0,25,0.0,16431,44088922483532,9,34.32347106933594,-596.8539554099339,0.09009768109558941,4,-570013.8263722628,3.4028234663852886E38,1.56109798E9,,,,0,,5,,1.56109798E9
Raw,1933431521,1432824000000,,,-1311853870175739687,0.0,12.13792323451879,,,0,26,0.0,16431,44088915537007,72,20.5855655670166,420.33764116247266,4.202794783853397,4,505155.09445977275,3.4028234663852886E38,1.56109798E9,,,,0,,5,,1.56109798E9
Raw,1933431522,1432824000000,,,-1311853870175739687,0.0,12.13792323451879,,,0,27,0.0,16431,44088913236400,32,23.25374984741211,105.79447566920027,0.32303801621580486,4,63115.559848134995,3.4028234663852886E38,1.56109798E9,,,,0,,5,,1.56109798E9
Raw,1933431522,1432824000000,,,-1311853870175739687,0.0,12.13792323451879,,,0,33,0.0,16431,44088925921176,6,40.50859832763672,-125.84047294195534,0.045049456295300244,1,-206680.16189395013,8.64772591739893E-4,1.56109798E9,,,,0,,5,,1.56109798E9
Fix,gps,34.486443,109.463966,359.586945,0.786325,4.000000,1627820085999
Raw,1933432556,1433824000000,,,-1311853870175740077,0.0,12.464665905542269,,,0,10,0.0,16431,44103931329419,8,41.07542037963867,-362.02640936953117,0.04324358951478163,4,-595994.9707590153,3.4028234663852886E38,1.57542003E9,,,,0,,1,,1.57542003E9
Raw,1933432556,1433824000000,,,-1311853870175740077,0.0,12.464665905542269,,,0,12,0.0,16431,44103923324191,16,35.19061279296875,-492.8243801074684,0.0817309871994471,4,-730360.5069015799,3.4028234663852886E38,1.57542003E9,,,,0,,1,,1.57542003E9
Raw,1933432557,1433824000000,,,-1311853870175740077,0.0,12.464665905542269,,,0,15,0.0,16431,44103916586650,23,32.250770568847656,413.9669143067724,0.11679601864376532,4,694034.6295069677,3.4028234663852886E38,1.57542003E9,,,,0,,1,,1.57542003E9
Raw,1933432557,1433824000000,,,-1311853870175740077,0.0,12.464665905542269,,,0,18,0.0,16431,44103921489549,30,29.716087341308594,560.7608725294733,0.15264655252416992,4,772737.4767970315,3.4028234663852886E38,1.57542003E9,,,,0,,1,,1.57542003E9
Raw,1933432557,1433824000000,,,-1311853870175740077,0.0,12.464665905542269,,,0,23,0.0,16431,44103931399379,8,40.6397705078125,94.73744512407012,0.04537558196906166,4,38435.13171457057,3.4028234663852886E38,1.57542003E9,,,,0,,1,,1.57542003E9
Raw,1933432558,1433824000000,,,-1311853870175740077,0.0,12.464665905542269,,,0,24,0.0,39,3926330995,25,31.213581085205078,449.14747349629124,0.12938640759141606,4,524290.6818649231,3.4028234663852886E38,1.57542003E9,,,,0,,1,,1.57542003E9
Raw,1933432558,1433824000000,,,-1311853870175740077,0.0,12.464665905542269,,,0,25,0.0,16431,44103922434116,11,38.46349334716797,-712.610042951007,0.056099182577250495,1,-792678.5505085317,0.0010844040662050247,1.57542003E9,,,,0,,1,,1.57542003E9
Raw,1933432558,1433824000000,,,-1311853870175740077,0.0,12.464665905542269,,,0,31,0.0,16,1433017443413,1000000000,14.393643379211426,-836.17742053763,2.99792458E8,2,-14.20280567963286,3.4028234663852886E38,1.57542003E9,,,,0,,1,,1.57542003E9
Raw,1933432558,1433824000000,,,-1311853870175740077,0.0,12.464665905542269,,,0,32,0.0,16431,44103926762189,20,33.43696594238281,-404.80865149698457,0.10050054382069029,4,-609644.7713911283,3.4028234663852886E38,1.57542003E9,,,,0,,1,,1.57542003E9
Raw,1933432559,1433824000000,,,-1311853870175740077,0.0,12.464665905542269,,,0,10,0.0,32995,54885929914576,37,34.145748138427734,-797.6837398319853,0.09328760265259567,4,-1220480.8317542833,3.4028234663852886E38,1.59806246E9,,,,0,,3,,1.59806246E9
Raw,1933432559,1433824000000,,,-1311853870175740077,0.0,12.464665905542269,,,0,9,0.0,32995,54885933572081,33,43.14888000488281,-136.8940696795908,0.03489650176809779,4,-363203.0752709508,3.4028234663852886E38,1.59862502E9,,,,0,,3,,1.59862502E9
Raw,1933432559,1433824000000,,,-1311853870175740077,0.0,12.464665905542269,,,0,16,0.0,17,210375,92,16.60993194580078,516.8955240161815,4.200937289972904,4,527393.7067748776,3.4028234663852886E38,1.60143744E9,,,,0,,3,,1.60143744E9
Raw,1933432559,1433824000000,,,-1311853870175740077,0.0,12.464665905542269,,,0,23,0.0,32961,54885924494972,58,30.14141845703125,-34.29957029147482,0.14590521569893256,4,-4488.990872177943,3.4028234663852886E38,1.60368755E9,,,,0,,3,,1.60368755E9
Raw,1933432559,1433824000000,,,-1311853870175740077,0.0,12.464665905542269,,,0,7,0.0,32995,54885932697978,33,39.211673736572266,-182.55531655382492,0.053351571591571084,4,-305056.5265051139,3.4028234663852886E38,1.60481254E9,,,,0,,3,,1.60481254E9
Raw,1933432560,1433824000000,,,-1311853870175740077,0.0,12.464665905542269,,,0,8,0.0,99,1927070414,33,35.150794982910156,-562.1294194886902,0.0827776248242677,4,-535551.3824243098,3.4028234663852886E38,1.60537498E9,,,,0,,3,,1.60537498E9
Raw,1933432560,1433824000000,,,-1311853870175740077,0.0,12.464665905542269,,,0,193,0.0,35,9150372,14,36.494056701660156,-253.97626300089587,0.07147328278832094,4,-351082.7282071548,3.4028234663852886E38,1.57542003E9,,,,0,,4,,1.57542003E9
Raw,1933432560,1433824000000,,,-1311853870175740077,0.0,12.464665905542269,,,0,194,0.0,35,12303058,13,36.92155456542969,-107.64229013204096,0.06868683810523138,4,-42258.29084674774,3.4028234663852886E38,1.57542003E9,,,,0,,4,,1.57542003E9
Raw,1933432560,1433824000000,,,-1311853870175740077,0.0,12.464665905542269,,,0,6,0.0,16431,44089878525812,11,32.1654052734375,-78.12362790868923,0.11826889499792698,4,-90245.90935013296,3.4028234663852886E38,1.56109798E9,,,,0,,5,,1.56109798E9
Raw,1933432560,1433824000000,,,-1311853870175740077,0.0,12.464665905542269,,,0,14,0.0,16431,44089924511396,7,35.797210693359375,119.79013821879778,0.07647177958277895,4,118269.96904699135,3.4028234663852886E38,1.56109798E9,,,,0,,5,,1.56109798E9
Raw,1933432561,1433824000000,,,-1311853870175740077,0.0,12.464665905542269,,,0,16,0.0,16431,44089877885150,9,33.64952850341797,-77.02099227526327,0.10010109010784018,4,-89440.7514135664,3.4028234663852886E38,1.56109798E9,,,,0,,5,,1.56109798E9
Raw,1933432561,1433824000000,,,-1311853870175740077,0.0,12.464665905542269,,,0,24,0.0,16431,44089924180685,6,41.79954147338867,4.2729899994848495,0.03866179568424105,1,-83563.18156899726,7.856581942178309E-4,1.56109798E9,,,,0,,5,,1.56109798E9
Raw,1933432561,1433824000000,,,-1311853870175740077,0.0,12.464665905542269,,,0,25,0.0,16431,44089922485508,8,35.209285736083984,-596.2337228661318,0.08140588915834696,4,-570610.3777039273,3.4028234663852886E38,1.56109798E9,,,,0,,5,,1.56109798E9
Raw,1933432561,1433824000000,,,-1311853870175740077,0.0,12.464665905542269,,,0,26,0.0,16431,44089915535624,166,22.663522720336914,419.71393220810523,4.202794517584206,4,505576.0524118118,3.4028234663852886E38,1.56109798E9,,,,1,,5,,1.56109798E9
Raw,1933432561,1433824000000,,,-1311853870175740077,0.0,12.464665905542269,,,0,27,0.0,16431,44089913236084,28,24.353553771972656,106.04549296149077,0.28490184423666376,4,63220.75736490931,3.4028234663852886E38,1.56109798E9,,,,0,,5,,1.56109798E9
Raw,1933432562,1433824000000,,,-1311853870175740077,0.0,12.464665905542269,,,0,33,0.0,16431,44089925921598,6,40.118621826171875,-125.52583222395089,0.04706933693855486,4,-206805.61112609052,3.4028234663852886E38,1.56109798E9,,,,0,,5,,1.56109798E9
Fix,gps,34.486443,109.463966,359.670013,0.969673,4.000000,1627820086999
Raw,1933433516,1434824000000,,,-1311853870175740469,0.0,12.77660446214745,,,0,10,0.0,16431,44104931330607,7,41.801456451416016,-361.7186788695867,0.03993952168370801,4,-596356.6653164857,3.4028234663852886E38,1.57542003E9,,,,0,,1,,1.57542003E9
Raw,1933433516,1434824000000,,,-1311853870175740469,0.0,12.77660446214745,,,0,12,0.0,16431,44104923325824,15,35.759300231933594,-492.5718631870909,0.0765894289608981,4,-730853.8987795456,3.4028234663852886E38,1.57542003E9,,,,0,,1,,1.57542003E9
Raw,1933433516,1434824000000,,,-1311853870175740469,0.0,12.77660446214745,,,0,15,0.0,16431,44104916585262,18,34.14891052246094,414.48558113013655,0.09445419454822507,4,694448.7442964959,3.4028234663852886E38,1.57542003E9,,,,0,,1,,1.57542003E9
Raw,1933433516,1434824000000,,,-1311853870175740469,0.0,12.77660446214745,,,0,18,0.0,16431,44104921487695,26,31.057613372802734,560.4615944787465,0.13083890603150927,4,773298.1614246983,3.4028234663852886E38,1.57542003E9,,,,0,,1,,1.57542003E9
Raw,1933433516,1434824000000,,,-1311853870175740469,0.0,12.77660446214745,,,0,23,0.0,16431,44104931399048,9,40.29671859741211,95.10065334261958,0.047120918273512113,4,38530.0819534867,3.4028234663852886E38,1.57542003E9,,,,0,,1,,1.57542003E9
Raw,1933433517,1434824000000,,,-1311853870175740469,0.0,12.77660446214745,,,0,24,0.0,39,4926329533,15,35.429080963134766,449.5244254654335,0.08007439342400441,4,524740.1819510838,3.4028234663852886E38,1.57542003E9,,,,0,,1,,1.57542003E9
Raw,1933433517,1434824000000,,,-1311853870175740469,0.0,12.77660446214745,,,0,25,0.0,16431,44104922436489,12,37.37163162231445,-712.6313104038773,0.06355531488684021,4,-793391.1617271517,3.4028234663852886E38,1.57542003E9,,,,0,,1,,1.57542003E9
Raw,1933433517,1434824000000,,,-1311853870175740469,0.0,12.77660446214745,,,0,31,0.0,16,1434017446201,1000000000,22.60901641845703,-835.8061262562705,2.99792458E8,2,-14.189963276467626,3.4028234663852886E38,1.57542003E9,,,,0,,1,,1.57542003E9
Raw,1933433518,1434824000000,,,-1311853870175740469,0.0,12.77660446214745,,,0,32,0.0,16431,44104926763576,19,33.720947265625,-404.5652686749552,0.09730721068966686,4,-610049.2224809133,3.4028234663852886E38,1.57542003E9,,,,0,,1,,1.57542003E9
Raw,1933433518,1434824000000,,,-1311853870175740469,0.0,12.77660446214745,,,0,10,0.0,32995,54886929917197,34,34.868743896484375,-797.1949292405352,0.08597980308499908,4,-1221278.2185433188,3.4028234663852886E38,1.59806246E9,,,,0,,3,,1.59806246E9
Raw,1933433518,1434824000000,,,-1311853870175740469,0.0,12.77660446214745,,,0,9,0.0,32995,54886933572508,33,43.603057861328125,-136.08500328542408,0.03324313026591888,4,-363339.4677058867,3.4028234663852886E38,1.59862502E9,,,,0,,3,,1.59862502E9
Raw,1933433518,1434824000000,,,-1311853870175740469,0.0,12.77660446214745,,,0,16,0.0,17,208695,87,17.61418914794922,516.6165931919988,4.2009370237037125,4,527910.1727160033,3.4028234663852886E38,1.60143744E9,,,,0,,3,,1.60143744E9
Raw,1933433518,1434824000000,,,-1311853870175740469,0.0,12.77660446214745,,,0,23,0.0,32961,54886924495118,51,31.22270393371582,-33.92337665699017,0.12892155150838303,4,-4524.038752300977,3.4028234663852886E38,1.60368755E9,,,,0,,3,,1.60368755E9
Raw,1933433518,1434824000000,,,-1311853870175740469,0.0,12.77660446214745,,,0,7,0.0,32995,54886932698605,33,40.15230178833008,-182.29456872019716,0.048110312182598175,4,-305239.01267529273,3.4028234663852886E38,1.60481254E9,,,,0,,3,,1.60481254E9
Raw,1933433519,1434824000000,,,-1311853870175740469,0.0,12.77660446214745,,,0,8,0.0,99,927072309,33,35.777549743652344,-562.3792098125459,0.0771038693599515,4,-536113.5683882973,3.4028234663852886E38,1.60537498E9,,,,0,,3,,1.60537498E9
