# 
# Header Description:
# 
# Version: v2.0.0.1 Platform: 10 Manufacturer: HUAWEI Model: BLA-AL00
# 
# Raw,ElapsedRealtimeMillis,TimeNanos,LeapSecond,TimeUncertaintyNanos,FullBiasNanos,BiasNanos,BiasUncertaintyNanos,DriftNanosPerSecond,DriftUncertaintyNanosPerSecond,HardwareClockDiscontinuityCount,Svid,TimeOffsetNanos,State,ReceivedSvTimeNanos,ReceivedSvTimeUncertaintyNanos,Cn0DbHz,PseudorangeRateMetersPerSecond,PseudorangeRateUncertaintyMetersPerSecond,AccumulatedDeltaRangeState,AccumulatedDeltaRangeMeters,AccumulatedDeltaRangeUncertaintyMeters,CarrierFrequencyHz,CarrierCycles,CarrierPhase,CarrierPhaseUncertainty,MultipathIndicator,SnrInDb,ConstellationType,AgcDb,CarrierFrequencyHz
# 
# Fix,Provider,Latitude,Longitude,Altitude,Speed,Accuracy,(UTC)TimeInMs
# 
# Nav,Svid,Type,Status,MessageId,Sub-messageId,Data(Bytes)
# 
Fix,gps,34.486283,109.463933,358.327576,0.760602,3.000000,1627820721999
Raw,1934068501,2069824000000,,,-1311853870175986384,0.0,9.383305003615234,,,0,10,0.0,16431,44739932037950,6,43.61064529418945,-305.6328269928456,0.03294019705479008,4,-808407.7499205571,3.4028234663852886E38,1.57542003E9,,,,0,,1,,1.57542003E9
Raw,1934068502,2069824000000,,,-1311853870175986384,0.0,9.383305003615234,,,0,12,0.0,16431,44739924306808,19,33.542755126953125,-433.53631102812665,0.09885699723563524,1,-1024995.0762364392,0.0019108563428744674,1.57542003E9,,,,0,,1,,1.57542003E9
Raw,1934068502,2069824000000,,,-1311853870175986384,0.0,9.383305003615234,,,0,15,0.0,39,3915705005,22,32.47690200805664,415.2763622863788,0.11371262140521732,4,526785.9551011602,3.4028234663852886E38,1.57542003E9,,,,0,,1,,1.57542003E9
Raw,1934068502,2069824000000,,,-1311853870175986384,0.0,9.383305003615234,,,0,18,0.0,16397,44739920291118,55,24.58934211730957,567.0394404227359,0.27860464442298927,4,1063896.7586958723,3.4028234663852886E38,1.57542003E9,,,,0,,1,,1.57542003E9
Raw,1934068503,2069824000000,,,-1311853870175986384,0.0,9.383305003615234,,,0,23,0.0,16431,44739931130602,7,41.624664306640625,157.45725118885127,0.04068289534113839,1,119006.25133306549,7.943487144075334E-4,1.57542003E9,,,,0,,1,,1.57542003E9
Raw,1934068503,2069824000000,,,-1311853870175986384,0.0,9.383305003615234,,,0,24,0.0,16431,44739925339459,9,40.226051330566406,482.74868573299955,0.04639912906242455,4,564201.7173232468,3.4028234663852886E38,1.57542003E9,,,,0,,1,,1.57542003E9
Raw,1934068503,2069824000000,,,-1311853870175986384,0.0,9.383305003615234,,,0,25,0.0,16431,44739923918410,14,36.447052001953125,-686.3473289229642,0.07091108035302707,1,-1237656.8510397614,0.0013677700189873576,1.57542003E9,,,,0,,1,,1.57542003E9
Raw,1934068503,2069824000000,,,-1311853870175986384,0.0,9.383305003615234,,,0,31,0.0,16,2069019196164,1000000000,21.61355972290039,-816.6839595294086,2.99792458E8,2,-15.506666941231597,3.4028234663852886E38,1.57542003E9,,,,0,,1,,1.57542003E9
Raw,1934068504,2069824000000,,,-1311853870175986384,0.0,9.383305003615234,,,0,32,0.0,16431,44739927601460,18,34.01192092895508,-386.63643099832643,0.0942922529542683,4,-603353.9070609114,3.4028234663852886E38,1.57542003E9,,,,0,,1,,1.57542003E9
Raw,1934068504,2069824000000,,,-1311853870175986384,0.0,9.383305003615234,,,0,10,0.0,32995,55521931537196,33,36.54533386230469,-731.2060447140698,0.0714915971161546,4,-1435515.5185955977,3.4028234663852886E38,1.59806246E9,,,,0,,3,,1.59806246E9
Raw,1934068504,2069824000000,,,-1311853870175986384,0.0,9.383305003615234,,,0,9,0.0,32995,55521933746754,33,43.35237121582031,-29.598225587950694,0.03417640170219434,4,-415583.09006552794,3.4028234663852886E38,1.59862502E9,,,,0,,3,,1.59862502E9
Raw,1934068505,2069824000000,,,-1311853870175986384,0.0,9.383305003615234,,,0,16,0.0,32995,55521924049946,33,36.20444107055664,574.1958701486565,0.07292335984295317,4,572817.4881855499,3.4028234663852886E38,1.60143744E9,,,,0,,3,,1.60143744E9
Raw,1934068505,2069824000000,,,-1311853870175986384,0.0,9.383305003615234,,,0,23,0.0,32961,55521924466238,47,31.916711807250977,60.31223411693102,0.11907833669851925,4,4131.503038665308,3.4028234663852886E38,1.60368755E9,,,,0,,3,,1.60368755E9
Raw,1934068506,2069824000000,,,-1311853870175986384,0.0,9.383305003615234,,,0,7,0.0,32961,55521933049622,33,40.24163818359375,-149.38892829743463,0.047704538736904056,4,-568442.7475586567,3.4028234663852886E38,1.60481254E9,,,,0,,3,,1.60481254E9
Raw,1934068506,2069824000000,,,-1311853870175986384,0.0,9.383305003615234,,,0,8,0.0,32961,55521928259319,33,35.80903244018555,-558.2047564551756,0.07704300188693775,4,-593573.0577200536,3.4028234663852886E38,1.60537498E9,,,,0,,3,,1.60537498E9
Raw,1934068506,2069824000000,,,-1311853870175986384,0.0,9.383305003615234,,,0,193,0.0,35,9692913,12,37.294612884521484,-258.7799977942751,0.0654227272947199,4,-513739.69848423137,3.4028234663852886E38,1.57542003E9,,,,0,,4,,1.57542003E9
Raw,1934068507,2069824000000,,,-1311853870175986384,0.0,9.383305003615234,,,0,194,0.0,35,12518952,14,36.05704116821289,-97.60763103522555,0.07568231639246775,1,-106994.82973966344,0.0014305851655080914,1.57542003E9,,,,0,,4,,1.57542003E9
Raw,1934068507,2069824000000,,,-1311853870175986384,0.0,9.383305003615234,,,0,6,0.0,16431,44725878694249,19,27.80531883239746,-81.61465984786417,0.1932352967433465,4,-140734.54710206125,3.4028234663852886E38,1.56109798E9,,,,0,,5,,1.56109798E9
Raw,1934068507,2069824000000,,,-1311853870175986384,0.0,9.383305003615234,,,0,14,0.0,16431,44725924222418,9,34.00811767578125,151.84823315397932,0.09372518278531577,1,204895.56226106506,0.0018277890048921108,1.56109798E9,,,,0,,5,,1.56109798E9
Raw,1934068508,2069824000000,,,-1311853870175986384,0.0,9.383305003615234,,,0,16,0.0,16431,44725878049757,13,31.138330459594727,-79.1708710296515,0.13261023686578816,4,-138796.78164825865,3.4028234663852886E38,1.56109798E9,,,,0,,5,,1.56109798E9
Raw,1934068508,2069824000000,,,-1311853870175986384,0.0,9.383305003615234,,,0,24,0.0,16431,44725924100664,6,40.082794189453125,69.16811311214144,0.04693195451706564,1,-59611.63363187649,9.082225151360035E-4,1.56109798E9,,,,0,,5,,1.56109798E9
Raw,1934068508,2069824000000,,,-1311853870175986384,0.0,9.383305003615234,,,0,25,0.0,16431,44725923702159,11,32.17221450805664,-550.1398588506395,0.11551240143843455,4,-935342.1987527569,3.4028234663852886E38,1.56109798E9,,,,0,,5,,1.56109798E9
Raw,1934068509,2069824000000,,,-1311853870175986384,0.0,9.383305003615234,,,0,26,0.0,16431,44725914612395,6,40.5090446472168,447.6906188922237,0.04661054264008649,4,782334.4444341264,3.4028234663852886E38,1.56109798E9,,,,0,,5,,1.56109798E9
Raw,1934068509,2069824000000,,,-1311853870175986384,0.0,9.383305003615234,,,0,27,0.0,16431,44725912963076,166,23.28800392150879,150.09694020801123,0.32172680686549615,4,144997.14451820662,3.4028234663852886E38,1.56109798E9,,,,1,,5,,1.56109798E9
Raw,1934068509,2069824000000,,,-1311853870175986384,0.0,9.383305003615234,,,0,33,0.0,16431,44725926151127,6,38.8945426940918,-91.57219886618259,0.0540729447570468,4,-275623.0724232326,3.4028234663852886E38,1.56109798E9,,,,0,,5,,1.56109798E9
Fix,gps,34.486284,109.463938,358.243561,0.535163,3.000000,1627820722999
Raw,1934069507,2070824000000,,,-1311853870175986772,0.0,9.478413983014288,,,0,10,0.0,16431,44740932038956,6,43.43534851074219,-305.42090227818676,0.03356777689753017,1,-808713.2910460364,6.448771455325186E-4,1.57542003E9,,,,0,,1,,1.57542003E9
Raw,1934069508,2070824000000,,,-1311853870175986772,0.0,9.478413983014288,,,0,12,0.0,16431,44740924308229,14,36.35270309448242,-433.4198512741882,0.0717479394594403,1,-1025428.5775933767,0.0013827082002535462,1.57542003E9,,,,0,,1,,1.57542003E9
Raw,1934069508,2070824000000,,,-1311853870175986772,0.0,9.478413983014288,,,0,15,0.0,39,4915703569,18,34.23784255981445,415.4383562022317,0.09336381388777448,4,527201.3227366372,3.4028234663852886E38,1.57542003E9,,,,0,,1,,1.57542003E9
Raw,1934069508,2070824000000,,,-1311853870175986772,0.0,9.478413983014288,,,0,18,0.0,16397,44740920289151,66,23.08388328552246,567.2009571841975,0.3306393359625621,4,1064463.8792999801,3.4028234663852886E38,1.57542003E9,,,,0,,1,,1.57542003E9
Raw,1934069508,2070824000000,,,-1311853870175986772,0.0,9.478413983014288,,,0,23,0.0,16431,44740931130095,9,40.33172607421875,157.70973402677225,0.046891248614402165,1,119163.84264026473,9.218455525115132E-4,1.57542003E9,,,,0,,1,,1.57542003E9
Raw,1934069509,2070824000000,,,-1311853870175986772,0.0,9.478413983014288,,,0,24,0.0,16431,44740925337835,10,39.42057418823242,482.96057636520186,0.05081410108398135,1,564684.5726907592,9.712634491734207E-4,1.57542003E9,,,,0,,1,,1.57542003E9
Raw,1934069509,2070824000000,,,-1311853870175986772,0.0,9.478413983014288,,,0,25,0.0,16431,44740923920664,11,38.655067443847656,-686.1582394541756,0.05515236261562512,1,-1238343.0713379611,0.0010607483563944697,1.57542003E9,,,,0,,1,,1.57542003E9
Raw,1934069510,2070824000000,,,-1311853870175986772,0.0,9.478413983014288,,,0,31,0.0,16,2070019198950,1000000000,21.189945220947266,-816.6839595294086,2.99792458E8,2,-15.500280361199422,3.4028234663852886E38,1.57542003E9,,,,0,,1,,1.57542003E9
Raw,1934069510,2070824000000,,,-1311853870175986772,0.0,9.478413983014288,,,0,32,0.0,16431,44740927602795,18,34.00557327270508,-386.4971359985177,0.09436042618822615,4,-603740.4732937712,3.4028234663852886E38,1.57542003E9,,,,0,,1,,1.57542003E9
Raw,1934069510,2070824000000,,,-1311853870175986772,0.0,9.478413983014288,,,0,10,0.0,32995,55522931539633,33,37.725399017333984,-730.90748239493,0.06267371839578467,4,-1434784.4317420637,3.4028234663852886E38,1.59806246E9,,,,0,,3,,1.59806246E9
Raw,1934069510,2070824000000,,,-1311853870175986772,0.0,9.478413983014288,,,0,9,0.0,32995,55522933746829,33,42.12725830078125,-29.307434068898075,0.03897883492183965,1,-415612.5192776731,7.377692963927984E-4,1.59862502E9,,,,0,,3,,1.59862502E9
Raw,1934069510,2070824000000,,,-1311853870175986772,0.0,9.478413983014288,,,0,16,0.0,32995,55522924048021,33,36.70779800415039,574.491092387057,0.06885817816955986,4,573391.8437300473,3.4028234663852886E38,1.60143744E9,,,,0,,3,,1.60143744E9
Raw,1934069511,2070824000000,,,-1311853870175986772,0.0,9.478413983014288,,,0,23,0.0,32961,55522924466031,48,31.739770889282227,60.58800379327121,0.12151238658791513,4,4191.948857375962,3.4028234663852886E38,1.60368755E9,,,,0,,3,,1.60368755E9
Raw,1934069511,2070824000000,,,-1311853870175986772,0.0,9.478413983014288,,,0,7,0.0,32961,55522933050124,33,42.318702697753906,-148.99082816401994,0.0380576932953777,1,-568591.8186517969,7.199153769761324E-4,1.60481254E9,,,,0,,3,,1.60481254E9
Raw,1934069511,2070824000000,,,-1311853870175986772,0.0,9.478413983014288,,,0,8,0.0,32961,55522928261226,33,35.674835205078125,-558.0635187553451,0.07821978690005749,4,-594131.2083411084,3.4028234663852886E38,1.60537498E9,,,,0,,3,,1.60537498E9
Raw,1934069511,2070824000000,,,-1311853870175986772,0.0,9.478413983014288,,,0,193,0.0,35,9693793,12,37.53376770019531,-258.57608245689914,0.06369349611590419,1,-513998.3319547161,0.001206916873343289,1.57542003E9,,,,0,,4,,1.57542003E9
Raw,1934069512,2070824000000,,,-1311853870175986772,0.0,9.478413983014288,,,0,194,0.0,35,12519314,21,32.8369255065918,-97.61111596640501,0.10863733923263613,1,-107092.39701553601,0.0020726188085973263,1.57542003E9,,,,0,,4,,1.57542003E9
Raw,1934069512,2070824000000,,,-1311853870175986772,0.0,9.478413983014288,,,0,6,0.0,16431,44726878694489,9,34.3183479309082,-81.22263491232468,0.09306650769354596,4,-140815.81493655324,3.4028234663852886E38,1.56109798E9,,,,0,,5,,1.56109798E9
Raw,1934069512,2070824000000,,,-1311853870175986772,0.0,9.478413983014288,,,0,14,0.0,16431,44726924221954,166,29.665775299072266,152.07339890299727,0.15402324745378393,1,205047.46102496368,0.002840971341356635,1.56109798E9,,,,1,,5,,1.56109798E9
Raw,1934069512,2070824000000,,,-1311853870175986772,0.0,9.478413983014288,,,0,16,0.0,16431,44726878050016,8,34.52226257324219,-78.85225970546213,0.09086917111546866,1,-138875.70227433174,0.001722736400552094,1.56109798E9,,,,0,,5,,1.56109798E9
Raw,1934069512,2070824000000,,,-1311853870175986772,0.0,9.478413983014288,,,0,24,0.0,16431,44726924100437,7,36.391204833984375,69.41278254690457,0.07139668047026698,1,-59542.32428271173,0.001389221870340407,1.56109798E9,,,,0,,5,,1.56109798E9
Raw,1934069513,2070824000000,,,-1311853870175986772,0.0,9.478413983014288,,,0,25,0.0,16431,44726923704006,16,29.129411697387695,-549.8572130386958,0.16369261344427977,1,-935892.2667744386,0.003021934302523732,1.56109798E9,,,,0,,5,,1.56109798E9
Raw,1934069513,2070824000000,,,-1311853870175986772,0.0,9.478413983014288,,,0,26,0.0,16431,44726914610908,6,39.2880744934082,447.9291960878834,0.05324844220530553,1,782782.2582941,9.952407563105226E-4,1.56109798E9,,,,0,,5,,1.56109798E9
Raw,1934069513,2070824000000,,,-1311853870175986772,0.0,9.478413983014288,,,0,27,0.0,16431,44726912962641,26,24.847253799438477,150.40487520269483,0.26924220360126794,4,145146.98488189402,3.4028234663852886E38,1.56109798E9,,,,0,,5,,1.56109798E9
Raw,1934069513,2070824000000,,,-1311853870175986772,0.0,9.478413983014288,,,0,33,0.0,16431,44726926151432,6,41.597740173339844,-91.2673994574991,0.039907357197455834,1,-275714.4218369919,8.041253313422203E-4,1.56109798E9,,,,0,,5,,1.56109798E9
Fix,gps,34.486284,109.463941,358.112823,0.376236,3.000000,1627820723999
Raw,1934070517,2071824000000,,,-1311853870175987161,0.0,9.32809436513757,,,0,10,0.0,16431,44741932039997,7,42.105743408203125,-305.29895524874814,0.03876234142725701,1,-809018.679209752,7.5154920341447E-4,1.57542003E9,,,,0,,1,,1.57542003E9
Raw,1934070517,2071824000000,,,-1311853870175987161,0.0,9.32809436513757,,,0,12,0.0,16431,44741924309700,12,37.88428497314453,-433.29981286231487,0.06027483268150241,1,-1025861.9217096163,0.0011591814691200852,1.57542003E9,,,,0,,1,,1.57542003E9
Raw,1934070517,2071824000000,,,-1311853870175987161,0.0,9.32809436513757,,,0,15,0.0,39,5915702249,21,32.87620162963867,415.3458564152288,0.10872987609762397,1,527616.7228915462,0.002063268329948187,1.57542003E9,,,,0,,1,,1.57542003E9
Raw,1934070517,2071824000000,,,-1311853870175987161,0.0,9.32809436513757,,,0,18,0.0,16397,44741920287184,74,20.231040954589844,567.2895034062437,4.203649241689192,4,1065030.149779488,3.4028234663852886E38,1.57542003E9,,,,0,,1,,1.57542003E9
Raw,1934070518,2071824000000,,,-1311853870175987161,0.0,9.32809436513757,,,0,23,0.0,16431,44741931129550,8,40.574851989746094,157.8297213149608,0.045652098364066,1,119321.57776053705,8.964001899585128E-4,1.57542003E9,,,,0,,1,,1.57542003E9
Raw,1934070518,2071824000000,,,-1311853870175987161,0.0,9.32809436513757,,,0,24,0.0,16431,44741925336236,8,41.15554428100586,482.9987487165074,0.04178720520867374,1,565167.5208819688,7.954054162837565E-4,1.57542003E9,,,,0,,1,,1.57542003E9
Raw,1934070518,2071824000000,,,-1311853870175987161,0.0,9.32809436513757,,,0,25,0.0,16431,44741923922958,10,38.88336181640625,-686.1598754120887,0.05374035789493334,1,-1239029.228388208,0.0010332314996048808,1.57542003E9,,,,0,,1,,1.57542003E9
Raw,1934070518,2071824000000,,,-1311853870175987161,0.0,9.32809436513757,,,0,31,0.0,16,2071019201611,1000000000,17.434940338134766,-816.3126652480491,2.99792458E8,2,-15.486848864865213,3.4028234663852886E38,1.57542003E9,,,,0,,1,,1.57542003E9
Raw,1934070518,2071824000000,,,-1311853870175987161,0.0,9.32809436513757,,,0,32,0.0,16431,44741927604068,14,36.00753402709961,-386.44055912068984,0.07521800116873012,1,-604127.0063150022,0.001438762410543859,1.57542003E9,,,,0,,1,,1.57542003E9
Raw,1934070518,2071824000000,,,-1311853870175987161,0.0,9.32809436513757,,,0,10,0.0,32995,55523931542055,33,38.7232666015625,-730.8110972078834,0.05609744766704908,4,-1434053.1817068495,3.4028234663852886E38,1.59806246E9,,,,0,,3,,1.59806246E9
Raw,1934070519,2071824000000,,,-1311853870175987161,0.0,9.32809436513757,,,0,9,0.0,32995,55523933746960,33,42.31437301635742,-29.145725593618536,0.0382008254672227,1,-415641.7466257679,7.220458937808871E-4,1.59862502E9,,,,0,,3,,1.59862502E9
Raw,1934070519,2071824000000,,,-1311853870175987161,0.0,9.32809436513757,,,0,16,0.0,32995,55523924046075,33,36.74287033081055,574.5340362822758,0.06858327187107338,1,573966.32454838,0.0013004946522414684,1.60143744E9,,,,0,,3,,1.60143744E9
Raw,1934070519,2071824000000,,,-1311853870175987161,0.0,9.32809436513757,,,0,23,0.0,32961,55523924465813,54,30.71462059020996,60.88064002528313,0.13663379733617192,4,4252.639604434713,3.4028234663852886E38,1.60368755E9,,,,0,,3,,1.60368755E9
Raw,1934070519,2071824000000,,,-1311853870175987161,0.0,9.32809436513757,,,0,7,0.0,32961,55523933050595,33,42.64263916015625,-148.89391469889733,0.03675049462476723,1,-568740.7667647566,6.935606361366808E-4,1.60481254E9,,,,0,,3,,1.60481254E9
Raw,1934070520,2071824000000,,,-1311853870175987161,0.0,9.32809436513757,,,0,8,0.0,32961,55523928263088,33,36.5704345703125,-557.9936838019298,0.07070236691138604,1,-594689.2674894993,0.0013233169447630644,1.60537498E9,,,,0,,3,,1.60537498E9
Raw,1934070520,2071824000000,,,-1311853870175987161,0.0,9.32809436513757,,,0,193,0.0,35,9694665,12,37.870548248291016,-258.61357315907424,0.061337600394694464,1,-514256.9266882908,0.0011610162910073996,1.57542003E9,,,,0,,4,,1.57542003E9
Raw,1934070520,2071824000000,,,-1311853870175987161,0.0,9.32809436513757,,,0,194,0.0,35,12519628,24,31.831642150878906,-97.48041826625416,0.12169100328999488,1,-107189.88929900689,0.002326931804418564,1.57542003E9,,,,0,,4,,1.57542003E9
Raw,1934070520,2071824000000,,,-1311853870175987161,0.0,9.32809436513757,,,0,6,0.0,16431,44727878694771,8,35.32261276245117,-81.16126092874123,0.08327211167577675,4,-140897.03206821665,3.4028234663852886E38,1.56109798E9,,,,0,,5,,1.56109798E9
Raw,1934070520,2071824000000,,,-1311853870175987161,0.0,9.32809436513757,,,0,14,0.0,16431,44727924221462,166,27.12767791748047,152.14894266788008,0.2060383182823019,1,205199.52546740478,0.0038051498122513294,1.56109798E9,,,,1,,5,,1.56109798E9
Raw,1934070521,2071824000000,,,-1311853870175987161,0.0,9.32809436513757,,,0,16,0.0,16431,44727878050283,8,35.30975341796875,-78.77987708842181,0.08327458298671114,1,-138954.53569535972,0.0015734184999018908,1.56109798E9,,,,0,,5,,1.56109798E9
Raw,1934070521,2071824000000,,,-1311853870175987161,0.0,9.32809436513757,,,0,24,0.0,16431,44727924100209,8,35.26062774658203,69.54804729622947,0.08121918452957283,1,-59472.86131289565,0.0015823426656425,1.56109798E9,,,,0,,5,,1.56109798E9
Raw,1934070521,2071824000000,,,-1311853870175987161,0.0,9.32809436513757,,,0,25,0.0,16431,44727923705849,14,30.28687286376953,-549.8870692706098,0.14335370781239898,1,-936442.2171825056,0.0026449167635291815,1.56109798E9,,,,0,,5,,1.56109798E9
Raw,1934070521,2071824000000,,,-1311853870175987161,0.0,9.32809436513757,,,0,26,0.0,16431,44727914609419,6,39.400177001953125,447.9320930966878,0.052599053251592226,1,783230.15434001,9.824784938246012E-4,1.56109798E9,,,,0,,5,,1.56109798E9
Raw,1934070521,2071824000000,,,-1311853870175987161,0.0,9.32809436513757,,,0,27,0.0,16431,44727912962139,14,30.40941619873047,150.09600294045686,0.14301973967885417,4,145297.06865643986,3.4028234663852886E38,1.56109798E9,,,,0,,5,,1.56109798E9
Raw,1934070521,2071824000000,,,-1311853870175987161,0.0,9.32809436513757,,,0,33,0.0,16431,44727926151739,6,40.816383361816406,-91.1922476408663,0.04355963024291179,1,-275805.65494019794,8.798151975497603E-4,1.56109798E9,,,,0,,5,,1.56109798E9
Fix,gps,34.486284,109.463941,358.170502,0.000000,3.000000,1627820724999
Raw,1934071552,2072824000000,,,-1311853870175987549,0.0,9.173761770556327,,,0,10,0.0,16431,44742932040991,6,43.48282241821289,-305.27639266253004,0.033396977692497096,1,-809323.955438729,6.413621013052762E-4,1.57542003E9,,,,0,,1,,1.57542003E9
Raw,1934071552,2072824000000,,,-1311853870175987549,0.0,9.173761770556327,,,0,12,0.0,16431,44742924311119,16,35.02143478393555,-433.2093580227033,0.08350426512718945,1,-1026295.1870445338,0.0015195597661659122,1.57542003E9,,,,0,,1,,1.57542003E9
Raw,1934071552,2072824000000,,,-1311853870175987549,0.0,9.173761770556327,,,0,15,0.0,39,915700822,24,31.538558959960938,415.42393932312257,0.12636215539704876,1,528032.137820664,0.002269141376018524,1.57542003E9,,,,0,,1,,1.57542003E9
Raw,1934071553,2072824000000,,,-1311853870175987549,0.0,9.173761770556327,,,0,18,0.0,16397,44742920285396,59,23.94418716430664,567.2523194461774,0.29980386581287943,4,1065596.481488895,3.4028234663852886E38,1.57542003E9,,,,0,,1,,1.57542003E9
Raw,1934071553,2072824000000,,,-1311853870175987549,0.0,9.173761770556327,,,0,23,0.0,16431,44742931129044,9,40.02040481567383,157.88812160421264,0.048529178583697236,1,119479.38773409132,9.554859134368598E-4,1.57542003E9,,,,0,,1,,1.57542003E9
Raw,1934071554,2072824000000,,,-1311853870175987549,0.0,9.173761770556327,,,0,24,0.0,16431,44742925334606,10,38.70476531982422,483.0090075359208,0.05509605916297336,1,565650.5371087886,0.0010546965058892965,1.57542003E9,,,,0,,1,,1.57542003E9
Raw,1934071554,2072824000000,,,-1311853870175987549,0.0,9.173761770556327,,,0,25,0.0,16431,44742923925260,11,38.048316955566406,-686.0904835306083,0.05909257666858683,1,-1239715.360276311,0.0011374958558008075,1.57542003E9,,,,0,,1,,1.57542003E9
Raw,1934071554,2072824000000,,,-1311853870175987549,0.0,9.173761770556327,,,0,31,0.0,16,2072019204395,1000000000,21.01471710205078,-816.3126652480491,2.99792458E8,2,-15.505999893977684,3.4028234663852886E38,1.57542003E9,,,,0,,1,,1.57542003E9
Raw,1934071555,2072824000000,,,-1311853870175987549,0.0,9.173761770556327,,,0,32,0.0,16431,44742927605300,21,32.939483642578125,-386.6005080891514,0.1065046727844649,1,-604513.5244559919,0.0019311468349769711,1.57542003E9,,,,0,,1,,1.57542003E9
Raw,1934071555,2072824000000,,,-1311853870175987549,0.0,9.173761770556327,,,0,10,0.0,32995,55524931544529,33,38.39250946044922,-730.7407510176204,0.05819465870817839,4,-1433322.5705591263,3.4028234663852886E38,1.59806246E9,,,,0,,3,,1.59806246E9
Raw,1934071555,2072824000000,,,-1311853870175987549,0.0,9.173761770556327,,,0,9,0.0,32995,55524933747035,33,42.81893539428711,-29.00421736428936,0.036184531137142234,1,-415670.8069702928,6.81297096889466E-4,1.59862502E9,,,,0,,3,,1.59862502E9
Raw,1934071556,2072824000000,,,-1311853870175987549,0.0,9.173761770556327,,,0,16,0.0,32995,55524924044172,33,36.229331970214844,574.5886363776253,0.07271571979899072,1,574540.9020775261,0.0013797027058899403,1.60143744E9,,,,0,,3,,1.60143744E9
Raw,1934071556,2072824000000,,,-1311853870175987549,0.0,9.173761770556327,,,0,23,0.0,32961,55524924465637,58,30.119749069213867,60.92855143854007,0.14626238253579416,1,4313.532741340253,0.0026246935594826937,1.60368755E9,,,,0,,3,,1.60368755E9
Raw,1934071556,2072824000000,,,-1311853870175987549,0.0,9.173761770556327,,,0,7,0.0,32961,55524933051108,33,40.28172302246094,-148.86172381871154,0.04749595842985882,1,-568889.627037005,9.101862669922411E-4,1.60481254E9,,,,0,,3,,1.60481254E9
Raw,1934071556,2072824000000,,,-1311853870175987549,0.0,9.173761770556327,,,0,8,0.0,32961,55524928264877,33,36.25734329223633,-558.0287887321483,0.0732431491420461,1,-595247.2780673947,0.0013718872796744108,1.60537498E9,,,,0,,3,,1.60537498E9
Raw,1934071557,2072824000000,,,-1311853870175987549,0.0,9.173761770556327,,,0,193,0.0,35,9695510,12,37.615787506103516,-258.6363231988032,0.06311156479769636,1,-514515.540727319,0.001195573597215116,1.57542003E9,,,,0,,4,,1.57542003E9
Raw,1934071557,2072824000000,,,-1311853870175987549,0.0,9.173761770556327,,,0,194,0.0,35,12519921,16,35.0081672668457,-97.47091778149843,0.08510728886965024,1,-107287.42073964952,0.0016141997184604406,1.57542003E9,,,,0,,4,,1.57542003E9
Raw,1934071557,2072824000000,,,-1311853870175987549,0.0,9.173761770556327,,,0,6,0.0,16431,44728878695064,11,32.092018127441406,-81.30010433600103,0.11927451884633133,4,-140978.23464958527,3.4028234663852886E38,1.56109798E9,,,,0,,5,,1.56109798E9
Raw,1934071558,2072824000000,,,-1311853870175987549,0.0,9.173761770556327,,,0,14,0.0,16431,44728924220899,10,33.01052474975586,152.10874241041142,0.10503949327412249,1,205351.6128722861,0.0020502442494034767,1.56109798E9,,,,0,,5,,1.56109798E9
Raw,1934071558,2072824000000,,,-1311853870175987549,0.0,9.173761770556327,,,0,16,0.0,16431,44728878050546,10,32.78342819213867,-78.8336847666572,0.11028951460368097,1,-139033.36055257425,0.0019841946195811033,1.56109798E9,,,,0,,5,,1.56109798E9
Raw,1934071558,2072824000000,,,-1311853870175987549,0.0,9.173761770556327,,,0,24,0.0,16431,44728924099965,6,38.766937255859375,69.59725810314134,0.054487867045745514,1,-59403.30719854251,0.0010567810386419296,1.56109798E9,,,,0,,5,,1.56109798E9
Raw,1934071559,2072824000000,,,-1311853870175987549,0.0,9.173761770556327,,,0,25,0.0,16431,44728923707664,16,29.29698944091797,-549.8161777610424,0.16057812927761428,1,-936992.0939431182,0.0029641909059137106,1.56109798E9,,,,0,,5,,1.56109798E9
Raw,1934071560,2072824000000,,,-1311853870175987549,0.0,9.173761770556327,,,0,26,0.0,16431,44728914607915,6,40.49142074584961,447.92210693692664,0.04669906882537608,1,783678.0873868805,8.664848282933235E-4,1.56109798E9,,,,0,,5,,1.56109798E9
Raw,1934071560,2072824000000,,,-1311853870175987549,0.0,9.173761770556327,,,0,27,0.0,16431,44728912961661,19,27.456451416015625,149.48412059850284,0.19998557022832641,4,145447.21140415088,3.4028234663852886E38,1.56109798E9,,,,0,,5,,1.56109798E9
Raw,1934071561,2072824000000,,,-1311853870175987549,0.0,9.173761770556327,,,0,33,0.0,16431,44728926152026,6,38.872718811035156,-91.16654094803397,0.05420634146157449,1,-275896.82217968605,0.001100461115129292,1.56109798E9,,,,0,,5,,1.56109798E9
Fix,gps,34.486284,109.463941,358.254181,0.000000,3.000000,1627820725999
Raw,1934072546,2073824000000,,,-1311853870175987937,0.0,9.045962061784259,,,0,10,0.0,16431,44743932042026,6,43.92340087890625,-305.12578228715574,0.03216606306504752,1,-809629.1400601354,6.096413126215339E-4,1.57542003E9,,,,0,,1,,1.57542003E9
Raw,1934072546,2073824000000,,,-1311853870175987937,0.0,9.045962061784259,,,0,12,0.0,16431,44743924312596,166,30.140687942504883,-433.11856235852656,0.14588459647840923,1,-1026728.3800023108,0.002665354870259762,1.57542003E9,,,,1,,1,,1.57542003E9
Raw,1934072546,2073824000000,,,-1311853870175987937,0.0,9.045962061784259,,,0,15,0.0,16431,44743915699373,31,29.399160385131836,415.44871726901465,0.16086513418249337,1,528447.5452418461,0.0029028954450041056,1.57542003E9,,,,0,,1,,1.57542003E9
Raw,1934072546,2073824000000,,,-1311853870175987937,0.0,9.045962061784259,,,0,18,0.0,16397,44743920283544,51,25.264171600341797,566.9263889144497,0.25805007738774954,4,1066163.6336523746,3.4028234663852886E38,1.57542003E9,,,,0,,1,,1.57542003E9
Raw,1934072546,2073824000000,,,-1311853870175987937,0.0,9.045962061784259,,,0,23,0.0,16431,44743931128522,9,40.06093978881836,158.01298268368396,0.048312447943115844,1,119637.31769801622,9.510371601209044E-4,1.57542003E9,,,,0,,1,,1.57542003E9
Raw,1934072546,2073824000000,,,-1311853870175987937,0.0,9.045962061784259,,,0,24,0.0,16431,44743925333008,12,37.81304168701172,483.1781928501,0.06094892642364741,1,566133.6060456388,0.0011687285732477903,1.57542003E9,,,,0,,1,,1.57542003E9
Raw,1934072547,2073824000000,,,-1311853870175987937,0.0,9.045962061784259,,,0,25,0.0,16431,44743923927556,12,37.36042785644531,-686.0082766454752,0.06390500122360074,1,-1240401.4159817023,0.0012312446488067508,1.57542003E9,,,,0,,1,,1.57542003E9
Raw,1934072547,2073824000000,,,-1311853870175987937,0.0,9.045962061784259,,,0,31,0.0,16,2073019207057,1000000000,19.042863845825195,-816.1269840249129,2.99792458E8,2,-15.496090855629285,3.4028234663852886E38,1.57542003E9,,,,0,,1,,1.57542003E9
Raw,1934072547,2073824000000,,,-1311853870175987937,0.0,9.045962061784259,,,0,32,0.0,16431,44743927606723,166,28.27789878845215,-385.8991933812815,0.18118636619678274,4,-604899.946728588,3.4028234663852886E38,1.57542003E9,,,,1,,1,,1.57542003E9
Raw,1934072547,2073824000000,,,-1311853870175987937,0.0,9.045962061784259,,,0,10,0.0,32995,55525931546974,33,36.68975067138672,-730.5628405945713,0.07034872814131293,1,-1432592.21303022,0.0013112357119098306,1.59806246E9,,,,0,,3,,1.59806246E9
Raw,1934072547,2073824000000,,,-1311853870175987937,0.0,9.045962061784259,,,0,9,0.0,32995,55525933747125,33,42.492835998535156,-28.744261947775755,0.03747427669433556,1,-415699.67958563595,7.07361672539264E-4,1.59862502E9,,,,0,,3,,1.59862502E9
Raw,1934072547,2073824000000,,,-1311853870175987937,0.0,9.045962061784259,,,0,16,0.0,32995,55525924042225,33,35.66482162475586,574.7460291618477,0.07754939596385796,1,575115.5679091684,0.001472349977120757,1.60143744E9,,,,0,,3,,1.60143744E9
Raw,1934072548,2073824000000,,,-1311853870175987937,0.0,9.045962061784259,,,0,23,0.0,32961,55525924465404,54,30.82674217224121,61.180028843993625,0.13489164794110825,1,4374.5353897012255,0.002419518306851387,1.60368755E9,,,,0,,3,,1.60368755E9
Raw,1934072548,2073824000000,,,-1311853870175987937,0.0,9.045962061784259,,,0,7,0.0,32961,55525933051614,33,40.65484619140625,-148.71820259429398,0.04559765463529922,1,-569038.4372635466,8.719152538105845E-4,1.60481254E9,,,,0,,3,,1.60481254E9
Raw,1934072548,2073824000000,,,-1311853870175987937,0.0,9.045962061784259,,,0,8,0.0,32961,55525928266828,33,35.83173751831055,-557.9509444014502,0.07684711929196619,1,-595805.3016190099,0.0014407834969460964,1.60537498E9,,,,0,,3,,1.60537498E9
Raw,1934072548,2073824000000,,,-1311853870175987937,0.0,9.045962061784259,,,0,193,0.0,35,9696387,13,37.00096893310547,-258.5436359582894,0.06761297445557127,1,-514774.1235607047,0.001283267862163484,1.57542003E9,,,,0,,4,,1.57542003E9
Raw,1934072548,2073824000000,,,-1311853870175987937,0.0,9.045962061784259,,,0,194,0.0,35,12520236,15,35.94165802001953,-97.50869818455396,0.07666451687292491,1,-107384.91213758805,0.0014497156953439116,1.57542003E9,,,,0,,4,,1.57542003E9
Raw,1934072548,2073824000000,,,-1311853870175987937,0.0,9.045962061784259,,,0,6,0.0,16431,44729878695314,14,30.15972137451172,-81.08560639587472,0.14815409200740592,1,-141059.42004321312,0.0026839198544621468,1.56109798E9,,,,0,,5,,1.56109798E9
Raw,1934072549,2073824000000,,,-1311853870175987937,0.0,9.045962061784259,,,0,14,0.0,16431,44729924220382,9,33.99181365966797,152.16284831014138,0.0938994559712078,1,205503.74778332235,0.0018312226748093963,1.56109798E9,,,,0,,5,,1.56109798E9
Raw,1934072549,2073824000000,,,-1311853870175987937,0.0,9.045962061784259,,,0,16,0.0,16431,44729878050803,11,32.000057220458984,-78.76818680583449,0.1203923668380763,1,-139112.19702182256,0.00217146473005414,1.56109798E9,,,,0,,5,,1.56109798E9
Raw,1934072549,2073824000000,,,-1311853870175987937,0.0,9.045962061784259,,,0,24,0.0,16431,44729924099734,6,38.62101745605469,69.7346189235424,0.05539844111366646,1,-59333.63476077355,0.001074684550985694,1.56109798E9,,,,0,,5,,1.56109798E9
Raw,1934072549,2073824000000,,,-1311853870175987937,0.0,9.045962061784259,,,0,25,0.0,16431,44729923709474,15,29.81402015686035,-549.7191450073219,0.1513374733273939,1,-937541.8795887938,0.002792895305901766,1.56109798E9,,,,0,,5,,1.56109798E9
Raw,1934072549,2073824000000,,,-1311853870175987937,0.0,9.045962061784259,,,0,26,0.0,16431,44729914606431,6,40.295738220214844,448.0424861733652,0.04770294944266679,1,784126.0802182944,8.862268878147006E-4,1.56109798E9,,,,0,,5,,1.56109798E9
Raw,1934072549,2073824000000,,,-1311853870175987937,0.0,9.045962061784259,,,0,27,0.0,16431,44729912961123,15,29.714818954467773,150.3007703392459,0.15473225574367544,4,145597.45506056736,3.4028234663852886E38,1.56109798E9,,,,0,,5,,1.56109798E9
Raw,1934072550,2073824000000,,,-1311853870175987937,0.0,9.045962061784259,,,0,33,0.0,16431,44729926152336,6,39.910518646240234,-91.03777742729079,0.048226359785111694,1,-275987.9381570674,9.765279828570783E-4,1.56109798E9,,,,0,,5,,1.56109798E9
Fix,gps,34.486284,109.463941,358.263916,0.000000,3.000000,1627820726999
Raw,1934073547,2074824000000,,,-1311853870175988323,0.0,8.925339743967072,,,0,10,0.0,16431,44744932043029,6,43.55903625488281,-305.2156577250064,0.033124507341068005,1,-809934.2393752923,6.357592064887285E-4,1.57542003E9,,,,0,,1,,1.57542003E9
Raw,1934073547,2074824000000,,,-1311853870175988323,0.0,8.925339743967072,,,0,12,0.0,16431,44744924314040,25,31.313648223876953,-433.0749708966339,0.1275546086879108,1,-1027161.4301414188,0.002328665228560567,1.57542003E9,,,,0,,1,,1.57542003E9
Raw,1934073548,2074824000000,,,-1311853870175988323,0.0,8.925339743967072,,,0,15,0.0,16431,44744915698018,42,26.92376708984375,415.5460567648438,0.21297884110466891,4,528863.2326383081,3.4028234663852886E38,1.57542003E9,,,,0,,1,,1.57542003E9
Raw,1934073548,2074824000000,,,-1311853870175988323,0.0,8.925339743967072,,,0,18,0.0,16397,44744920281659,61,22.771934509277344,567.0675243669107,4.203648176612425,4,1066730.8197322572,3.4028234663852886E38,1.57542003E9,,,,0,,1,,1.57542003E9
Raw,1934073548,2074824000000,,,-1311853870175988323,0.0,8.925339743967072,,,0,23,0.0,16431,44744931127974,6,42.710548400878906,158.04761045951113,0.036136731656796706,1,119795.37091609651,7.009985274635255E-4,1.57542003E9,,,,0,,1,,1.57542003E9
Raw,1934073548,2074824000000,,,-1311853870175988323,0.0,8.925339743967072,,,0,24,0.0,16431,44744925331413,8,41.19115447998047,483.1048133212064,0.041619310002011384,1,566616.7001816782,7.921511423774064E-4,1.57542003E9,,,,0,,1,,1.57542003E9
Raw,1934073551,2074824000000,,,-1311853870175988323,0.0,8.925339743967072,,,0,25,0.0,16431,44744923929850,19,33.65169143676758,-686.208136170525,0.09756673994233933,1,-1241087.3786846744,0.0018870405619964004,1.57542003E9,,,,0,,1,,1.57542003E9
Raw,1934073552,2074824000000,,,-1311853870175988323,0.0,8.925339743967072,,,0,31,0.0,16,2074019209779,1000000000,22.913402557373047,-816.1269840249129,2.99792458E8,2,-15.489708631438946,3.4028234663852886E38,1.57542003E9,,,,0,,1,,1.57542003E9
Raw,1934073552,2074824000000,,,-1311853870175988323,0.0,8.925339743967072,,,0,32,0.0,16431,44744927607932,18,34.30340576171875,-386.65885725471844,0.09122674567702987,4,-605286.33316208,3.4028234663852886E38,1.57542003E9,,,,0,,1,,1.57542003E9
Raw,1934073552,2074824000000,,,-1311853870175988323,0.0,8.925339743967072,,,0,10,0.0,32995,55526931549439,33,35.15962600708008,-730.4314868071324,0.0835004541493849,1,-1431861.3547497748,0.0015638209879398346,1.59806246E9,,,,0,,3,,1.59806246E9
Raw,1934073552,2074824000000,,,-1311853870175988323,0.0,8.925339743967072,,,0,9,0.0,32995,55526933747236,33,43.91869354248047,-28.760549101686593,0.03247279893306863,1,-415728.3783446122,6.002727895975113E-4,1.59862502E9,,,,0,,3,,1.59862502E9
Raw,1934073553,2074824000000,,,-1311853870175988323,0.0,8.925339743967072,,,0,16,0.0,32995,55526924040347,35,34.62364196777344,574.5795022792772,0.08733244225733588,1,575690.2880301198,0.0016598544316366315,1.60143744E9,,,,0,,3,,1.60143744E9
Raw,1934073553,2074824000000,,,-1311853870175988323,0.0,8.925339743967072,,,0,23,0.0,32961,55526924465202,33,36.05644989013672,62.26722086430769,0.07423863811934578,1,4436.038625377553,0.0014054643688723445,1.60368755E9,,,,0,,3,,1.60368755E9
Raw,1934073554,2074824000000,,,-1311853870175988323,0.0,8.925339743967072,,,0,7,0.0,32961,55526933052063,33,41.75727462768555,-148.9976446553245,0.04044245842159375,1,-569187.1603045388,7.67985126003623E-4,1.60481254E9,,,,0,,3,,1.60481254E9
Raw,1934073554,2074824000000,,,-1311853870175988323,0.0,8.925339743967072,,,0,8,0.0,32961,55526928268646,49,31.543624877929688,-558.445992082444,0.1249532585370775,1,-596363.3361738775,0.0023605020251125097,1.60537498E9,,,,0,,3,,1.60537498E9
Raw,1934073554,2074824000000,,,-1311853870175988323,0.0,8.925339743967072,,,0,193,0.0,35,9697251,11,37.922969818115234,-258.69467236437026,0.060979514097030674,1,-515032.7143830846,0.0011540304403752089,1.57542003E9,,,,0,,4,,1.57542003E9
Raw,1934073555,2074824000000,,,-1311853870175988323,0.0,8.925339743967072,,,0,194,0.0,35,12520547,11,38.519039154052734,-97.42260589937734,0.05755868306499115,1,-107482.35215253438,0.0010774913243949413,1.57542003E9,,,,0,,4,,1.57542003E9
Raw,1934073555,2074824000000,,,-1311853870175988323,0.0,8.925339743967072,,,0,6,0.0,16431,44730878695570,15,29.63716697692871,-81.29280216969102,0.15713230638567088,1,-141140.61462879876,0.0028503439389169216,1.56109798E9,,,,0,,5,,1.56109798E9
Raw,1934073555,2074824000000,,,-1311853870175988323,0.0,8.925339743967072,,,0,14,0.0,16431,44730924219895,6,38.20063400268555,152.19042101746834,0.058130625128058444,1,205655.9367445397,0.0011279769241809845,1.56109798E9,,,,0,,5,,1.56109798E9
Raw,1934073556,2074824000000,,,-1311853870175988323,0.0,8.925339743967072,,,0,16,0.0,16431,44730878051057,9,33.60077667236328,-78.93015515984501,0.10067624820348708,1,-139191.0302661873,0.0019155481131747365,1.56109798E9,,,,0,,5,,1.56109798E9
Raw,1934073556,2074824000000,,,-1311853870175988323,0.0,8.925339743967072,,,0,24,0.0,16431,44730924099505,6,43.11177062988281,69.73208404083852,0.03333156284094581,1,-59263.85712719136,6.754947826266289E-4,1.56109798E9,,,,0,,5,,1.56109798E9
Raw,1934073556,2074824000000,,,-1311853870175988323,0.0,8.925339743967072,,,0,25,0.0,16431,44730923711294,9,34.163692474365234,-549.5687391266868,0.09198291689748078,1,-938091.5384654925,0.0017953424248844385,1.56109798E9,,,,0,,5,,1.56109798E9
Raw,1934073557,2074824000000,,,-1311853870175988323,0.0,8.925339743967072,,,0,26,0.0,16431,44730914604945,6,39.93397521972656,447.95949539173216,0.04961970486011197,1,784574.1123622176,9.239173377864063E-4,1.56109798E9,,,,0,,5,,1.56109798E9
Raw,1934073557,2074824000000,,,-1311853870175988323,0.0,8.925339743967072,,,0,27,0.0,16431,44730912960610,17,28.538734436035156,151.31100843303852,0.1768297861768492,4,145747.7020918977,3.4028234663852886E38,1.56109798E9,,,,0,,5,,1.56109798E9
Raw,1934073557,2074824000000,,,-1311853870175988323,0.0,8.925339743967072,,,0,33,0.0,16431,44730926152658,6,37.741241455078125,-91.23600099442746,0.06159431717903083,1,-276078.95070255746,0.0011892409529536963,1.56109798E9,,,,0,,5,,1.56109798E9
Fix,gps,34.486284,109.463941,358.307220,0.000000,3.000000,1627820727999
Raw,1934074494,2075824000000,,,-1311853870175988711,0.0,8.71570028217625,,,0,10,0.0,16431,44745932044054,6,42.90279769897461,-304.8470900401687,0.03555428028157406,1,-810239.239795664,6.856532418169081E-4,1.57542003E9,,,,0,,1,,1.57542003E9
Raw,1934074495,2075824000000,,,-1311853870175988711,0.0,8.71570028217625,,,0,12,0.0,16431,44745924315465,9,39.88932800292969,-433.1645055099193,0.04801103537869836,1,-1027594.4348296451,9.700141381472349E-4,1.57542003E9,,,,0,,1,,1.57542003E9
Raw,1934074495,2075824000000,,,-1311853870175988711,0.0,8.71570028217625,,,0,15,0.0,16431,44745915696752,41,27.08695411682129,415.20427789083305,0.20906716362022404,4,529279.1467526138,3.4028234663852886E38,1.57542003E9,,,,0,,1,,1.57542003E9
Raw,1934074495,2075824000000,,,-1311853870175988711,0.0,8.71570028217625,,,0,18,0.0,16397,44745920279658,63,23.41928482055664,567.2162602071762,0.31825176092977636,4,1067298.0219915546,3.4028234663852886E38,1.57542003E9,,,,0,,1,,1.57542003E9
Raw,1934074495,2075824000000,,,-1311853870175988711,0.0,8.71570028217625,,,0,23,0.0,16431,44745931127422,7,42.501556396484375,158.09420117757782,0.03696792838243265,1,119953.49881204858,7.180699030868709E-4,1.57542003E9,,,,0,,1,,1.57542003E9
Raw,1934074495,2075824000000,,,-1311853870175988711,0.0,8.71570028217625,,,0,24,0.0,16431,44745925329802,7,41.73573684692383,483.083341373597,0.03914799490716203,1,567099.7536704097,7.842557970434427E-4,1.57542003E9,,,,0,,1,,1.57542003E9
Raw,1934074495,2075824000000,,,-1311853870175988711,0.0,8.71570028217625,,,0,25,0.0,16431,44745923932093,16,35.010128021240234,-686.106570450087,0.08354382274396421,1,-1241773.3442620721,0.0016138356877490878,1.57542003E9,,,,0,,1,,1.57542003E9
Raw,1934074496,2075824000000,,,-1311853870175988711,0.0,8.71570028217625,,,0,31,0.0,16,2075019212562,1000000000,12.620269775390625,-816.1269840249129,2.99792458E8,2,-15.483326406921085,3.4028234663852886E38,1.57542003E9,,,,0,,1,,1.57542003E9
Raw,1934074496,2075824000000,,,-1311853870175988711,0.0,8.71570028217625,,,0,32,0.0,16431,44745927609204,20,33.25035095214844,-386.2402906061618,0.10280905610716634,4,-605672.6436220664,3.4028234663852886E38,1.57542003E9,,,,0,,1,,1.57542003E9
Raw,1934074496,2075824000000,,,-1311853870175988711,0.0,8.71570028217625,,,0,10,0.0,32995,55527931551811,33,36.946983337402344,-730.4770209690469,0.06835738822703127,1,-1431130.749727304,0.0012729729060083628,1.59806246E9,,,,0,,3,,1.59806246E9
Raw,1934074496,2075824000000,,,-1311853870175988711,0.0,8.71570028217625,,,0,9,0.0,32995,55527933747349,33,44.22486877441406,-28.5792538646741,0.03247281765512117,1,-415756.9811123973,5.794820608571172E-4,1.59862502E9,,,,0,,3,,1.59862502E9
Raw,1934074496,2075824000000,,,-1311853870175988711,0.0,8.71570028217625,,,0,16,0.0,32995,55527924038394,33,36.169410705566406,574.8578196192425,0.07321305240248482,1,576265.0356953728,0.0013892538845539093,1.60143744E9,,,,0,,3,,1.60143744E9
Raw,1934074497,2075824000000,,,-1311853870175988711,0.0,8.71570028217625,,,0,23,0.0,32961,55527924465007,33,35.30928039550781,62.08862027151403,0.0808352826016937,4,4497.848578211785,3.4028234663852886E38,1.60368755E9,,,,0,,3,,1.60368755E9
Raw,1934074497,2075824000000,,,-1311853870175988711,0.0,8.71570028217625,,,0,7,0.0,32961,55527933052562,33,41.03044891357422,-148.7437644366861,0.043767436705118984,1,-569335.9190236498,8.350145071744919E-4,1.60481254E9,,,,0,,3,,1.60481254E9
Raw,1934074497,2075824000000,,,-1311853870175988711,0.0,8.71570028217625,,,0,8,0.0,32961,55527928270486,40,33.432437896728516,-557.810115691098,0.10082363652194132,1,-596921.3081203762,0.0018991692923009396,1.60537498E9,,,,0,,3,,1.60537498E9
Raw,1934074498,2075824000000,,,-1311853870175988711,0.0,8.71570028217625,,,0,193,0.0,35,9698115,11,38.32697677612305,-258.65039925334713,0.05828754505148018,1,-515291.3449403362,0.0011015821946784854,1.57542003E9,,,,0,,4,,1.57542003E9
Raw,1934074498,2075824000000,,,-1311853870175988711,0.0,8.71570028217625,,,0,194,0.0,35,12520894,8,41.06289291381836,-97.67672469521142,0.04351737665057223,1,-107579.86094418807,8.039352833293378E-4,1.57542003E9,,,,0,,4,,1.57542003E9
Raw,1934074498,2075824000000,,,-1311853870175988711,0.0,8.71570028217625,,,0,6,0.0,16431,44731878695861,15,29.53329086303711,-81.29914150660426,0.15898236137062416,4,-141221.5440397791,3.4028234663852886E38,1.56109798E9,,,,0,,5,,1.56109798E9
Raw,1934074498,2075824000000,,,-1311853870175988711,0.0,8.71570028217625,,,0,14,0.0,16431,44731924219395,6,37.94944763183594,152.01631078832156,0.05981387910630853,1,205808.13076136552,0.0011610729852691293,1.56109798E9,,,,0,,5,,1.56109798E9
Raw,1934074498,2075824000000,,,-1311853870175988711,0.0,8.71570028217625,,,0,16,0.0,16431,44731878051330,9,34.023223876953125,-78.74355371038263,0.09605110242019166,1,-139269.88066497532,0.0018246129620820284,1.56109798E9,,,,0,,5,,1.56109798E9
Raw,1934074499,2075824000000,,,-1311853870175988711,0.0,8.71570028217625,,,0,24,0.0,16431,44731924099270,6,45.4106330871582,69.77467007026377,0.03073736243395217,1,-59194.05267303361,5.184166948311031E-4,1.56109798E9,,,,0,,5,,1.56109798E9
Raw,1934074499,2075824000000,,,-1311853870175988711,0.0,8.71570028217625,,,0,25,0.0,16431,44731923713152,9,34.08553695678711,-549.6188744202318,0.09280862598149642,1,-938641.1099712623,0.0018115699058398604,1.56109798E9,,,,0,,5,,1.56109798E9
Raw,1934074499,2075824000000,,,-1311853870175988711,0.0,8.71570028217625,,,0,26,0.0,16431,44731914603438,6,40.87763977050781,448.0145385590165,0.04478155620491733,1,785022.0691520621,8.288005483336747E-4,1.56109798E9,,,,0,,5,,1.56109798E9
Raw,1934074499,2075824000000,,,-1311853870175988711,0.0,8.71570028217625,,,0,27,0.0,16431,44731912960101,25,25.430532455444336,152.4605756090964,0.25190659810674165,4,145898.66063288166,3.4028234663852886E38,1.56109798E9,,,,0,,5,,1.56109798E9
Raw,1934074499,2075824000000,,,-1311853870175988711,0.0,8.71570028217625,,,0,33,0.0,16431,44731926152957,7,35.801021575927734,-90.98535860915871,0.07673384671368372,1,-276169.96671021625,0.0014868967700749636,1.56109798E9,,,,0,,5,,1.56109798E9
Fix,gps,34.486284,109.463941,358.287415,0.000000,3.000000,1627820728999
Raw,1934075514,2076824000000,,,-1311853870175989099,0.0,9.113715837119587,,,0,10,0.0,16431,44746932045092,10,39.290958404541016,-304.2411380456497,0.05277010208399241,4,-810543.9897871023,3.4028234663852886E38,1.57542003E9,,,,0,,1,,1.57542003E9
Raw,1934075514,2076824000000,,,-1311853870175989099,0.0,9.113715837119587,,,0,12,0.0,16431,44746924316929,11,38.03990936279297,-433.41586362677504,0.059219570431148144,1,-1028027.8387373898,0.0011385977268218994,1.57542003E9,,,,0,,1,,1.57542003E9
Raw,1934075515,2076824000000,,,-1311853870175989099,0.0,9.113715837119587,,,0,15,0.0,16431,44746915695312,29,30.10028076171875,414.85237652723504,0.14860869672656296,4,529693.9546938976,3.4028234663852886E38,1.57542003E9,,,,0,,1,,1.57542003E9
Raw,1934075515,2076824000000,,,-1311853870175989099,0.0,9.113715837119587,,,0,18,0.0,16397,44746920277851,67,21.540424346923828,567.4782861329236,4.203647644074042,4,1067865.1539232659,3.4028234663852886E38,1.57542003E9,,,,0,,1,,1.57542003E9
Raw,1934075515,2076824000000,,,-1311853870175989099,0.0,9.113715837119587,,,0,23,0.0,16431,44746931126926,7,41.46067810058594,158.1981867524289,0.04141945001099054,1,120111.49649757825,8.094885270111263E-4,1.57542003E9,,,,0,,1,,1.57542003E9
Raw,1934075515,2076824000000,,,-1311853870175989099,0.0,9.113715837119587,,,0,24,0.0,16431,44746925328169,6,43.221134185791016,482.55128014481943,0.03314475212054066,1,567582.5612351906,6.609790725633502E-4,1.57542003E9,,,,0,,1,,1.57542003E9
Raw,1934075516,2076824000000,,,-1311853870175989099,0.0,9.113715837119587,,,0,25,0.0,16431,44746923934417,23,32.120609283447266,-686.6894486215401,0.11623851752388537,4,-1242459.590210407,3.4028234663852886E38,1.57542003E9,,,,0,,1,,1.57542003E9
Raw,1934075516,2076824000000,,,-1311853870175989099,0.0,9.113715837119587,,,0,31,0.0,16,2076019215224,1000000000,20.104816436767578,-816.1269840249129,2.99792458E8,2,-15.502473080145593,3.4028234663852886E38,1.57542003E9,,,,0,,1,,1.57542003E9
Raw,1934075517,2076824000000,,,-1311853870175989099,0.0,9.113715837119587,,,0,32,0.0,16431,44746927610495,12,37.56349182128906,-385.8228486786704,0.06310710478873732,4,-606058.5877207278,3.4028234663852886E38,1.57542003E9,,,,0,,1,,1.57542003E9
Raw,1934075517,2076824000000,,,-1311853870175989099,0.0,9.113715837119587,,,0,10,0.0,32995,55528931554319,33,37.75189971923828,-730.1966586816902,0.062491756686985644,1,-1430400.1406561704,0.0011603082530200481,1.59806246E9,,,,0,,3,,1.59806246E9
Raw,1934075524,2076824000000,,,-1311853870175989099,0.0,9.113715837119587,,,0,9,0.0,32995,55528933747426,33,41.28651428222656,-28.26781689758279,0.04268918377425385,1,-415785.6003165811,8.12751124612987E-4,1.59862502E9,,,,0,,3,,1.59862502E9
Raw,1934075524,2076824000000,,,-1311853870175989099,0.0,9.113715837119587,,,0,16,0.0,32995,55528924036463,34,34.72288131713867,574.3823011858362,0.0863478536750667,1,576839.6354271692,0.001640997943468392,1.60143744E9,,,,0,,3,,1.60143744E9
Raw,1934075524,2076824000000,,,-1311853870175989099,0.0,9.113715837119587,,,0,23,0.0,32961,55528924464756,41,33.1473388671875,62.19519611306086,0.10345369381999231,4,4559.905624098925,3.4028234663852886E38,1.60368755E9,,,,0,,3,,1.60368755E9
Raw,1934075524,2076824000000,,,-1311853870175989099,0.0,9.113715837119587,,,0,7,0.0,32961,55528933053084,33,46.45103454589844,-148.91354619385447,0.03234793324381194,1,-569484.7402779621,4.473678709473461E-4,1.60481254E9,,,,0,,3,,1.60481254E9
Raw,1934075525,2076824000000,,,-1311853870175989099,0.0,9.113715837119587,,,0,8,0.0,32961,55528928272371,47,32.05082702636719,-557.0875335303579,0.1179507365976325,4,-597478.9601187735,3.4028234663852886E38,1.60537498E9,,,,0,,3,,1.60537498E9
Raw,1934075525,2076824000000,,,-1311853870175989099,0.0,9.113715837119587,,,0,193,0.0,35,9698964,8,40.6646728515625,-259.04434132706604,0.044945698680160795,1,-515550.2950381588,8.871781174093485E-4,1.57542003E9,,,,0,,4,,1.57542003E9
Raw,1934075525,2076824000000,,,-1311853870175989099,0.0,9.113715837119587,,,0,194,0.0,35,12521202,9,39.6170654296875,-97.85035776996688,0.05099109520817488,1,-107677.69451958827,9.49538080021739E-4,1.57542003E9,,,,0,,4,,1.57542003E9
Raw,1934075525,2076824000000,,,-1311853870175989099,0.0,9.113715837119587,,,0,6,0.0,16431,44732878696114,9,33.77727127075195,-81.13645742100675,0.09883251711183394,4,-141302.71909835085,3.4028234663852886E38,1.56109798E9,,,,0,,5,,1.56109798E9
Raw,1934075525,2076824000000,,,-1311853870175989099,0.0,9.113715837119587,,,0,14,0.0,16431,44732924218881,6,40.70595169067383,151.79293436827106,0.043755142557288795,1,205959.98236442643,8.453454938717186E-4,1.56109798E9,,,,0,,5,,1.56109798E9
Raw,1934075525,2076824000000,,,-1311853870175989099,0.0,9.113715837119587,,,0,16,0.0,16431,44732878051592,7,36.21841049194336,-78.65937004277129,0.07532588179588301,1,-139348.59560252502,0.0014171355869621038,1.56109798E9,,,,0,,5,,1.56109798E9
Raw,1934075526,2076824000000,,,-1311853870175989099,0.0,9.113715837119587,,,0,24,0.0,16431,44732924099042,6,45.824951171875,69.56114348014836,0.030737320829390985,1,-59124.426712160464,4.942686064168811E-4,1.56109798E9,,,,0,,5,,1.56109798E9
Raw,1934075526,2076824000000,,,-1311853870175989099,0.0,9.113715837119587,,,0,25,0.0,16431,44732923714986,8,34.7625846862793,-549.3700384051588,0.08589954788647308,1,-939190.6466301271,0.0016757245175540447,1.56109798E9,,,,0,,5,,1.56109798E9
Raw,1934075526,2076824000000,,,-1311853870175989099,0.0,9.113715837119587,,,0,26,0.0,16431,44732914601948,6,40.319618225097656,447.49927998130465,0.047578377065566446,1,785469.7644548748,8.837938075885177E-4,1.56109798E9,,,,0,,5,,1.56109798E9
Raw,1934075527,2076824000000,,,-1311853870175989099,0.0,9.113715837119587,,,0,27,0.0,16431,44732912959576,25,25.231613159179688,150.90132026440608,0.2576881343472639,4,146049.0026467568,3.4028234663852886E38,1.56109798E9,,,,0,,5,,1.56109798E9
Raw,1934075527,2076824000000,,,-1311853870175989099,0.0,9.113715837119587,,,0,33,0.0,16431,44732926153247,6,42.71779251098633,-91.13522769110364,0.035213443234977604,1,-276261.08611035836,7.068400154821575E-4,1.56109798E9,,,,0,,5,,1.56109798E9
Fix,gps,34.486284,109.463941,358.238220,0.000000,3.000000,1627820729999
Raw,1934076523,2077824000000,,,-1311853870175989488,0.0,9.453105826520408,,,0,10,0.0,16431,44747932046089,8,40.800376892089844,-304.6833238365766,0.04469817650384633,4,-810848.7942578585,3.4028234663852886E38,1.57542003E9,,,,0,,1,,1.57542003E9
Raw,1934076524,2077824000000,,,-1311853870175989488,0.0,9.453105826520408,,,0,12,0.0,16431,44747924318356,12,37.325199127197266,-433.40989919688354,0.06423214204865507,4,-1028461.4773115221,3.4028234663852886E38,1.57542003E9,,,,0,,1,,1.57542003E9
Raw,1934076524,2077824000000,,,-1311853870175989488,0.0,9.453105826520408,,,0,15,0.0,16431,44747915693927,22,32.50893783569336,414.2750878786517,0.11330238379010804,4,530108.4119869891,3.4028234663852886E38,1.57542003E9,,,,0,,1,,1.57542003E9
Raw,1934076524,2077824000000,,,-1311853870175989488,0.0,9.453105826520408,,,0,18,0.0,16397,44747920275973,73,20.370086669921875,567.480331080315,4.203647111535659,4,1068433.1042024775,3.4028234663852886E38,1.57542003E9,,,,0,,1,,1.57542003E9
Raw,1934076524,2077824000000,,,-1311853870175989488,0.0,9.453105826520408,,,0,23,0.0,16431,44747931126382,6,42.72471237182617,158.0917301994799,0.036080827607932325,1,120269.42726198083,6.998560857027769E-4,1.57542003E9,,,,0,,1,,1.57542003E9
Raw,1934076524,2077824000000,,,-1311853870175989488,0.0,9.453105826520408,,,0,24,0.0,16431,44747925326573,6,43.3184814453125,482.7720322157177,0.03278575676321498,1,568065.1834159697,6.536125438287854E-4,1.57542003E9,,,,0,,1,,1.57542003E9
Raw,1934076524,2077824000000,,,-1311853870175989488,0.0,9.453105826520408,,,0,25,0.0,16431,44747923936708,19,33.64366149902344,-686.3266749543113,0.0976575543784941,4,-1243146.0523521171,3.4028234663852886E38,1.57542003E9,,,,0,,1,,1.57542003E9
Raw,1934076525,2077824000000,,,-1311853870175989488,0.0,9.453105826520408,,,0,31,0.0,16,2077019218007,1000000000,23.222354888916016,-816.1269840249129,2.99792458E8,2,-15.496090855627733,3.4028234663852886E38,1.57542003E9,,,,0,,1,,1.57542003E9
Raw,1934076525,2077824000000,,,-1311853870175989488,0.0,9.453105826520408,,,0,32,0.0,16431,44747927611779,13,37.06170654296875,-386.04387340922085,0.06677902350798487,4,-606444.4332297728,3.4028234663852886E38,1.57542003E9,,,,0,,1,,1.57542003E9
Raw,1934076525,2077824000000,,,-1311853870175989488,0.0,9.453105826520408,,,0,10,0.0,32995,55529931556681,33,37.953399658203125,-730.3538469711734,0.06110680741243252,1,-1429669.127825451,0.001133700367063284,1.59806246E9,,,,0,,3,,1.59806246E9
Raw,1934076525,2077824000000,,,-1311853870175989488,0.0,9.453105826520408,,,0,9,0.0,32995,55529933747523,33,42.41252899169922,-28.71387104732507,0.0377994621050142,4,-415814.2964466665,3.4028234663852886E38,1.59862502E9,,,,0,,3,,1.59862502E9
Raw,1934076525,2077824000000,,,-1311853870175989488,0.0,9.453105826520408,,,0,16,0.0,32995,55529924034601,33,37.10673904418945,574.6647084205842,0.0657973389240864,1,577414.1181577478,0.0012471398804336786,1.60143744E9,,,,0,,3,,1.60143744E9
Raw,1934076525,2077824000000,,,-1311853870175989488,0.0,9.453105826520408,,,0,23,0.0,32961,55529924464569,34,34.799964904785156,62.11663605077578,0.08566838462361659,4,4622.3275807908085,3.4028234663852886E38,1.60368755E9,,,,0,,3,,1.60368755E9
Raw,1934076526,2077824000000,,,-1311853870175989488,0.0,9.453105826520408,,,0,7,0.0,32961,55529933053564,33,46.35832214355469,-148.89302855502774,0.03234801853316237,1,-569633.6946994715,4.5216857688501477E-4,1.60481254E9,,,,0,,3,,1.60481254E9
Raw,1934076526,2077824000000,,,-1311853870175989488,0.0,9.453105826520408,,,0,8,0.0,32961,55529928274251,52,31.10721206665039,-557.1970063807091,0.13131617691559994,4,-598036.7703589593,3.4028234663852886E38,1.60537498E9,,,,0,,3,,1.60537498E9
Raw,1934076526,2077824000000,,,-1311853870175989488,0.0,9.453105826520408,,,0,193,0.0,35,9699828,10,39.44664001464844,-259.3508789410322,0.05144933616597949,1,-515809.53820516495,9.683530661277473E-4,1.57542003E9,,,,0,,4,,1.57542003E9
Raw,1934076526,2077824000000,,,-1311853870175989488,0.0,9.453105826520408,,,0,194,0.0,35,12521521,10,38.70067596435547,-97.88445726771795,0.05641427888184175,1,-107775.79185393912,0.0010551930172368884,1.57542003E9,,,,0,,4,,1.57542003E9
Raw,1934076526,2077824000000,,,-1311853870175989488,0.0,9.453105826520408,,,0,6,0.0,16431,44733878696397,9,33.9120979309082,-81.28880600166372,0.09736207878495773,4,-141383.9345061189,3.4028234663852886E38,1.56109798E9,,,,0,,5,,1.56109798E9
Raw,1934076526,2077824000000,,,-1311853870175989488,0.0,9.453105826520408,,,0,14,0.0,16431,44733924218373,6,40.03422927856445,151.85428279001212,0.04721212379254203,1,206111.63544706412,9.133148123510182E-4,1.56109798E9,,,,0,,5,,1.56109798E9
Raw,1934076527,2077824000000,,,-1311853870175989488,0.0,9.453105826520408,,,0,16,0.0,16431,44733878051858,7,35.71978759765625,-78.7136293135556,0.07958479094797849,1,-139427.3581131992,0.0015008678892627358,1.56109798E9,,,,0,,5,,1.56109798E9
Raw,1934076527,2077824000000,,,-1311853870175989488,0.0,9.453105826520408,,,0,24,0.0,16431,44733924098813,6,45.79735565185547,69.58726342276603,0.03073728130505786,1,-59054.92223878616,4.95841377414763E-4,1.56109798E9,,,,0,,5,,1.56109798E9
Raw,1934076527,2077824000000,,,-1311853870175989488,0.0,9.453105826520408,,,0,25,0.0,16431,44733923716799,7,36.2952995300293,-549.5178881015547,0.0721121873926156,1,-939740.1076205047,0.001404646085575223,1.56109798E9,,,,0,,5,,1.56109798E9
Raw,1934076527,2077824000000,,,-1311853870175989488,0.0,9.453105826520408,,,0,26,0.0,16431,44733914600458,6,40.44214630126953,447.6152625808518,0.04694845488603164,1,785917.2393626914,8.714140276424587E-4,1.56109798E9,,,,0,,5,,1.56109798E9
Raw,1934076527,2077824000000,,,-1311853870175989488,0.0,9.453105826520408,,,0,27,0.0,16431,44733912959088,23,26.097898483276367,150.53121886902488,0.2334488510297561,4,146200.26630166356,3.4028234663852886E38,1.56109798E9,,,,0,,5,,1.56109798E9
Raw,1934076527,2077824000000,,,-1311853870175989488,0.0,9.453105826520408,,,0,33,0.0,16431,44733926153551,6,42.069557189941406,-91.1613859764849,0.037856298096049124,1,-276352.3107441602,7.616101065650582E-4,1.56109798E9,,,,0,,5,,1.56109798E9
Raw,1934077534,2078824000000,,,-1311853870175989877,0.0,9.720967647514227,,,0,10,0.0,16431,44748932047103,7,41.71498107910156,-305.0110948209565,0.04044763402900517,4,-811153.4298286547,3.4028234663852886E38,1.57542003E9,,,,0,,1,,1.57542003E9
Raw,1934077534,2078824000000,,,-1311853870175989877,0.0,9.720967647514227,,,0,12,0.0,16431,44748924319823,11,38.5400390625,-433.9308495448347,0.055950001102209185,4,-1028895.0572172407,3.4028234663852886E38,1.57542003E9,,,,0,,1,,1.57542003E9
Raw,1934077534,2078824000000,,,-1311853870175989877,0.0,9.720967647514227,,,0,15,0.0,16431,44748915692572,21,32.69568634033203,414.644609872272,0.11095219205423679,4,530522.6882672098,3.4028234663852886E38,1.57542003E9,,,,0,,1,,1.57542003E9
Raw,1934077535,2078824000000,,,-1311853870175989877,0.0,9.720967647514227,,,0,18,0.0,16397,44748920273994,85,17.99347496032715,567.5000307401851,4.2036468452664675,4,1069001.4775569069,3.4028234663852886E38,1.57542003E9,,,,0,,1,,1.57542003E9
Raw,1934077535,2078824000000,,,-1311853870175989877,0.0,9.720967647514227,,,0,23,0.0,16431,44748931125864,6,42.89906692504883,157.55452251976737,0.03540347206819042,1,120427.40232642514,6.859480054117739E-4,1.57542003E9,,,,0,,1,,1.57542003E9
Raw,1934077535,2078824000000,,,-1311853870175989877,0.0,9.720967647514227,,,0,24,0.0,16431,44748925324956,6,43.433189392089844,482.5083362496007,0.032367899272724654,1,568547.728636247,6.450375658459961E-4,1.57542003E9,,,,0,,1,,1.57542003E9
Raw,1934077536,2078824000000,,,-1311853870175989877,0.0,9.720967647514227,,,0,25,0.0,16431,44748923938978,19,33.5400276184082,-686.6407107087125,0.09882164167954016,4,-1243832.5420421408,3.4028234663852886E38,1.57542003E9,,,,0,,1,,1.57542003E9
Raw,1934077536,2078824000000,,,-1311853870175989877,0.0,9.720967647514227,,,0,31,0.0,16,2078019220669,1000000000,25.713077545166016,-816.3126652480491,2.99792458E8,2,-15.493232541355573,3.4028234663852886E38,1.57542003E9,,,,0,,1,,1.57542003E9
Raw,1934077536,2078824000000,,,-1311853870175989877,0.0,9.720967647514227,,,0,32,0.0,16431,44748927613091,17,34.73381805419922,-385.7881527379302,0.08688345415393883,4,-606830.0583520894,3.4028234663852886E38,1.57542003E9,,,,0,,1,,1.57542003E9
Raw,1934077536,2078824000000,,,-1311853870175989877,0.0,9.720967647514227,,,0,10,0.0,32995,55530931559125,33,36.95027160644531,-730.5763372473543,0.06833361954122624,1,-1428938.7491370959,0.001272491179406643,1.59806246E9,,,,0,,3,,1.59806246E9
Raw,1934077536,2078824000000,,,-1311853870175989877,0.0,9.720967647514227,,,0,9,0.0,32995,55530933747643,33,42.705909729003906,-28.632893260780406,0.03662618435640236,4,-415842.81324500433,3.4028234663852886E38,1.59862502E9,,,,0,,3,,1.59862502E9
Raw,1934077537,2078824000000,,,-1311853870175989877,0.0,9.720967647514227,,,0,16,0.0,32995,55530924032670,33,40.10297393798828,574.5557808895373,0.04681253278464001,1,577988.5826538039,8.832903113216162E-4,1.60143744E9,,,,0,,3,,1.60143744E9
Raw,1934077537,2078824000000,,,-1311853870175989877,0.0,9.720967647514227,,,0,24,0.0,16,639883798,1000000000,37.06996154785156,-394.14895422999734,2.99792458E8,6,-251.87505273847142,3.4028234663852886E38,1.60312499E9,,,,0,,3,,1.60312499E9
Raw,1934077537,2078824000000,,,-1311853870175989877,0.0,9.720967647514227,,,0,23,0.0,32961,55530924464317,36,34.38105392456055,63.18257765944787,0.0898615918526886,4,4685.048600327598,3.4028234663852886E38,1.60368755E9,,,,0,,3,,1.60368755E9
Raw,1934077537,2078824000000,,,-1311853870175989877,0.0,9.720967647514227,,,0,7,0.0,32961,55530933054075,33,45.978858947753906,-149.07194441054423,0.032348112143425034,1,-569782.6135737514,4.723604070022702E-4,1.60481254E9,,,,0,,3,,1.60481254E9
Raw,1934077537,2078824000000,,,-1311853870175989877,0.0,9.720967647514227,,,0,8,0.0,32961,55530928276082,51,31.25196647644043,-558.0409220866704,0.12917077115079384,4,-598594.2790876732,3.4028234663852886E38,1.60537498E9,,,,0,,3,,1.60537498E9
