# 
# Header Description:
# 
# Version: v2.0.0.1 Platform: 10 Manufacturer: HUAWEI Model: BLA-AL00
# 
# Raw,ElapsedRealtimeMillis,TimeNanos,LeapSecond,TimeUncertaintyNanos,FullBiasNanos,BiasNanos,BiasUncertaintyNanos,DriftNanosPerSecond,DriftUncertaintyNanosPerSecond,HardwareClockDiscontinuityCount,Svid,TimeOffsetNanos,State,ReceivedSvTimeNanos,ReceivedSvTimeUncertaintyNanos,Cn0DbHz,PseudorangeRateMetersPerSecond,PseudorangeRateUncertaintyMetersPerSecond,AccumulatedDeltaRangeState,AccumulatedDeltaRangeMeters,AccumulatedDeltaRangeUncertaintyMeters,CarrierFrequencyHz,CarrierCycles,CarrierPhase,CarrierPhaseUncertainty,MultipathIndicator,SnrInDb,ConstellationType,AgcDb,CarrierFrequencyHz
# 
# Fix,Provider,Latitude,Longitude,Altitude,Speed,Accuracy,(UTC)TimeInMs
# 
# Nav,Svid,Type,Status,MessageId,Sub-messageId,Data(Bytes)
# 
Raw,2065724112,1978291000000,,,-1311985616708879198,0.0,7.16690918061402,,,0,1,0.0,16431,176394924578887,17,34.586692810058594,513.0589982152349,0.08779848823081882,4,644532.2573557423,3.4028234663852886E38,1.57542003E9,,,,0,,1,,1.57542003E9
Raw,2065724112,1978291000000,,,-1311985616708879198,0.0,7.16690918061402,,,0,2,0.0,16,1978015290495,1000000000,7.0,-680.7865716465285,2.99792458E8,2,-10.209178071268164,3.4028234663852886E38,1.57542003E9,,,,0,,1,,1.57542003E9
Raw,2065724113,1978291000000,,,-1311985616708879198,0.0,7.16690918061402,,,0,3,0.0,16431,176394926177095,25,31.312496185302734,-128.2878659799453,0.1279065167082386,4,-25412.936197302457,3.4028234663852886E38,1.57542003E9,,,,0,,1,,1.57542003E9
Raw,2065724113,1978291000000,,,-1311985616708879198,0.0,7.16690918061402,,,0,6,0.0,16431,176394925351839,13,36.642574310302734,-616.118450475235,0.06960619489601849,1,-540325.3265715023,0.0013373249676078558,1.57542003E9,,,,0,,1,,1.57542003E9
Raw,2065724114,1978291000000,,,-1311985616708879198,0.0,7.16690918061402,,,0,14,0.0,16431,176394932516615,11,38.135498046875,-27.04641668409603,0.06005484024332411,4,-260246.42987045203,3.4028234663852886E38,1.57542003E9,,,,0,,1,,1.57542003E9
Raw,2065724115,1978291000000,,,-1311985616708879198,0.0,7.16690918061402,,,0,17,0.0,16431,176394929719569,20,33.30493927001953,-177.850301595764,0.1025531547722292,4,-153296.5188827788,3.4028234663852886E38,1.57542003E9,,,,0,,1,,1.57542003E9
Raw,2065724115,1978291000000,,,-1311985616708879198,0.0,7.16690918061402,,,0,19,0.0,16431,176394928192610,8,40.76197814941406,-425.70181082968475,0.044193463251197995,4,-529401.501270278,3.4028234663852886E38,1.57542003E9,,,,0,,1,,1.57542003E9
Raw,2065724116,1978291000000,,,-1311985616708879198,0.0,7.16690918061402,,,0,21,0.0,16431,176394915070801,15,35.78788375854492,468.2795582180013,0.07845242296437993,1,544898.4327191852,0.0014756100717931986,1.57542003E9,,,,0,,1,,1.57542003E9
Raw,2065724117,1978291000000,,,-1311985616708879198,0.0,7.16690918061402,,,0,22,0.0,16431,176394922469978,24,31.624738693237305,193.88536461693104,0.12276257868878981,4,9167.20190847951,3.4028234663852886E38,1.57542003E9,,,,0,,1,,1.57542003E9
Raw,2065724117,1978291000000,,,-1311985616708879198,0.0,7.16690918061402,,,0,24,0.0,16,1978017037280,1000000000,27.761503219604492,-349.76872204601545,2.99792458E8,2,-524293.9454055809,3.4028234663852886E38,1.57542003E9,,,,0,,1,,1.57542003E9
Raw,2065724118,1978291000000,,,-1311985616708879198,0.0,7.16690918061402,,,0,30,0.0,16397,176394920563856,10,38.82999801635742,493.4529628531186,0.05706049340753663,1,15305.746429746154,0.001039598835632205,1.57542003E9,,,,0,,1,,1.57542003E9
Raw,2065724118,1978291000000,,,-1311985616708879198,0.0,7.16690918061402,,,0,10,0.0,16,1978002821801,1000000000,24.99932861328125,-825.3524915214202,2.99792458E8,2,-524289.6518365544,3.4028234663852886E38,1.59806246E9,,,,0,,3,,1.59806246E9
Raw,2065724119,1978291000000,,,-1311985616708879198,0.0,7.16690918061402,,,0,2,0.0,32995,14376919971521,110,24.624963760375977,50.11256054655337,0.27742184339032216,4,1508.0289447733303,3.4028234663852886E38,1.59975002E9,,,,0,,3,,1.59975002E9
Raw,2065724119,1978291000000,,,-1311985616708879198,0.0,7.16690918061402,,,0,18,0.0,32995,14376927504985,33,38.242576599121094,381.731965504694,0.058445176412898175,4,11825.976589097978,3.4028234663852886E38,1.60031245E9,,,,0,,3,,1.60031245E9
Raw,2065724120,1978291000000,,,-1311985616708879198,0.0,7.16690918061402,,,0,9,0.0,32995,14376933530954,33,44.3894157409668,-310.97365017733955,0.032433892427676414,4,-535896.5670438345,3.4028234663852886E38,1.59862502E9,,,,0,,3,,1.59862502E9
Raw,2065724121,1978291000000,,,-1311985616708879198,0.0,7.16690918061402,,,0,16,0.0,32995,14376932076746,33,35.900699615478516,438.69820131587585,0.07693649421030396,4,4822.232663620709,3.4028234663852886E38,1.60143744E9,,,,0,,3,,1.60143744E9
Raw,2065724121,1978291000000,,,-1311985616708879198,0.0,7.16690918061402,,,0,3,0.0,32995,14376923010746,36,34.22360610961914,-460.6384077954133,0.09122920866705203,1,-1073636.1810887945,0.0017344326479360461,1.60481254E9,,,,0,,3,,1.60481254E9
Raw,2065724121,1978291000000,,,-1311985616708879198,0.0,7.16690918061402,,,0,193,0.0,35,11557245,27,30.812686920166016,-180.21354504859914,0.13638444455916532,1,-30089.854912384897,0.0024669200647622347,1.57542003E9,,,,0,,4,,1.57542003E9
Raw,2065724121,1978291000000,,,-1311985616708879198,0.0,7.16690918061402,,,0,194,0.0,35,15954741,10,39.160858154296875,-139.65496167329172,0.05423700402316789,4,-120574.12240774216,3.4028234663852886E38,1.57542003E9,,,,0,,4,,1.57542003E9
Raw,2065724122,1978291000000,,,-1311985616708879198,0.0,7.16690918061402,,,0,195,0.0,35,8043484,38,27.777626037597656,-127.96018020170675,0.19192583478460756,4,-7147.889347866921,3.4028234663852886E38,1.57542003E9,,,,0,,4,,1.57542003E9
Raw,2065724122,1978291000000,,,-1311985616708879198,0.0,7.16690918061402,,,0,7,0.0,16431,176380879847959,10,32.860843658447266,-90.53989238179145,0.10966304976318064,4,-200865.64345391045,3.4028234663852886E38,1.56109798E9,,,,0,,5,,1.56109798E9
Raw,2065724122,1978291000000,,,-1311985616708879198,0.0,7.16690918061402,,,0,8,0.0,16431,176380878299700,6,37.97151565551758,-191.53273784930275,0.06219673042271007,4,-414026.4528329584,3.4028234663852886E38,1.56109798E9,,,,0,,5,,1.56109798E9
Raw,2065724123,1978291000000,,,-1311985616708879198,0.0,7.16690918061402,,,0,10,0.0,16431,176380880522360,9,34.3309211730957,-156.98706665989084,0.09326554391425534,4,-295361.23172854434,3.4028234663852886E38,1.56109798E9,,,,0,,5,,1.56109798E9
Raw,2065724123,1978291000000,,,-1311985616708879198,0.0,7.16690918061402,,,0,30,0.0,16431,176380924834750,6,40.757713317871094,-302.416465570788,0.04361045437485547,4,-257241.37952881033,3.4028234663852886E38,1.56109798E9,,,,0,,5,,1.56109798E9
Raw,2065724123,1978291000000,,,-1311985616708879198,0.0,7.16690918061402,,,0,32,0.0,16431,176380914038263,10,33.300758361816406,-650.1836612750449,0.10337852269884312,1,-527636.0378607465,0.001982869114726782,1.56109798E9,,,,0,,5,,1.56109798E9
Raw,2065724124,1978291000000,,,-1311985616708879198,0.0,7.16690918061402,,,0,33,0.0,16431,176380910752877,21,26.690673828125,64.43690152593567,0.21780536960592456,4,19342.256582630547,3.4028234663852886E38,1.56109798E9,,,,0,,5,,1.56109798E9
Raw,2065724124,1978291000000,,,-1311985616708879198,0.0,7.16690918061402,,,0,36,0.0,16431,176380921098548,6,41.677528381347656,-282.5397814214241,0.038643672737388834,4,-297845.6484126353,3.4028234663852886E38,1.56109798E9,,,,0,,5,,1.56109798E9
Fix,gps,34.486323,109.464209,356.791138,0.682094,2.000000,1627952376999
Fix,gps,34.486323,109.464206,356.940430,0.583486,2.000000,1627952377999
Raw,2065725151,1979291000000,,,-1311985616708879582,0.0,7.4625254356172,,,0,1,0.0,16431,176395924577180,17,34.52083206176758,513.177196174456,0.0884601921346429,4,645045.3470804906,3.4028234663852886E38,1.57542003E9,,,,0,,1,,1.57542003E9
Raw,2065725151,1979291000000,,,-1311985616708879582,0.0,7.4625254356172,,,0,2,0.0,16,1979015292765,1000000000,7.0,-680.6008904233922,2.99792458E8,2,-10.201071359550674,3.4028234663852886E38,1.57542003E9,,,,0,,1,,1.57542003E9
Raw,2065725152,1979291000000,,,-1311985616708879582,0.0,7.4625254356172,,,0,3,0.0,16431,176395926177570,23,32.00776290893555,-128.1305669224784,0.1181527683467472,4,-25541.148739707787,3.4028234663852886E38,1.57542003E9,,,,0,,1,,1.57542003E9
Raw,2065725152,1979291000000,,,-1311985616708879582,0.0,7.4625254356172,,,0,6,0.0,16431,176395925353811,22,32.431983947753906,-616.1045448329737,0.11242561758860609,1,-540941.4817235594,0.002171533415094018,1.57542003E9,,,,0,,1,,1.57542003E9
Raw,2065725155,1979291000000,,,-1311985616708879582,0.0,7.4625254356172,,,0,14,0.0,16431,176395932516720,10,38.83790588378906,-26.917891740548512,0.05556445579416325,4,-260273.46543172377,3.4028234663852886E38,1.57542003E9,,,,0,,1,,1.57542003E9
Raw,2065725155,1979291000000,,,-1311985616708879582,0.0,7.4625254356172,,,0,17,0.0,16431,176395929720171,17,34.844581604003906,-177.82158712614353,0.08617893083574307,4,-153474.44541116906,3.4028234663852886E38,1.57542003E9,,,,0,,1,,1.57542003E9
Raw,2065725155,1979291000000,,,-1311985616708879582,0.0,7.4625254356172,,,0,19,0.0,16431,176395928194028,6,42.97047424316406,-425.62962418676943,0.03460262586993898,4,-529827.2133549951,3.4028234663852886E38,1.57542003E9,,,,0,,1,,1.57542003E9
Raw,2065725155,1979291000000,,,-1311985616708879582,0.0,7.4625254356172,,,0,21,0.0,16431,176395915069264,16,34.973121643066406,468.37706812611304,0.08590082098604535,1,545366.7459768711,0.0016207261942327023,1.57542003E9,,,,0,,1,,1.57542003E9
Raw,2065725156,1979291000000,,,-1311985616708879582,0.0,7.4625254356172,,,0,22,0.0,16431,176395922469435,166,30.919723510742188,194.01750230086998,0.13310486517280523,4,9361.117855744931,3.4028234663852886E38,1.57542003E9,,,,1,,1,,1.57542003E9
Raw,2065725156,1979291000000,,,-1311985616708879582,0.0,7.4625254356172,,,0,24,0.0,16,1979017038447,1000000000,26.66653823852539,-349.76872204601545,2.99792458E8,2,-524293.9426703417,3.4028234663852886E38,1.57542003E9,,,,0,,1,,1.57542003E9
Raw,2065725156,1979291000000,,,-1311985616708879582,0.0,7.4625254356172,,,0,30,0.0,16397,176395920562200,11,37.920833587646484,493.4726965954453,0.06294840419009687,1,15799.184547247487,0.0011543143773451447,1.57542003E9,,,,0,,1,,1.57542003E9
Raw,2065725157,1979291000000,,,-1311985616708879582,0.0,7.4625254356172,,,0,10,0.0,16,1979002824554,1000000000,28.452999114990234,-825.261082373026,2.99792458E8,2,-524289.6387336296,3.4028234663852886E38,1.59806246E9,,,,0,,3,,1.59806246E9
Raw,2065725157,1979291000000,,,-1311985616708879582,0.0,7.4625254356172,,,0,2,0.0,32995,14377919971329,133,23.00545883178711,49.76866856023821,0.333547894193186,4,1557.7557285104908,3.4028234663852886E38,1.59975002E9,,,,0,,3,,1.59975002E9
Raw,2065725157,1979291000000,,,-1311985616708879582,0.0,7.4625254356172,,,0,18,0.0,32995,14377927503769,33,36.911102294921875,381.8326450812624,0.06790362392001018,4,12207.716905966803,3.4028234663852886E38,1.60031245E9,,,,0,,3,,1.60031245E9
Raw,2065725158,1979291000000,,,-1311985616708879582,0.0,7.4625254356172,,,0,9,0.0,32995,14377933531962,33,43.571189880371094,-310.7592715258111,0.033349042997327716,4,-536207.4576935412,3.4028234663852886E38,1.59862502E9,,,,0,,3,,1.59862502E9
Raw,2065725158,1979291000000,,,-1311985616708879582,0.0,7.4625254356172,,,0,16,0.0,32995,14377932075267,37,34.0526123046875,438.76196959203,0.09466270828797241,4,5260.900798213961,3.4028234663852886E38,1.60143744E9,,,,0,,3,,1.60143744E9
Raw,2065725158,1979291000000,,,-1311985616708879582,0.0,7.4625254356172,,,0,3,0.0,32995,14377923012231,33,35.247276306152344,-460.4572936214511,0.08114732513149397,1,-1074096.7820407995,0.0015416081296280026,1.60481254E9,,,,0,,3,,1.60481254E9
Raw,2065725158,1979291000000,,,-1311985616708879582,0.0,7.4625254356172,,,0,193,0.0,35,11557834,40,27.36773109436035,-179.6798308206802,0.2017623179764716,4,-30270.065306593508,3.4028234663852886E38,1.57542003E9,,,,0,,4,,1.57542003E9
Raw,2065725159,1979291000000,,,-1311985616708879582,0.0,7.4625254356172,,,0,194,0.0,35,15955208,12,37.800235748291016,-139.68905265042866,0.06294810879771245,4,-120713.85205395478,3.4028234663852886E38,1.57542003E9,,,,0,,4,,1.57542003E9
Raw,2065725159,1979291000000,,,-1311985616708879582,0.0,7.4625254356172,,,0,195,0.0,35,8043851,60,23.868486404418945,-129.5562701612841,0.3001942497313912,4,-7276.338936461065,3.4028234663852886E38,1.57542003E9,,,,0,,4,,1.57542003E9
Raw,2065725159,1979291000000,,,-1311985616708879582,0.0,7.4625254356172,,,0,7,0.0,16431,176381879848258,10,32.72551727294922,-90.51137388629598,0.11132897128124103,4,-200956.18764031332,3.4028234663852886E38,1.56109798E9,,,,0,,5,,1.56109798E9
Raw,2065725160,1979291000000,,,-1311985616708879582,0.0,7.4625254356172,,,0,8,0.0,16431,176381878300329,6,39.41865158081055,-191.4898791602253,0.05315677903610258,4,-414218.03142110235,3.4028234663852886E38,1.56109798E9,,,,0,,5,,1.56109798E9
Raw,2065725160,1979291000000,,,-1311985616708879582,0.0,7.4625254356172,,,0,10,0.0,16431,176381880522883,8,35.29998016357422,-157.01218543034815,0.08380942626256971,4,-295518.2910559335,3.4028234663852886E38,1.56109798E9,,,,0,,5,,1.56109798E9
Raw,2065725160,1979291000000,,,-1311985616708879582,0.0,7.4625254356172,,,0,30,0.0,16431,176381924835764,6,38.836700439453125,-302.3888587810045,0.05419024465685199,4,-257543.8471279552,3.4028234663852886E38,1.56109798E9,,,,0,,5,,1.56109798E9
Raw,2065725161,1979291000000,,,-1311985616708879582,0.0,7.4625254356172,,,0,32,0.0,16431,176381914040427,166,31.931148529052734,-650.1800485346535,0.12060407580812266,1,-528286.2125852451,0.002188760554417968,1.56109798E9,,,,1,,5,,1.56109798E9
Raw,2065725161,1979291000000,,,-1311985616708879582,0.0,7.4625254356172,,,0,33,0.0,16431,176381910752709,27,24.739612579345703,64.66658320044289,0.27217296202574015,4,19406.842379560385,3.4028234663852886E38,1.56109798E9,,,,0,,5,,1.56109798E9
Raw,2065725161,1979291000000,,,-1311985616708879582,0.0,7.4625254356172,,,0,36,0.0,16431,176381921099503,6,41.50005340576172,-282.4091604068004,0.03943749192525611,4,-298128.16399904795,3.4028234663852886E38,1.56109798E9,,,,0,,5,,1.56109798E9
Fix,gps,34.486323,109.464204,357.011108,0.515450,2.000000,1627952378999
Raw,2065726155,1980291000000,,,-1311985616708879970,0.0,7.5898058273484335,,,0,1,0.0,16431,176396924575484,19,33.51633071899414,513.232477918936,0.09920416233598794,4,645558.5183186722,3.4028234663852886E38,1.57542003E9,,,,0,,1,,1.57542003E9
Raw,2065726155,1980291000000,,,-1311985616708879970,0.0,7.5898058273484335,,,0,2,0.0,16,1980015295036,1000000000,19.739065170288086,-680.6008904233922,2.99792458E8,2,-10.195748967550522,3.4028234663852886E38,1.57542003E9,,,,0,,1,,1.57542003E9
Raw,2065726155,1980291000000,,,-1311985616708879970,0.0,7.5898058273484335,,,0,3,0.0,16431,176396926177947,23,32.248783111572266,-128.00768262548542,0.11494975799479212,4,-25669.2202132738,3.4028234663852886E38,1.57542003E9,,,,0,,1,,1.57542003E9
Raw,2065726156,1980291000000,,,-1311985616708879970,0.0,7.5898058273484335,,,0,6,0.0,16431,176396925355868,31,29.550148010253906,-615.9703281191869,0.15628111034747327,1,-541557.4602031461,0.002852870849892497,1.57542003E9,,,,0,,1,,1.57542003E9
Raw,2065726156,1980291000000,,,-1311985616708879970,0.0,7.5898058273484335,,,0,14,0.0,16431,176396932516797,10,38.796470642089844,-26.775595354412246,0.055819383582368653,4,-260300.33504601647,3.4028234663852886E38,1.57542003E9,,,,0,,1,,1.57542003E9
Raw,2065726156,1980291000000,,,-1311985616708879970,0.0,7.5898058273484335,,,0,17,0.0,16431,176396929720771,16,34.912757873535156,-177.76289713601125,0.0855189160771031,4,-153652.2776809595,3.4028234663852886E38,1.57542003E9,,,,0,,1,,1.57542003E9
Raw,2065726157,1980291000000,,,-1311985616708879970,0.0,7.5898058273484335,,,0,19,0.0,16431,176396928195437,6,43.30378341674805,-425.5811930160505,0.03335568516552091,4,-530252.8314257371,3.4028234663852886E38,1.57542003E9,,,,0,,1,,1.57542003E9
Raw,2065726157,1980291000000,,,-1311985616708879970,0.0,7.5898058273484335,,,0,21,0.0,16431,176396915067704,16,34.9688720703125,468.3660594926562,0.085941252298605,1,545835.0762123053,0.0016215193318203092,1.57542003E9,,,,0,,1,,1.57542003E9
Raw,2065726157,1980291000000,,,-1311985616708879970,0.0,7.5898058273484335,,,0,22,0.0,16431,176396922468710,30,29.754091262817383,194.18101288603816,0.15215741601922927,4,9555.197483939703,3.4028234663852886E38,1.57542003E9,,,,0,,1,,1.57542003E9
Raw,2065726158,1980291000000,,,-1311985616708879970,0.0,7.5898058273484335,,,0,24,0.0,16,1980017039613,1000000000,27.926786422729492,-349.5830749053357,2.99792458E8,2,-524293.9367825043,3.4028234663852886E38,1.57542003E9,,,,0,,1,,1.57542003E9
Raw,2065726158,1980291000000,,,-1311985616708879970,0.0,7.5898058273484335,,,0,30,0.0,16397,176396920560569,11,38.30841827392578,493.49423670796773,0.0603623686782358,1,16292.691389614349,0.0011039384407922626,1.57542003E9,,,,0,,1,,1.57542003E9
Raw,2065726159,1980291000000,,,-1311985616708879970,0.0,7.5898058273484335,,,0,10,0.0,16,2827241,1000000000,22.84263801574707,-826.109599210618,2.99792458E8,4,-524949.8529974822,3.4028234663852886E38,1.59806246E9,,,,0,,3,,1.59806246E9
Raw,2065726159,1980291000000,,,-1311985616708879970,0.0,7.5898058273484335,,,0,2,0.0,32995,14378919971254,61,22.650318145751953,49.97269040529082,4.203592260082193,4,1607.6549520091733,3.4028234663852886E38,1.59975002E9,,,,0,,3,,1.59975002E9
Raw,2065726159,1980291000000,,,-1311985616708879970,0.0,7.5898058273484335,,,0,18,0.0,32995,14378927502425,33,36.744842529296875,381.84931140250205,0.06918959594350402,4,12589.500398738075,3.4028234663852886E38,1.60031245E9,,,,0,,3,,1.60031245E9
Raw,2065726160,1980291000000,,,-1311985616708879970,0.0,7.5898058273484335,,,0,9,0.0,32995,14378933533013,33,43.18135070800781,-310.5536861480655,0.034768372201016126,1,-536518.1374172458,6.534551503136754E-4,1.59862502E9,,,,0,,3,,1.59862502E9
Raw,2065726160,1980291000000,,,-1311985616708879970,0.0,7.5898058273484335,,,0,16,0.0,32995,14378932073818,37,33.96099853515625,438.88408703375126,0.09564311145138638,1,5699.777929894208,0.0017914396012201905,1.60143744E9,,,,0,,3,,1.60143744E9
Raw,2065726160,1980291000000,,,-1311985616708879970,0.0,7.5898058273484335,,,0,19,0.0,16,1980003178284,1000000000,27.48440170288086,9.92998122206619,2.99792458E8,2,0.02951207144684731,3.4028234663852886E38,1.60368755E9,,,,0,,3,,1.60368755E9
Raw,2065726161,1980291000000,,,-1311985616708879970,0.0,7.5898058273484335,,,0,3,0.0,32995,14378923013748,34,34.80629348754883,-460.38347102062266,0.08534558315429386,1,-1074557.246796606,0.0016218960518017411,1.60481254E9,,,,0,,3,,1.60481254E9
Raw,2065726161,1980291000000,,,-1311985616708879970,0.0,7.5898058273484335,,,0,193,0.0,35,11558520,48,25.7681827545166,-179.6680894144081,0.24213877908265746,4,-30450.290643934426,3.4028234663852886E38,1.57542003E9,,,,0,,4,,1.57542003E9
Raw,2065726161,1980291000000,,,-1311985616708879970,0.0,7.5898058273484335,,,0,194,0.0,35,15955668,11,38.073699951171875,-139.68573813153182,0.06108617987099696,4,-120853.52196559754,3.4028234663852886E38,1.57542003E9,,,,0,,4,,1.57542003E9
Raw,2065726161,1980291000000,,,-1311985616708879970,0.0,7.5898058273484335,,,0,195,0.0,16,1980008044393,1000000000,24.047988891601562,-127.9143478182977,2.99792458E8,2,-1.0199465347532168,3.4028234663852886E38,1.57542003E9,,,,0,,4,,1.57542003E9
Raw,2065726162,1980291000000,,,-1311985616708879970,0.0,7.5898058273484335,,,0,7,0.0,16431,176382879848558,10,33.36421585083008,-90.47693356397969,0.10368950015187706,4,-201046.65552889023,3.4028234663852886E38,1.56109798E9,,,,0,,5,,1.56109798E9
Raw,2065726162,1980291000000,,,-1311985616708879970,0.0,7.5898058273484335,,,0,8,0.0,16431,176382878300979,6,39.414276123046875,-191.4874081821274,0.05318202468382968,4,-414409.52671664057,3.4028234663852886E38,1.56109798E9,,,,0,,5,,1.56109798E9
Raw,2065726162,1980291000000,,,-1311985616708879970,0.0,7.5898058273484335,,,0,10,0.0,16431,176382880523409,8,35.31537628173828,-156.95499506830288,0.08366762959713875,4,-295675.2609184156,3.4028234663852886E38,1.56109798E9,,,,0,,5,,1.56109798E9
Raw,2065726163,1980291000000,,,-1311985616708879970,0.0,7.5898058273484335,,,0,30,0.0,16431,176382924836777,6,38.22450637817383,-302.32808976102433,0.05808412371002189,1,-257846.20218406047,0.001124880975112319,1.56109798E9,,,,0,,5,,1.56109798E9
Raw,2065726163,1980291000000,,,-1311985616708879970,0.0,7.5898058273484335,,,0,32,0.0,16431,176382914042571,166,31.27519416809082,-650.1115427970426,0.12986703180313824,1,-528936.3356111901,0.00236045615747571,1.56109798E9,,,,1,,5,,1.56109798E9
Raw,2065726163,1980291000000,,,-1311985616708879970,0.0,7.5898058273484335,,,0,33,0.0,16431,176382910752480,32,23.332508087158203,64.76573332677481,0.31969683711615415,4,19471.578811543364,3.4028234663852886E38,1.56109798E9,,,,0,,5,,1.56109798E9
Raw,2065726164,1980291000000,,,-1311985616708879970,0.0,7.5898058273484335,,,0,36,0.0,16431,176382921100438,6,41.35321807861328,-282.2978130213404,0.04010663056416397,1,-298410.5115686656,8.27084353659302E-4,1.56109798E9,,,,0,,5,,1.56109798E9
Fix,gps,34.486324,109.464202,357.017700,0.354999,2.000000,1627952379999
Raw,2065727186,1981291000000,,,-1311985616708880359,0.0,7.459773771051671,,,0,1,0.0,16431,176397924573779,19,33.71134948730469,513.3234099129388,0.09701959003728222,4,646071.7558078665,3.4028234663852886E38,1.57542003E9,,,,0,,1,,1.57542003E9
Raw,2065727186,1981291000000,,,-1311985616708880359,0.0,7.459773771051671,,,0,2,0.0,16,1981015297306,1000000000,15.145864486694336,-680.6008904233922,2.99792458E8,2,-10.190426575366512,3.4028234663852886E38,1.57542003E9,,,,0,,1,,1.57542003E9
Raw,2065727186,1981291000000,,,-1311985616708880359,0.0,7.459773771051671,,,0,3,0.0,16431,176397926178400,25,31.333166122436523,-127.79977964069627,0.12760537457346882,4,-25797.11162114648,3.4028234663852886E38,1.57542003E9,,,,0,,1,,1.57542003E9
Raw,2065727187,1981291000000,,,-1311985616708880359,0.0,7.459773771051671,,,0,6,0.0,16431,176397925358022,33,28.98941421508789,-615.839042496661,0.16663903182558204,1,-542173.3507127208,0.003043117467314005,1.57542003E9,,,,0,,1,,1.57542003E9
Raw,2065727187,1981291000000,,,-1311985616708880359,0.0,7.459773771051671,,,0,14,0.0,16431,176397932516880,11,38.08868408203125,-26.61798955483664,0.060367261374631165,1,-260327.05320223232,0.0011322218924760818,1.57542003E9,,,,0,,1,,1.57542003E9
Raw,2065727187,1981291000000,,,-1311985616708880359,0.0,7.459773771051671,,,0,17,0.0,16431,176397929721337,19,33.829444885253906,-177.72019181798817,0.09664642208618884,1,-153830.04077067046,0.001848815125413239,1.57542003E9,,,,0,,1,,1.57542003E9
Raw,2065727188,1981291000000,,,-1311985616708880359,0.0,7.459773771051671,,,0,19,0.0,16431,176397928196876,6,42.93607711791992,-425.490806341352,0.03473458513687773,1,-530678.3774371448,6.830313359387219E-4,1.57542003E9,,,,0,,1,,1.57542003E9
Raw,2065727188,1981291000000,,,-1311985616708880359,0.0,7.459773771051671,,,0,21,0.0,16431,176397915066114,16,34.952632904052734,468.3947569210484,0.08609672854375361,1,546303.419009772,0.0016245535807684064,1.57542003E9,,,,0,,1,,1.57542003E9
Raw,2065727188,1981291000000,,,-1311985616708880359,0.0,7.459773771051671,,,0,22,0.0,16431,176397922468051,31,29.547100067138672,194.2841804819327,0.15581613777166892,4,9749.412650332017,3.4028234663852886E38,1.57542003E9,,,,0,,1,,1.57542003E9
Raw,2065727189,1981291000000,,,-1311985616708880359,0.0,7.459773771051671,,,0,24,0.0,16,17040681,1000000000,24.805980682373047,-349.2508732016079,2.99792458E8,4,-524573.3531788782,3.4028234663852886E38,1.57542003E9,,,,0,,1,,1.57542003E9
Raw,2065727189,1981291000000,,,-1311985616708880359,0.0,7.459773771051671,,,0,30,0.0,16397,176397920558904,10,38.95366287231445,493.6219777550152,0.05630525828971239,1,16786.26089098739,0.0010249026818200946,1.57542003E9,,,,0,,1,,1.57542003E9
Raw,2065727189,1981291000000,,,-1311985616708880359,0.0,7.459773771051671,,,0,10,0.0,17,829788,71,20.71428871154785,-825.4456729575536,4.200509129112836,4,-524289.662155789,3.4028234663852886E38,1.59806246E9,,,,0,,3,,1.59806246E9
Raw,2065727189,1981291000000,,,-1311985616708880359,0.0,7.459773771051671,,,0,18,0.0,32995,14379927501182,33,36.92707443237305,381.8769863571986,0.06778087798314586,1,12971.323704607412,0.0012741000391542912,1.60031245E9,,,,0,,3,,1.60031245E9
Raw,2065727190,1981291000000,,,-1311985616708880359,0.0,7.459773771051671,,,0,9,0.0,32995,14379933534065,33,42.74177551269531,-310.33307040699333,0.036447022634571086,1,-536828.606751574,6.873764214105904E-4,1.59862502E9,,,,0,,3,,1.59862502E9
Raw,2065727190,1981291000000,,,-1311985616708880359,0.0,7.459773771051671,,,0,16,0.0,32995,14379932072312,42,32.90254592895508,439.15855305612945,0.10775623783585869,1,6138.809261951343,0.00202360050752759,1.60143744E9,,,,0,,3,,1.60143744E9
Raw,2065727191,1981291000000,,,-1311985616708880359,0.0,7.459773771051671,,,0,19,0.0,16,1981003178251,1000000000,32.579322814941406,9.92998122206619,2.99792458E8,2,0.029978450225881456,3.4028234663852886E38,1.60368755E9,,,,0,,3,,1.60368755E9
Raw,2065727191,1981291000000,,,-1311985616708880359,0.0,7.459773771051671,,,0,3,0.0,32995,14379923015252,33,35.1575813293457,-460.21980706440013,0.08198455035804564,1,-1075017.5649448335,0.0015576101141050458,1.60481254E9,,,,0,,3,,1.60481254E9
Raw,2065727191,1981291000000,,,-1311985616708880359,0.0,7.459773771051671,,,0,193,0.0,35,11559177,45,26.371322631835938,-180.0681663303011,0.22603496815204982,4,-30630.421257736678,3.4028234663852886E38,1.57542003E9,,,,0,,4,,1.57542003E9
Raw,2065727192,1981291000000,,,-1311985616708880359,0.0,7.459773771051671,,,0,194,0.0,35,15956130,9,39.84621047973633,-139.5443044575763,0.050339958862891804,1,-120993.1143879795,9.248156566172838E-4,1.57542003E9,,,,0,,4,,1.57542003E9
Raw,2065727192,1981291000000,,,-1311985616708880359,0.0,7.459773771051671,,,0,195,0.0,16,1981008044820,1000000000,22.52946662902832,-128.1000120002057,2.99792458E8,2,-1.0244322152256042,3.4028234663852886E38,1.57542003E9,,,,0,,4,,1.57542003E9
Raw,2065727192,1981291000000,,,-1311985616708880359,0.0,7.459773771051671,,,0,7,0.0,16431,176383879848856,9,33.97338104248047,-90.36632747194903,0.09690848921709361,1,-201137.06261838932,0.0018351130420342088,1.56109798E9,,,,0,,5,,1.56109798E9
Raw,2065727193,1981291000000,,,-1311985616708880359,0.0,7.459773771051671,,,0,8,0.0,16431,176383878301606,6,38.44179916381836,-191.36588718339533,0.059092543384937884,1,-414600.9425869673,0.0010970892617478967,1.56109798E9,,,,0,,5,,1.56109798E9
Raw,2065727193,1981291000000,,,-1311985616708880359,0.0,7.459773771051671,,,0,10,0.0,16431,176383880523938,10,33.047203063964844,-156.88105317887664,0.1075326049985767,1,-295832.1757049195,0.0020416048355400562,1.56109798E9,,,,0,,5,,1.56109798E9
Raw,2065727193,1981291000000,,,-1311985616708880359,0.0,7.459773771051671,,,0,30,0.0,16431,176383924837777,6,38.31330490112305,-302.2143566036077,0.0575023588100588,1,-258148.48384344552,0.0011134394444525242,1.56109798E9,,,,0,,5,,1.56109798E9
Raw,2065727194,1981291000000,,,-1311985616708880359,0.0,7.459773771051671,,,0,32,0.0,16431,176383914044746,9,33.657745361328125,-650.0827090388243,0.09931868305110597,1,-529586.4154285425,0.001903025433421135,1.56109798E9,,,,0,,5,,1.56109798E9
Raw,2065727194,1981291000000,,,-1311985616708880359,0.0,7.459773771051671,,,0,33,0.0,16431,176383910752223,25,25.305614471435547,64.84216323552721,0.25512467763075797,4,19536.424209262543,3.4028234663852886E38,1.56109798E9,,,,0,,5,,1.56109798E9
Raw,2065727194,1981291000000,,,-1311985616708880359,0.0,7.459773771051671,,,0,36,0.0,16431,176383921101383,6,40.55391311645508,-282.1112626955628,0.043953621276878296,1,-298692.7193179219,9.068072540685534E-4,1.56109798E9,,,,0,,5,,1.56109798E9
Raw,2065728072,1982291000000,,,-1311985616708880745,0.0,7.470794744331758,,,0,1,0.0,16431,176398924572062,18,34.33399200439453,513.3970961839411,0.09036480734113428,1,646585.0582131763,0.0017444805707782507,1.57542003E9,,,,0,,1,,1.57542003E9
Raw,2065728073,1982291000000,,,-1311985616708880745,0.0,7.470794744331758,,,0,2,0.0,16,1982015299575,1000000000,10.579050064086914,-680.2295961420327,2.99792458E8,2,-10.200825112645738,3.4028234663852886E38,1.57542003E9,,,,0,,1,,1.57542003E9
Raw,2065728074,1982291000000,,,-1311985616708880745,0.0,7.470794744331758,,,0,3,0.0,16431,176398926178742,24,31.74864387512207,-127.61009372891857,0.12169719404869922,1,-25924.83953149312,0.002214916283264756,1.57542003E9,,,,0,,1,,1.57542003E9
Raw,2065728074,1982291000000,,,-1311985616708880745,0.0,7.470794744331758,,,0,6,0.0,16431,176398925360020,22,32.52269744873047,-615.6647448140034,0.11126868627208386,1,-542789.1378194864,0.0020260706078261137,1.57542003E9,,,,0,,1,,1.57542003E9
Raw,2065728075,1982291000000,,,-1311985616708880745,0.0,7.470794744331758,,,0,14,0.0,16431,176398932516982,11,38.24382781982422,-26.418509197115696,0.05933847210655896,1,-260353.62203549867,0.0011121782008558512,1.57542003E9,,,,0,,1,,1.57542003E9
Raw,2065728075,1982291000000,,,-1311985616708880745,0.0,7.470794744331758,,,0,17,0.0,16431,176398929721936,19,33.55215835571289,-177.56208330217885,0.09972490166560477,1,-154007.75146909588,0.0019087886903434992,1.57542003E9,,,,0,,1,,1.57542003E9
Raw,2065728076,1982291000000,,,-1311985616708880745,0.0,7.470794744331758,,,0,19,0.0,16431,176398928198283,6,42.819942474365234,-425.4112578878278,0.035182531046017096,1,-531103.8738250901,6.922250031493604E-4,1.57542003E9,,,,0,,1,,1.57542003E9
Raw,2065728077,1982291000000,,,-1311985616708880745,0.0,7.470794744331758,,,0,21,0.0,16431,176398915064576,15,35.682804107666016,468.4652735235941,0.0793731651870545,1,546771.789295891,0.0014935696963220835,1.57542003E9,,,,0,,1,,1.57542003E9
Raw,2065728077,1982291000000,,,-1311985616708880745,0.0,7.470794744331758,,,0,22,0.0,16431,176398922467526,166,30.120376586914062,194.47195777614513,0.1458924347777365,1,9943.77291981935,0.002671594964340329,1.57542003E9,,,,1,,1,,1.57542003E9
Raw,2065728078,1982291000000,,,-1311985616708880745,0.0,7.470794744331758,,,0,24,0.0,17,41808,52,25.167356491088867,-349.08693658573316,0.2603184911981554,4,-524293.9344283876,3.4028234663852886E38,1.57542003E9,,,,0,,1,,1.57542003E9
Raw,2065728078,1982291000000,,,-1311985616708880745,0.0,7.470794744331758,,,0,30,0.0,16397,176398920557252,10,39.0629997253418,493.6003013126667,0.055646903553063704,1,17279.856088204127,0.001012081978842616,1.57542003E9,,,,0,,1,,1.57542003E9
Raw,2065728079,1982291000000,,,-1311985616708880745,0.0,7.470794744331758,,,0,10,0.0,16,1982002832787,1000000000,17.926197052001953,-824.6211501693538,2.99792458E8,2,-524289.6503727831,3.4028234663852886E38,1.59806246E9,,,,0,,3,,1.59806246E9
Raw,2065728080,1982291000000,,,-1311985616708880745,0.0,7.470794744331758,,,0,18,0.0,32995,14380927499949,33,37.27496337890625,381.91232986461273,0.06517251330329676,1,13353.185432155624,0.0012240780051797628,1.60031245E9,,,,0,,3,,1.60031245E9
Raw,2065728080,1982291000000,,,-1311985616708880745,0.0,7.470794744331758,,,0,9,0.0,32995,14380933535076,33,43.35222244262695,-310.12404270113893,0.03413886190663705,1,-537138.8936749377,6.40725891571492E-4,1.59862502E9,,,,0,,3,,1.59862502E9
Raw,2065728081,1982291000000,,,-1311985616708880745,0.0,7.470794744331758,,,0,16,0.0,32995,14380932070879,38,33.91178512573242,439.32337581587376,0.09617370274109183,1,6577.994254861263,0.0018016182584688067,1.60143744E9,,,,0,,3,,1.60143744E9
Raw,2065728081,1982291000000,,,-1311985616708880745,0.0,7.470794744331758,,,0,19,0.0,17,178136,66,29.07847023010254,10.019834293304747,0.16455693988198739,4,8.217284803082098,3.4028234663852886E38,1.60368755E9,,,,0,,3,,1.60368755E9
Raw,2065728082,1982291000000,,,-1311985616708880745,0.0,7.470794744331758,,,0,3,0.0,32995,14380923016828,36,34.280792236328125,-460.06820829778667,0.09063519538427606,1,-1075477.736379609,0.0017230513039976358,1.60481254E9,,,,0,,3,,1.60481254E9
Raw,2065728083,1982291000000,,,-1311985616708880745,0.0,7.470794744331758,,,0,193,0.0,35,11559698,50,25.37677764892578,-180.10091957101952,0.2532040113845614,4,-30810.524042748893,3.4028234663852886E38,1.57542003E9,,,,0,,4,,1.57542003E9
Raw,2065728083,1982291000000,,,-1311985616708880745,0.0,7.470794744331758,,,0,194,0.0,35,15956599,11,38.55436706542969,-139.51044353702088,0.05795225389288969,1,-121132.644600119,0.0010731176007539034,1.57542003E9,,,,0,,4,,1.57542003E9
Raw,2065728084,1982291000000,,,-1311985616708880745,0.0,7.470794744331758,,,0,195,0.0,16,1982008045246,1000000000,23.04778289794922,-127.72870067761795,2.99792458E8,2,-1.0204639665032456,3.4028234663852886E38,1.57542003E9,,,,0,,4,,1.57542003E9
Raw,2065728084,1982291000000,,,-1311985616708880745,0.0,7.470794744331758,,,0,7,0.0,16431,176384879849151,10,33.20973205566406,-90.3216368508335,0.10548623473121554,1,-201227.4208992583,0.0020037582144141197,1.56109798E9,,,,0,,5,,1.56109798E9
Raw,2065728085,1982291000000,,,-1311985616708880745,0.0,7.470794744331758,,,0,8,0.0,16431,176384878302254,6,38.57520294189453,-191.33361109706823,0.05824219191933233,1,-414792.2933188574,0.0010803680634126067,1.56109798E9,,,,0,,5,,1.56109798E9
Raw,2065728086,1982291000000,,,-1311985616708880745,0.0,7.470794744331758,,,0,10,0.0,16431,176384880524465,9,33.9620361328125,-156.8277822993315,0.0971520173555343,1,-295989.0581165814,0.0018375117797404528,1.56109798E9,,,,0,,5,,1.56109798E9
Raw,2065728087,1982291000000,,,-1311985616708880745,0.0,7.470794744331758,,,0,30,0.0,16431,176384924838791,6,39.398399353027344,-302.1310931623225,0.05085178233504667,1,-258450.72054361648,9.826796595007181E-4,1.56109798E9,,,,0,,5,,1.56109798E9
Raw,2065728087,1982291000000,,,-1311985616708880745,0.0,7.470794744331758,,,0,32,0.0,16431,176384914046903,166,32.349422454833984,-649.9967530834738,0.1150538359650527,1,-530236.4430713919,0.0022123854141682386,1.56109798E9,,,,1,,5,,1.56109798E9
Raw,2065728088,1982291000000,,,-1311985616708880745,0.0,7.470794744331758,,,0,33,0.0,16431,176384910752056,29,24.036067962646484,64.36968666136562,0.29497274416806896,4,19601.420458259396,3.4028234663852886E38,1.56109798E9,,,,0,,5,,1.56109798E9
Raw,2065728090,1982291000000,,,-1311985616708880745,0.0,7.470794744331758,,,0,36,0.0,16431,176384921102327,6,41.18708801269531,-281.9842714625588,0.040877633810677355,1,-298974.81606498745,8.430558373220265E-4,1.56109798E9,,,,0,,5,,1.56109798E9
Fix,gps,34.486325,109.464202,356.903717,0.244908,2.000000,1627952380999
Fix,gps,34.486325,109.464202,356.619812,0.321394,2.000000,1627952381999
Raw,2065729195,1983291000000,,,-1311985616708881131,0.0,7.48886824979887,,,0,1,0.0,16431,176399924570348,22,32.346946716308594,513.3261024270041,0.11338133260541283,1,647098.4156546225,0.0021928977221250534,1.57542003E9,,,,0,,1,,1.57542003E9
Raw,2065729196,1983291000000,,,-1311985616708881131,0.0,7.48886824979887,,,0,2,0.0,16,1983015301844,1000000000,15.360248565673828,-680.2295961420327,2.99792458E8,2,-10.195505624389297,3.4028234663852886E38,1.57542003E9,,,,0,,1,,1.57542003E9
Raw,2065729196,1983291000000,,,-1311985616708881131,0.0,7.48886824979887,,,0,3,0.0,16431,176399926179209,27,30.699687957763672,-127.52453824243219,0.13717571338743195,1,-26052.448262064405,0.0024992236867547035,1.57542003E9,,,,0,,1,,1.57542003E9
Raw,2065729197,1983291000000,,,-1311985616708881131,0.0,7.48886824979887,,,0,6,0.0,16431,176399925362076,15,35.49599075317383,-615.5014898472591,0.0792946407382738,1,-543404.8863281261,0.0015260408399626613,1.57542003E9,,,,0,,1,,1.57542003E9
Raw,2065729197,1983291000000,,,-1311985616708881131,0.0,7.48886824979887,,,0,14,0.0,16431,176399932517056,12,37.76262283325195,-26.25602321579673,0.06259039278064321,1,-260380.09399912177,0.0011755323503166437,1.57542003E9,,,,0,,1,,1.57542003E9
Raw,2065729198,1983291000000,,,-1311985616708881131,0.0,7.48886824979887,,,0,17,0.0,16431,176399929722528,17,34.69740676879883,-177.59563748062556,0.08762211817504306,1,-154185.4264763571,0.001672997954301536,1.57542003E9,,,,0,,1,,1.57542003E9
Raw,2065729198,1983291000000,,,-1311985616708881131,0.0,7.48886824979887,,,0,19,0.0,16431,176399928199704,7,41.94135284423828,-425.38760466300096,0.03877079963454594,1,-531529.2982837706,7.659085094928741E-4,1.57542003E9,,,,0,,1,,1.57542003E9
Raw,2065729199,1983291000000,,,-1311985616708881131,0.0,7.48886824979887,,,0,21,0.0,16431,176399915063028,16,35.38331604003906,468.29070318128424,0.08206234256654948,1,547240.166325851,0.0015459660207852721,1.57542003E9,,,,0,,1,,1.57542003E9
Raw,2065729199,1983291000000,,,-1311985616708881131,0.0,7.48886824979887,,,0,22,0.0,16431,176399922466717,166,30.232955932617188,194.43630752662227,0.14401929758223775,1,10138.25162032931,0.0026371912099421024,1.57542003E9,,,,1,,1,,1.57542003E9
Raw,2065729199,1983291000000,,,-1311985616708881131,0.0,7.48886824979887,,,0,24,0.0,17,42937,60,23.7939395904541,-349.199510939628,0.3043879894988464,4,-524643.0059756725,3.4028234663852886E38,1.57542003E9,,,,0,,1,,1.57542003E9
Raw,2065729200,1983291000000,,,-1311985616708881131,0.0,7.48886824979887,,,0,30,0.0,16397,176399920555648,10,38.751380920410156,493.7138640578007,0.057544208838154864,1,17773.471688758214,0.001049051177687943,1.57542003E9,,,,0,,1,,1.57542003E9
Raw,2065729200,1983291000000,,,-1311985616708881131,0.0,7.48886824979887,,,0,10,0.0,16,1983002835538,1000000000,25.531526565551758,-824.6211501693538,2.99792458E8,2,-524289.6374628638,3.4028234663852886E38,1.59806246E9,,,,0,,3,,1.59806246E9
Raw,2065729201,1983291000000,,,-1311985616708881131,0.0,7.48886824979887,,,0,18,0.0,32995,14381927498610,33,38.129661560058594,381.9003669223732,0.05919109210901696,1,13735.072928613814,0.0011093644425272942,1.60031245E9,,,,0,,3,,1.60031245E9
Raw,2065729201,1983291000000,,,-1311985616708881131,0.0,7.48886824979887,,,0,9,0.0,32995,14381933536110,33,44.002052307128906,-309.97183045030806,0.03243482020939084,1,-537448.9987244051,5.945396260358393E-4,1.59862502E9,,,,0,,3,,1.59862502E9
Raw,2065729201,1983291000000,,,-1311985616708881131,0.0,7.48886824979887,,,0,16,0.0,32995,14381932069419,33,35.31291580200195,439.59634221016495,0.08216964905075802,1,7017.27736754153,0.0015332266921177506,1.60143744E9,,,,0,,3,,1.60143744E9
Raw,2065729202,1983291000000,,,-1311985616708881131,0.0,7.48886824979887,,,0,19,0.0,17,178088,75,27.910131454467773,10.458304031393936,0.18996564420528517,4,0.13367088274897831,3.4028234663852886E38,1.60368755E9,,,,0,,3,,1.60368755E9
Raw,2065729202,1983291000000,,,-1311985616708881131,0.0,7.48886824979887,,,0,3,0.0,32995,14381923018345,33,36.59221267700195,-459.99050029691466,0.06958560895914412,1,-1075937.7729556633,0.001320465817116201,1.60481254E9,,,,0,,3,,1.60481254E9
Raw,2065729203,1983291000000,,,-1311985616708881131,0.0,7.48886824979887,,,0,193,0.0,35,11560358,49,25.651912689208984,-180.06288354954006,0.2453741494623023,4,-30990.675191992905,3.4028234663852886E38,1.57542003E9,,,,0,,4,,1.57542003E9
Raw,2065729203,1983291000000,,,-1311985616708881131,0.0,7.48886824979887,,,0,194,0.0,35,15957078,10,38.80556106567383,-139.38451738078322,0.05638218512334359,1,-121272.18445920493,0.0010425278451293707,1.57542003E9,,,,0,,4,,1.57542003E9
Raw,2065729203,1983291000000,,,-1311985616708881131,0.0,7.48886824979887,,,0,195,0.0,16,1983008045672,1000000000,19.920562744140625,-127.72870067761795,2.99792458E8,2,-1.0194651106260773,3.4028234663852886E38,1.57542003E9,,,,0,,4,,1.57542003E9
Raw,2065729204,1983291000000,,,-1311985616708881131,0.0,7.48886824979887,,,0,7,0.0,16431,176385879849460,11,32.55389404296875,-90.24467014339086,0.11347952769072184,1,-201317.77066425863,0.002160912612453103,1.56109798E9,,,,0,,5,,1.56109798E9
Raw,2065729204,1983291000000,,,-1311985616708881131,0.0,7.48886824979887,,,0,8,0.0,16431,176385878302897,6,37.97317886352539,-191.23446523104337,0.06218602972957327,1,-414983.61884371226,0.001157904858700931,1.56109798E9,,,,0,,5,,1.56109798E9
Raw,2065729205,1983291000000,,,-1311985616708881131,0.0,7.48886824979887,,,0,10,0.0,16431,176385880524992,9,33.931514739990234,-156.75932768540542,0.09748109279268374,1,-296145.91885428317,0.0018439798150211573,1.56109798E9,,,,0,,5,,1.56109798E9
Raw,2065729205,1983291000000,,,-1311985616708881131,0.0,7.48886824979887,,,0,30,0.0,16431,176385924839800,6,40.196998596191406,-302.0574750562332,0.046461481818272615,1,-258752.90341375011,8.963588043116033E-4,1.56109798E9,,,,0,,5,,1.56109798E9
Raw,2065729205,1983291000000,,,-1311985616708881131,0.0,7.48886824979887,,,0,32,0.0,16431,176385914049070,9,33.59143829345703,-649.8972323104272,0.10006118301275146,1,-530886.4886713388,0.001917608897201717,1.56109798E9,,,,0,,5,,1.56109798E9
Raw,2065729206,1983291000000,,,-1311985616708881131,0.0,7.48886824979887,,,0,33,0.0,16431,176385910751784,166,26.8656005859375,65.07860175704008,0.21350119469125972,4,19666.51221771922,3.4028234663852886E38,1.56109798E9,,,,1,,5,,1.56109798E9
Raw,2065729206,1983291000000,,,-1311985616708881131,0.0,7.48886824979887,,,0,36,0.0,16431,176385921103266,6,41.56916809082031,-281.8408524855108,0.03912715518246443,1,-299256.7663130043,8.067748276516795E-4,1.56109798E9,,,,0,,5,,1.56109798E9
Fix,gps,34.486325,109.464202,356.759460,0.376880,2.000000,1627952382999
Raw,2065730170,1984291000000,,,-1311985616708881517,0.0,7.503062385395853,,,0,1,0.0,16431,176400924568656,23,32.0443000793457,513.3915407435279,0.11737206707702158,1,647611.7842329505,0.002270652446895838,1.57542003E9,,,,0,,1,,1.57542003E9
Raw,2065730171,1984291000000,,,-1311985616708881517,0.0,7.503062385395853,,,0,2,0.0,16,1984015304113,1000000000,7.0,-680.2295961420327,2.99792458E8,2,-10.190186136278372,3.4028234663852886E38,1.57542003E9,,,,0,,1,,1.57542003E9
Raw,2065730172,1984291000000,,,-1311985616708881517,0.0,7.503062385395853,,,0,3,0.0,16431,176400926179645,27,30.75136947631836,-127.37893798816674,0.13636862650500275,1,-26179.8941857564,0.002484397031366825,1.57542003E9,,,,0,,1,,1.57542003E9
Raw,2065730172,1984291000000,,,-1311985616708881517,0.0,7.503062385395853,,,0,6,0.0,16431,176400925364144,20,33.164493560791016,-615.6081679361755,0.10341293799185541,1,-544020.5057203531,0.0018817621748894453,1.57542003E9,,,,0,,1,,1.57542003E9
Raw,2065730173,1984291000000,,,-1311985616708881517,0.0,7.503062385395853,,,0,14,0.0,16431,176400932517157,10,38.71244812011719,-26.23464712509633,0.056340160356090546,1,-260406.42797496385,0.0010537637863308191,1.57542003E9,,,,0,,1,,1.57542003E9
Raw,2065730173,1984291000000,,,-1311985616708881517,0.0,7.503062385395853,,,0,17,0.0,16431,176400929723107,15,35.93290328979492,-177.60720847461505,0.076236422580155,1,-154363.0745968977,0.0014511776389554143,1.57542003E9,,,,0,,1,,1.57542003E9
Raw,2065730174,1984291000000,,,-1311985616708881517,0.0,7.503062385395853,,,0,19,0.0,16431,176400928201111,8,41.330718994140625,-425.4216189546107,0.041487377778037404,1,-531954.7231661889,8.216909482143819E-4,1.57542003E9,,,,0,,1,,1.57542003E9
Raw,2065730175,1984291000000,,,-1311985616708881517,0.0,7.503062385395853,,,0,21,0.0,16431,176400915061438,14,36.039939880371094,468.3520175205688,0.07628437599737692,1,547708.5083399571,0.0014334045117720962,1.57542003E9,,,,0,,1,,1.57542003E9
Raw,2065730175,1984291000000,,,-1311985616708881517,0.0,7.503062385395853,,,0,22,0.0,16431,176400922466130,31,29.58191680908203,194.65020902375943,0.1551942827165479,1,10332.8334587384,0.002842455403879285,1.57542003E9,,,,0,,1,,1.57542003E9
Raw,2065730176,1984291000000,,,-1311985616708881517,0.0,7.503062385395853,,,0,24,0.0,39,917044134,53,24.871610641479492,-348.89883550818377,0.26922892342533766,4,-524991.9002539807,3.4028234663852886E38,1.57542003E9,,,,0,,1,,1.57542003E9
Raw,2065730177,1984291000000,,,-1311985616708881517,0.0,7.503062385395853,,,0,30,0.0,16397,176400920553968,11,38.646514892578125,493.6670347625384,0.058197924666231415,1,18267.11830553314,0.0010617933003231883,1.57542003E9,,,,0,,1,,1.57542003E9
Raw,2065730177,1984291000000,,,-1311985616708881517,0.0,7.503062385395853,,,0,10,0.0,16,1984002838288,1000000000,21.990142822265625,-824.5297410209596,2.99792458E8,2,-524289.6760068963,3.4028234663852886E38,1.59806246E9,,,,0,,3,,1.59806246E9
Raw,2065730178,1984291000000,,,-1311985616708881517,0.0,7.503062385395853,,,0,18,0.0,32995,14382927497299,33,38.79567337036133,381.9076946505256,0.054921444819679616,1,14116.964720593083,0.0010274805827066302,1.60031245E9,,,,0,,3,,1.60031245E9
Raw,2065730178,1984291000000,,,-1311985616708881517,0.0,7.503062385395853,,,0,9,0.0,32995,14382933537153,33,43.73466110229492,-309.8586085297393,0.03277359366975252,1,-537758.9506004072,6.13126961980015E-4,1.59862502E9,,,,0,,3,,1.59862502E9
Raw,2065730179,1984291000000,,,-1311985616708881517,0.0,7.503062385395853,,,0,16,0.0,32995,14382932067963,33,35.219608306884766,439.5508762131635,0.08303338470369681,1,7456.737896087792,0.0015497860731557012,1.60143744E9,,,,0,,3,,1.60143744E9
Raw,2065730180,1984291000000,,,-1311985616708881517,0.0,7.503062385395853,,,0,19,0.0,17,178083,74,28.059797286987305,10.57305646727594,0.18676089478267255,4,10.618492901140296,3.4028234663852886E38,1.60368755E9,,,,0,,3,,1.60368755E9
Raw,2065730180,1984291000000,,,-1311985616708881517,0.0,7.503062385395853,,,0,3,0.0,32995,14382923019905,33,35.872398376464844,-459.85451129538865,0.07555136187568162,1,-1076397.6979609875,0.0014345573727041483,1.60481254E9,,,,0,,3,,1.60481254E9
Raw,2065730182,1984291000000,,,-1311985616708881517,0.0,7.503062385395853,,,0,193,0.0,35,11560921,50,25.45487403869629,-180.03520859484354,0.2509564830638704,4,-31170.71143523979,3.4028234663852886E38,1.57542003E9,,,,0,,4,,1.57542003E9
Raw,2065730182,1984291000000,,,-1311985616708881517,0.0,7.503062385395853,,,0,194,0.0,35,15957558,11,38.34954071044922,-139.4089885845666,0.059266779126724844,1,-121411.64360676178,0.0010987241985276341,1.57542003E9,,,,0,,4,,1.57542003E9
Raw,2065730182,1984291000000,,,-1311985616708881517,0.0,7.503062385395853,,,0,195,0.0,16,1984008046098,1000000000,24.678977966308594,-127.72870067761795,2.99792458E8,2,-1.0184662547195584,3.4028234663852886E38,1.57542003E9,,,,0,,4,,1.57542003E9
Raw,2065730185,1984291000000,,,-1311985616708881517,0.0,7.503062385395853,,,0,7,0.0,16431,176386879849768,11,32.468589782714844,-90.24974842941276,0.11456432501906139,1,-201408.05546078732,0.0021822392009198666,1.56109798E9,,,,0,,5,,1.56109798E9
Raw,2065730185,1984291000000,,,-1311985616708881517,0.0,7.503062385395853,,,0,8,0.0,16431,176386878303523,6,38.28662109375,-191.24080456795662,0.060098774659935544,1,-415174.8909333738,0.0011168653145432472,1.56109798E9,,,,0,,5,,1.56109798E9
Raw,2065730185,1984291000000,,,-1311985616708881517,0.0,7.503062385395853,,,0,10,0.0,16431,176386880525515,8,35.01112747192383,-156.8039757034503,0.0865190398025188,1,-296302.7449674696,0.0016284540761262178,1.56109798E9,,,,0,,5,,1.56109798E9
Raw,2065730186,1984291000000,,,-1311985616708881517,0.0,7.503062385395853,,,0,30,0.0,16431,176386924840804,6,39.956695556640625,-302.13344485182256,0.04774059741008316,1,-259055.04150313235,9.215036989189684E-4,1.56109798E9,,,,0,,5,,1.56109798E9
Raw,2065730186,1984291000000,,,-1311985616708881517,0.0,7.503062385395853,,,0,32,0.0,16431,176386914051257,10,33.38335037231445,-649.9862556868648,0.10242641895794724,1,-531536.4981217209,0.001964103663340211,1.56109798E9,,,,0,,5,,1.56109798E9
Raw,2065730186,1984291000000,,,-1311985616708881517,0.0,7.503062385395853,,,0,33,0.0,16431,176386910751586,21,26.78020477294922,65.30208894507427,0.2155914744124956,4,19731.697197990514,3.4028234663852886E38,1.56109798E9,,,,0,,5,,1.56109798E9
Raw,2065730187,1984291000000,,,-1311985616708881517,0.0,7.503062385395853,,,0,36,0.0,16431,176386921104213,6,40.933250427246094,-281.8268105134234,0.04208433250328916,1,-299538.648880205,8.680567261762917E-4,1.56109798E9,,,,0,,5,,1.56109798E9
Fix,gps,34.486326,109.464203,356.842712,0.265901,2.000000,1627952383999
Raw,2065731155,1985291000000,,,-1311985616708881904,0.0,7.844580540801692,,,0,1,0.0,16431,176401924566927,21,32.74969482421875,513.463318396965,0.1082807049341577,1,648125.2390893146,0.002093538409098983,1.57542003E9,,,,0,,1,,1.57542003E9
Raw,2065731155,1985291000000,,,-1311985616708881904,0.0,7.844580540801692,,,0,2,0.0,16,1985015306382,1000000000,19.85736656188965,-680.2295961420327,2.99792458E8,2,-10.18486664802193,3.4028234663852886E38,1.57542003E9,,,,0,,1,,1.57542003E9
Raw,2065731156,1985291000000,,,-1311985616708881904,0.0,7.844580540801692,,,0,3,0.0,16431,176401926180076,27,30.578142166137695,-127.18822960269335,0.13909328425427636,1,-26307.178261639285,0.002534442348405719,1.57542003E9,,,,0,,1,,1.57542003E9
Raw,2065731156,1985291000000,,,-1311985616708881904,0.0,7.844580540801692,,,0,6,0.0,16431,176401925366137,31,29.430347442626953,-615.1957702122495,0.15844000431101557,4,-544636.0375897682,3.4028234663852886E38,1.57542003E9,,,,0,,1,,1.57542003E9
Raw,2065731156,1985291000000,,,-1311985616708881904,0.0,7.844580540801692,,,0,14,0.0,16431,176401932517244,11,38.59588623046875,-26.069189579599282,0.057070915350113494,1,-260432.62345458014,0.0010680003324523568,1.57542003E9,,,,0,,1,,1.57542003E9
Raw,2065731162,1985291000000,,,-1311985616708881904,0.0,7.844580540801692,,,0,17,0.0,16431,176401929723705,16,35.193572998046875,-177.50697196998146,0.08285443516512758,1,-154540.6738468517,0.001580109354108572,1.57542003E9,,,,0,,1,,1.57542003E9
Raw,2065731162,1985291000000,,,-1311985616708881904,0.0,7.844580540801692,,,0,19,0.0,16431,176401928202543,8,41.39728927612305,-425.3230865728033,0.04118214591490313,1,-532380.0729069954,8.154173847287893E-4,1.57542003E9,,,,0,,1,,1.57542003E9
Raw,2065731163,1985291000000,,,-1311985616708881904,0.0,7.844580540801692,,,0,21,0.0,16431,176401915059869,14,36.31809997558594,468.3587999294168,0.07396521294323749,1,548176.8809383791,0.0013882279163226485,1.57542003E9,,,,0,,1,,1.57542003E9
Raw,2065731163,1985291000000,,,-1311985616708881904,0.0,7.844580540801692,,,0,22,0.0,16431,176401922465433,166,30.000537872314453,194.78923136391597,0.1479127356270591,1,10527.557551413145,0.0027087100315839052,1.57542003E9,,,,1,,1,,1.57542003E9
Raw,2065731164,1985291000000,,,-1311985616708881904,0.0,7.844580540801692,,,0,24,0.0,39,1917045303,54,24.69656753540039,-348.84549646372557,0.274647418264959,4,-525340.710443115,3.4028234663852886E38,1.57542003E9,,,,0,,1,,1.57542003E9
Raw,2065731164,1985291000000,,,-1311985616708881904,0.0,7.844580540801692,,,0,30,0.0,16397,176401920552346,10,38.892555236816406,493.6954595312784,0.05667547231696163,1,18760.79057653365,0.0010321384761482477,1.57542003E9,,,,0,,1,,1.57542003E9
Raw,2065731164,1985291000000,,,-1311985616708881904,0.0,7.844580540801692,,,0,10,0.0,16,1985002841039,1000000000,18.762367248535156,-824.5297410209596,2.99792458E8,2,-524289.6630984073,3.4028234663852886E38,1.59806246E9,,,,0,,3,,1.59806246E9
Raw,2065731165,1985291000000,,,-1311985616708881904,0.0,7.844580540801692,,,0,18,0.0,32995,14383927496003,33,38.44940948486328,381.9295755876133,0.05710004686385528,1,14498.897054059378,0.0010692686773836613,1.60031245E9,,,,0,,3,,1.60031245E9
Raw,2065731165,1985291000000,,,-1311985616708881904,0.0,7.844580540801692,,,0,9,0.0,32995,14383933538201,33,43.60441207885742,-309.6637591257984,0.03323214874199408,1,-538068.7032458805,6.223902455531061E-4,1.59862502E9,,,,0,,3,,1.59862502E9
Raw,2065731165,1985291000000,,,-1311985616708881904,0.0,7.844580540801692,,,0,16,0.0,32995,14383932066490,36,34.27110290527344,439.7673679769964,0.09236356534867524,1,7896.324022466802,0.0017286099027842283,1.60143744E9,,,,0,,3,,1.60143744E9
Raw,2065731166,1985291000000,,,-1311985616708881904,0.0,7.844580540801692,,,0,19,0.0,99,1933178104,67,28.904420852661133,10.579030482858329,0.16967480016248537,4,21.178289667946423,3.4028234663852886E38,1.60368755E9,,,,0,,3,,1.60368755E9
Raw,2065731166,1985291000000,,,-1311985616708881904,0.0,7.844580540801692,,,0,3,0.0,32995,14383923021418,33,36.024505615234375,-459.7472878871679,0.07424953019346403,1,-1076857.480785639,0.0014096538070589304,1.60481254E9,,,,0,,3,,1.60481254E9
Raw,2065731166,1985291000000,,,-1311985616708881904,0.0,7.844580540801692,,,0,193,0.0,35,11561427,36,28.1712703704834,-180.02622786754978,0.18411880544552683,1,-31350.76568759361,0.0033436899539083242,1.57542003E9,,,,0,,4,,1.57542003E9
Raw,2065731167,1985291000000,,,-1311985616708881904,0.0,7.844580540801692,,,0,194,0.0,35,15958015,11,38.29721450805664,-139.30934852292216,0.05960762865468966,1,-121551.0626047916,0.0011053631315007806,1.57542003E9,,,,0,,4,,1.57542003E9
Raw,2065731167,1985291000000,,,-1311985616708881904,0.0,7.844580540801692,,,0,195,0.0,16,1985008046524,1000000000,26.37374496459961,-127.72870067761795,2.99792458E8,2,-1.0214628224258135,3.4028234663852886E38,1.57542003E9,,,,0,,4,,1.57542003E9
Raw,2065731167,1985291000000,,,-1311985616708881904,0.0,7.844580540801692,,,0,7,0.0,16431,176387879850070,10,32.66743087768555,-90.18964401733479,0.1120523581074781,1,-201498.30747738975,0.002132849767804146,1.56109798E9,,,,0,,5,,1.56109798E9
Raw,2065731167,1985291000000,,,-1311985616708881904,0.0,7.844580540801692,,,0,8,0.0,16431,176387878304166,6,38.887203216552734,-191.1717535110414,0.05630375636505361,1,-415366.1072174341,0.0010422496125102043,1.56109798E9,,,,0,,5,,1.56109798E9
Raw,2065731168,1985291000000,,,-1311985616708881904,0.0,7.844580540801692,,,0,10,0.0,16431,176387880526033,8,34.77375793457031,-156.73891229394826,0.08881386418836495,1,-296459.5226348246,0.0016735706012696028,1.56109798E9,,,,0,,5,,1.56109798E9
Raw,2065731168,1985291000000,,,-1311985616708881904,0.0,7.844580540801692,,,0,30,0.0,16431,176387924841812,6,39.51818084716797,-302.04987466842863,0.050167811670076334,1,-259357.12743839648,9.692211169749498E-4,1.56109798E9,,,,0,,5,,1.56109798E9
Raw,2065731168,1985291000000,,,-1311985616708881904,0.0,7.844580540801692,,,0,32,0.0,16431,176387914053491,166,32.117733001708984,-649.9030944929491,0.11809696830928579,1,-532186.4685704467,0.002272192854434252,1.56109798E9,,,,1,,5,,1.56109798E9
Raw,2065731169,1985291000000,,,-1311985616708881904,0.0,7.844580540801692,,,0,33,0.0,16431,176387910751319,21,26.824724197387695,65.38832182038405,0.21449912169584484,4,19797.00932674226,3.4028234663852886E38,1.56109798E9,,,,0,,5,,1.56109798E9
Raw,2065731169,1985291000000,,,-1311985616708881904,0.0,7.844580540801692,,,0,36,0.0,16431,176387921105149,6,40.69003677368164,-281.6849082056907,0.04327391923988555,1,-299820.3945766082,8.927068556658924E-4,1.56109798E9,,,,0,,5,,1.56109798E9
Fix,gps,34.486326,109.464204,356.927185,0.188464,2.000000,1627952384999
Raw,2065732162,1986291000000,,,-1311985616708882290,0.0,7.933948402715614,,,0,1,0.0,16431,176402924565148,23,31.946430206298828,513.4977075955965,0.1186921381988627,1,648638.7264031908,0.0022963823284953833,1.57542003E9,,,,0,,1,,1.57542003E9
Raw,2065732162,1986291000000,,,-1311985616708882290,0.0,7.933948402715614,,,0,2,0.0,16,1986015308651,1000000000,19.0937557220459,-680.2295961420327,2.99792458E8,2,-10.200825112646552,3.4028234663852886E38,1.57542003E9,,,,0,,1,,1.57542003E9
Raw,2065732162,1986291000000,,,-1311985616708882290,0.0,7.933948402715614,,,0,3,0.0,16431,176402926180535,32,29.206111907958984,-127.02297229162838,0.16270480466897486,1,-26434.282931257443,0.0029681366868317127,1.57542003E9,,,,0,,1,,1.57542003E9
Raw,2065732162,1986291000000,,,-1311985616708882290,0.0,7.933948402715614,,,0,6,0.0,16431,176402925368248,12,37.67918395996094,-615.4492755238662,0.06188690541602096,4,-545251.5337768708,3.4028234663852886E38,1.57542003E9,,,,0,,1,,1.57542003E9
Raw,2065732163,1986291000000,,,-1311985616708882290,0.0,7.933948402715614,,,0,14,0.0,16431,176402932517343,9,40.354373931884766,-25.949551636590087,0.04702389643682853,1,-260458.68183380007,8.722619968466461E-4,1.57542003E9,,,,0,,1,,1.57542003E9
Raw,2065732163,1986291000000,,,-1311985616708882290,0.0,7.933948402715614,,,0,17,0.0,16431,176402929724323,12,37.28469467163086,-177.55978273636356,0.0655011394111854,1,-154718.25446309254,0.0012420270359143615,1.57542003E9,,,,0,,1,,1.57542003E9
Raw,2065732163,1986291000000,,,-1311985616708882290,0.0,7.933948402715614,,,0,19,0.0,16431,176402928203940,11,38.321128845214844,-425.0437126766858,0.058056851920165076,1,-532805.3566996035,0.0010392811382189393,1.57542003E9,,,,0,,1,,1.57542003E9
Raw,2065732164,1986291000000,,,-1311985616708882290,0.0,7.933948402715614,,,0,21,0.0,16431,176402915058305,13,36.878543853759766,468.4458806058326,0.06951242653601958,1,548645.26271763,0.0013014832511544228,1.57542003E9,,,,0,,1,,1.57542003E9
Raw,2065732164,1986291000000,,,-1311985616708882290,0.0,7.933948402715614,,,0,22,0.0,16431,176402922464848,32,29.35230827331543,194.99551543202028,0.15933934514741654,1,10722.429598742707,0.0029185968451201916,1.57542003E9,,,,0,,1,,1.57542003E9
Raw,2065732164,1986291000000,,,-1311985616708882290,0.0,7.933948402715614,,,0,24,0.0,39,2917046486,53,24.99010467529297,-348.5997278697396,0.26562297289830517,4,-525689.4728187221,3.4028234663852886E38,1.57542003E9,,,,0,,1,,1.57542003E9
Raw,2065732165,1986291000000,,,-1311985616708882290,0.0,7.933948402715614,,,0,30,0.0,16397,176402920550739,13,36.894351959228516,493.82224626954326,0.07037891641090882,1,19254.505587042397,0.0012991165276616812,1.57542003E9,,,,0,,1,,1.57542003E9
Raw,2065732165,1986291000000,,,-1311985616708882290,0.0,7.933948402715614,,,0,10,0.0,16,1986002843789,1000000000,19.52276611328125,-824.4383318725654,2.99792458E8,2,-524289.6500069319,3.4028234663852886E38,1.59806246E9,,,,0,,3,,1.59806246E9
Raw,2065732165,1986291000000,,,-1311985616708882290,0.0,7.933948402715614,,,0,18,0.0,32995,14384927494775,33,38.65796661376953,382.0265742588772,0.05577709670638015,1,14880.850118631932,0.0010439002653583884,1.60031245E9,,,,0,,3,,1.60031245E9
Raw,2065732166,1986291000000,,,-1311985616708882290,0.0,7.933948402715614,,,0,9,0.0,32995,14384933539200,33,44.27227020263672,-309.53025814359853,0.03243537563028266,1,-538378.3275474728,5.763282533735037E-4,1.59862502E9,,,,0,,3,,1.59862502E9
Raw,2065732166,1986291000000,,,-1311985616708882290,0.0,7.933948402715614,,,0,16,0.0,32995,14384932065016,33,38.82884216308594,439.77950133151853,0.055538881470402784,1,8336.054404866209,0.0010228452738374472,1.60143744E9,,,,0,,3,,1.60143744E9
Raw,2065732167,1986291000000,,,-1311985616708882290,0.0,7.933948402715614,,,0,19,0.0,99,933178068,71,28.387231826782227,10.665588206581837,0.179939261154348,4,31.800195213153895,3.4028234663852886E38,1.60368755E9,,,,0,,3,,1.60368755E9
Raw,2065732167,1986291000000,,,-1311985616708882290,0.0,7.933948402715614,,,0,3,0.0,32995,14384923022963,33,35.740997314453125,-459.4333884625928,0.07669526264364068,1,-1077317.078614576,0.0014564241282641888,1.60481254E9,,,,0,,3,,1.60481254E9
Raw,2065732167,1986291000000,,,-1311985616708882290,0.0,7.933948402715614,,,0,193,0.0,35,11562028,39,27.481338500976562,-179.65689332744034,0.19916832351205582,1,-31530.70357308798,0.0036201162729412317,1.57542003E9,,,,0,,4,,1.57542003E9
Raw,2065732168,1986291000000,,,-1311985616708882290,0.0,7.933948402715614,,,0,194,0.0,35,15958462,12,37.23490905761719,-139.30817267817213,0.06698898508646145,1,-121690.40852781665,0.00124916632194072,1.57542003E9,,,,0,,4,,1.57542003E9
Raw,2065732168,1986291000000,,,-1311985616708882290,0.0,7.933948402715614,,,0,195,0.0,16,1986008046950,1000000000,29.816862106323242,-127.72870067761795,2.99792458E8,2,-1.0204639665195414,3.4028234663852886E38,1.57542003E9,,,,0,,4,,1.57542003E9
Raw,2065732168,1986291000000,,,-1311985616708882290,0.0,7.933948402715614,,,0,7,0.0,16431,176388879850339,13,30.959218978881836,-90.02442078872633,0.13562941330369088,1,-201588.46462807865,0.002447905484586954,1.56109798E9,,,,0,,5,,1.56109798E9
Raw,2065732168,1986291000000,,,-1311985616708882290,0.0,7.933948402715614,,,0,8,0.0,16431,176388878304797,6,37.17820739746094,-191.0011026512317,0.0678309740352688,1,-415557.26810464973,0.001268883002921939,1.56109798E9,,,,0,,5,,1.56109798E9
Raw,2065732169,1986291000000,,,-1311985616708882290,0.0,7.933948402715614,,,0,10,0.0,16431,176388880526546,6,37.12578582763672,-156.73961098430698,0.06862126515634759,1,-296616.29868738446,0.00127656408585608,1.56109798E9,,,,0,,5,,1.56109798E9
Raw,2065732169,1986291000000,,,-1311985616708882290,0.0,7.933948402715614,,,0,30,0.0,16431,176388924842810,6,42.9936408996582,-302.0967380461475,0.033911580349339124,1,-259659.22442990707,6.84744562022388E-4,1.56109798E9,,,,0,,5,,1.56109798E9
