# 
# Header Description:
# 
# Version: v2.0.0.1 Platform: 10 Manufacturer: HUAWEI Model: BLA-AL00
# 
# Raw,ElapsedRealtimeMillis,TimeNanos,LeapSecond,TimeUncertaintyNanos,FullBiasNanos,BiasNanos,BiasUncertaintyNanos,DriftNanosPerSecond,DriftUncertaintyNanosPerSecond,HardwareClockDiscontinuityCount,Svid,TimeOffsetNanos,State,ReceivedSvTimeNanos,ReceivedSvTimeUncertaintyNanos,Cn0DbHz,PseudorangeRateMetersPerSecond,PseudorangeRateUncertaintyMetersPerSecond,AccumulatedDeltaRangeState,AccumulatedDeltaRangeMeters,AccumulatedDeltaRangeUncertaintyMeters,CarrierFrequencyHz,CarrierCycles,CarrierPhase,CarrierPhaseUncertainty,MultipathIndicator,SnrInDb,ConstellationType,AgcDb,CarrierFrequencyHz
# 
# Fix,Provider,Latitude,Longitude,Altitude,Speed,Accuracy,(UTC)TimeInMs
# 
# Nav,Svid,Type,Status,MessageId,Sub-messageId,Data(Bytes)
# 
Fix,gps,34.486290,109.464237,358.619873,0.575094,3.000000,1627820679999
Raw,1934026503,2027824000000,,,-1311853870175970109,0.0,8.357843124314117,,,0,10,0.0,16431,44697931994849,6,43.15234375,-309.58049568451315,0.034599850845707936,1,-795490.2468114436,6.662348750978708E-4,1.57542003E9,,,,0,,1,,1.57542003E9
Raw,1934026504,2027824000000,,,-1311853870175970109,0.0,8.357843124314117,,,0,12,0.0,16431,44697924245835,22,32.622337341308594,-437.32566670924575,0.10981016349153105,4,-1006717.0386841588,3.4028234663852886E38,1.57542003E9,,,,0,,1,,1.57542003E9
Raw,1934026504,2027824000000,,,-1311853870175970109,0.0,8.357843124314117,,,0,15,0.0,16431,44697915763280,42,27.016380310058594,415.4211104792312,0.21076170075546752,4,544624.9742122076,3.4028234663852886E38,1.57542003E9,,,,0,,1,,1.57542003E9
Raw,1934026504,2027824000000,,,-1311853870175970109,0.0,8.357843124314117,,,0,18,0.0,39,3920370525,56,24.428104400634766,566.9243780495149,0.2837705995762172,4,1059928.7943303243,3.4028234663852886E38,1.57542003E9,,,,0,,1,,1.57542003E9
Raw,1934026505,2027824000000,,,-1311853870175970109,0.0,8.357843124314117,,,0,23,0.0,16431,44697931152424,14,36.48555374145508,153.38351149050584,0.07190177648487822,1,112466.38417151938,0.0013617208460345864,1.57542003E9,,,,0,,1,,1.57542003E9
Raw,1934026505,2027824000000,,,-1311853870175970109,0.0,8.357843124314117,,,0,24,0.0,16431,44697925406961,23,32.20374298095703,480.9042113508981,0.11540291487521992,4,543956.4801332098,3.4028234663852886E38,1.57542003E9,,,,0,,1,,1.57542003E9
Raw,1934026506,2027824000000,,,-1311853870175970109,0.0,8.357843124314117,,,0,25,0.0,16431,44697923822114,16,34.947391510009766,-688.4183153111162,0.0841245308880732,1,-1208804.869547128,0.0016255344962701201,1.57542003E9,,,,0,,1,,1.57542003E9
Raw,1934026506,2027824000000,,,-1311853870175970109,0.0,8.357843124314117,,,0,31,0.0,16,2027019081655,1000000000,25.79224967956543,-817.9835917615364,2.99792458E8,2,-15.518549828602568,3.4028234663852886E38,1.57542003E9,,,,0,,1,,1.57542003E9
Raw,1934026506,2027824000000,,,-1311853870175970109,0.0,8.357843124314117,,,0,32,0.0,16431,44697927547186,10,38.92626190185547,-387.90545718449675,0.05413098728035609,4,-587077.3255451649,3.4028234663852886E38,1.57542003E9,,,,0,,1,,1.57542003E9
Raw,1934026507,2027824000000,,,-1311853870175970109,0.0,8.357843124314117,,,0,10,0.0,32995,55479931434465,33,40.395599365234375,-735.9188304722179,0.04661711200029761,4,-1466320.7962870894,3.4028234663852886E38,1.59806246E9,,,,0,,3,,1.59806246E9
Raw,1934026507,2027824000000,,,-1311853870175970109,0.0,8.357843124314117,,,0,9,0.0,32995,55479933742102,36,34.265037536621094,-36.28372310102088,0.09272797137918304,4,-414208.57993436867,3.4028234663852886E38,1.59862502E9,,,,0,,3,,1.59862502E9
Raw,1934026507,2027824000000,,,-1311853870175970109,0.0,8.357843124314117,,,0,16,0.0,32995,55479924130197,44,32.50080490112305,570.759301975005,0.11132590086462557,4,548755.3739744128,3.4028234663852886E38,1.60143744E9,,,,0,,3,,1.60143744E9
Raw,1934026508,2027824000000,,,-1311853870175970109,0.0,8.357843124314117,,,0,23,0.0,32961,55479924474192,33,40.72789001464844,54.243034754088086,0.043692602580915396,4,1741.2912847243724,3.4028234663852886E38,1.60368755E9,,,,0,,3,,1.60368755E9
Raw,1934026508,2027824000000,,,-1311853870175970109,0.0,8.357843124314117,,,0,7,0.0,32961,55479933028574,42,33.00627899169922,-151.46587911547817,0.10667477719332619,4,-562140.1991540595,3.4028234663852886E38,1.60481254E9,,,,0,,3,,1.60481254E9
Raw,1934026508,2027824000000,,,-1311853870175970109,0.0,8.357843124314117,,,0,8,0.0,32961,55479928181065,33,38.0371208190918,-558.5996357964489,0.059933396529224886,4,-570115.9093008469,3.4028234663852886E38,1.60537498E9,,,,0,,3,,1.60537498E9
Raw,1934026509,2027824000000,,,-1311853870175970109,0.0,8.357843124314117,,,0,193,0.0,35,9656815,24,31.646289825439453,-258.3959055504913,0.1237522014229624,4,-502895.81136630254,3.4028234663852886E38,1.57542003E9,,,,0,,4,,1.57542003E9
Raw,1934026509,2027824000000,,,-1311853870175970109,0.0,8.357843124314117,,,0,194,0.0,35,12505295,20,33.191139221191406,-98.2551551060883,0.10438363897160102,1,-102897.51688009175,0.0019897969905287027,1.57542003E9,,,,0,,4,,1.57542003E9
Raw,1934026509,2027824000000,,,-1311853870175970109,0.0,8.357843124314117,,,0,2,0.0,16,610881279,1000000000,31.938419342041016,-116.53506764674438,2.99792458E8,6,-70.96767725984607,3.4028234663852886E38,1.56109798E9,,,,0,,5,,1.56109798E9
Raw,1934026510,2027824000000,,,-1311853870175970109,0.0,8.357843124314117,,,0,6,0.0,16431,44683878682870,12,31.272180557250977,-81.07199897510799,0.1307459115163484,4,-137326.641626764,3.4028234663852886E38,1.56109798E9,,,,0,,5,,1.56109798E9
Raw,1934026510,2027824000000,,,-1311853870175970109,0.0,8.357843124314117,,,0,14,0.0,16431,44683924243636,9,33.5162353515625,149.50187755835123,0.09914555815110265,4,198542.29302135052,3.4028234663852886E38,1.56109798E9,,,,0,,5,,1.56109798E9
Raw,1934026511,2027824000000,,,-1311853870175970109,0.0,8.357843124314117,,,0,16,0.0,16431,44683878038701,8,34.91057586669922,-78.76311704042672,0.08703615953531252,4,-135484.32199403225,3.4028234663852886E38,1.56109798E9,,,,0,,5,,1.56109798E9
Raw,1934026511,2027824000000,,,-1311853870175970109,0.0,8.357843124314117,,,0,24,0.0,16431,44683924110033,166,32.54948425292969,65.36200164333431,0.11070424551139824,4,-62441.73274388058,3.4028234663852886E38,1.56109798E9,,,,1,,5,,1.56109798E9
Raw,1934026511,2027824000000,,,-1311853870175970109,0.0,8.357843124314117,,,0,25,0.0,16431,44683923624849,6,44.315799713134766,-553.3906776362417,0.03065202523827741,4,-912170.2600749228,3.4028234663852886E38,1.56109798E9,,,,0,,5,,1.56109798E9
Raw,1934026512,2027824000000,,,-1311853870175970109,0.0,8.357843124314117,,,0,26,0.0,16431,44683914675101,12,31.68389320373535,446.3588469035949,0.12412779908042898,1,763546.1052202603,0.002251961501315236,1.56109798E9,,,,0,,5,,1.56109798E9
Raw,1934026512,2027824000000,,,-1311853870175970109,0.0,8.357843124314117,,,0,27,0.0,16431,44683912983886,6,40.72950744628906,147.13386256160288,0.04521531703892065,1,138777.68581418635,8.886592113412917E-4,1.56109798E9,,,,0,,5,,1.56109798E9
Raw,1934026512,2027824000000,,,-1311853870175970109,0.0,8.357843124314117,,,0,33,0.0,16431,44683926138178,11,31.923141479492188,-93.87669268458654,0.1192915517536805,4,-271745.01604236115,3.4028234663852886E38,1.56109798E9,,,,0,,5,,1.56109798E9
Fix,gps,34.486290,109.464230,358.625458,0.495328,3.000000,1627820680999
Raw,1934027461,2028824000000,,,-1311853870175970495,0.0,8.361043326109401,,,0,10,0.0,16431,44698931995901,6,43.82099914550781,-309.5260660014462,0.03219628461829235,1,-795799.7481281669,6.16871053352952E-4,1.57542003E9,,,,0,,1,,1.57542003E9
Raw,1934027461,2028824000000,,,-1311853870175970495,0.0,8.361043326109401,,,0,12,0.0,16431,44698924247334,21,32.79744338989258,-437.9898656219623,0.10763407852330709,4,-1007154.75092905,3.4028234663852886E38,1.57542003E9,,,,0,,1,,1.57542003E9
Raw,1934027461,2028824000000,,,-1311853870175970495,0.0,8.361043326109401,,,0,15,0.0,16431,44698915761906,48,25.755474090576172,414.57211648724797,0.24324637571052643,4,545040.2962688504,3.4028234663852886E38,1.57542003E9,,,,0,,1,,1.57542003E9
Raw,1934027462,2028824000000,,,-1311853870175970495,0.0,8.361043326109401,,,0,18,0.0,39,4920368635,41,27.189624786376953,566.9608462779943,0.20748397693253628,4,1060495.674687826,3.4028234663852886E38,1.57542003E9,,,,0,,1,,1.57542003E9
Raw,1934027462,2028824000000,,,-1311853870175970495,0.0,8.361043326109401,,,0,23,0.0,16431,44698931151914,13,36.73670196533203,153.48739481798737,0.06990964192347793,1,112619.7751253291,0.001322910888120532,1.57542003E9,,,,0,,1,,1.57542003E9
Raw,1934027462,2028824000000,,,-1311853870175970495,0.0,8.361043326109401,,,0,24,0.0,16431,44698925405370,29,30.141220092773438,480.61921384945435,0.14607228297482733,4,544437.3456026291,3.4028234663852886E38,1.57542003E9,,,,0,,1,,1.57542003E9
Raw,1934027462,2028824000000,,,-1311853870175970495,0.0,8.361043326109401,,,0,25,0.0,16431,44698923824455,20,33.35196304321289,-688.2008010735876,0.10094851677279443,1,-1209493.2019843238,0.0018415830563753843,1.57542003E9,,,,0,,1,,1.57542003E9
Raw,1934027463,2028824000000,,,-1311853870175970495,0.0,8.361043326109401,,,0,31,0.0,16,2028019084384,1000000000,18.51263427734375,-817.9835917615364,2.99792458E8,2,-15.53774005909944,3.4028234663852886E38,1.57542003E9,,,,0,,1,,1.57542003E9
Raw,1934027463,2028824000000,,,-1311853870175970495,0.0,8.361043326109401,,,0,32,0.0,16431,44698927548448,12,37.25105667114258,-387.93323438656284,0.06535711274127493,4,-587465.1247784866,3.4028234663852886E38,1.57542003E9,,,,0,,1,,1.57542003E9
Raw,1934027463,2028824000000,,,-1311853870175970495,0.0,8.361043326109401,,,0,10,0.0,32995,55480931436948,33,41.49410629272461,-735.8144699903451,0.041323809445738297,4,-1465585.5001038804,3.4028234663852886E38,1.59806246E9,,,,0,,3,,1.59806246E9
Raw,1934027463,2028824000000,,,-1311853870175970495,0.0,8.361043326109401,,,0,9,0.0,32995,55480933742226,36,34.22596740722656,-36.442496224732395,0.09313487230848527,4,-414245.0791076464,3.4028234663852886E38,1.59862502E9,,,,0,,3,,1.59862502E9
Raw,1934027463,2028824000000,,,-1311853870175970495,0.0,8.361043326109401,,,0,16,0.0,32995,55480924128235,55,30.56694793701172,571.0592957573188,0.13890215290019214,4,549326.32331154,3.4028234663852886E38,1.60143744E9,,,,0,,3,,1.60143744E9
Raw,1934027463,2028824000000,,,-1311853870175970495,0.0,8.361043326109401,,,0,23,0.0,32961,55480924473985,33,39.00508117675781,54.235327858606865,0.05310145745109479,4,1795.6466125633203,3.4028234663852886E38,1.60368755E9,,,,0,,3,,1.60368755E9
Raw,1934027464,2028824000000,,,-1311853870175970495,0.0,8.361043326109401,,,0,7,0.0,32961,55480933029088,166,30.73061752319336,-151.01852983238803,0.1379242044058881,4,-562291.7479115976,3.4028234663852886E38,1.60481254E9,,,,1,,3,,1.60481254E9
Raw,1934027464,2028824000000,,,-1311853870175970495,0.0,8.361043326109401,,,0,8,0.0,32961,55480928182970,33,36.9124641418457,-558.6634722375161,0.06801534464816045,4,-570674.4539799127,3.4028234663852886E38,1.60537498E9,,,,0,,3,,1.60537498E9
Raw,1934027464,2028824000000,,,-1311853870175970495,0.0,8.361043326109401,,,0,193,0.0,35,9657653,28,30.50252914428711,-258.47961206371133,0.14092521629237742,4,-503154.2054997415,3.4028234663852886E38,1.57542003E9,,,,0,,4,,1.57542003E9
Raw,1934027464,2028824000000,,,-1311853870175970495,0.0,8.361043326109401,,,0,194,0.0,35,12505604,17,34.62839126586914,-98.18126434034684,0.0888077816015197,1,-102995.7913200975,0.0016863440396264195,1.57542003E9,,,,0,,4,,1.57542003E9
Raw,1934027464,2028824000000,,,-1311853870175970495,0.0,8.361043326109401,,,0,6,0.0,16431,44684878683121,11,32.084564208984375,-81.14731268340927,0.1193718735195044,4,-137407.74411631448,3.4028234663852886E38,1.56109798E9,,,,0,,5,,1.56109798E9
Raw,1934027465,2028824000000,,,-1311853870175970495,0.0,8.361043326109401,,,0,14,0.0,16431,44684924243136,166,29.586769104003906,149.92165413411442,0.15542750124472693,4,198692.19605199833,3.4028234663852886E38,1.56109798E9,,,,1,,5,,1.56109798E9
Raw,1934027465,2028824000000,,,-1311853870175970495,0.0,8.361043326109401,,,0,16,0.0,16431,44684878038975,9,34.23750686645508,-78.94274010691606,0.0937873899251997,4,-135563.10461338388,3.4028234663852886E38,1.56109798E9,,,,0,,5,,1.56109798E9
Raw,1934027465,2028824000000,,,-1311853870175970495,0.0,8.361043326109401,,,0,24,0.0,16431,44684924109889,166,28.989952087402344,64.61209813338411,0.16640429889137587,4,-62376.48289562674,3.4028234663852886E38,1.56109798E9,,,,1,,5,,1.56109798E9
Raw,1934027465,2028824000000,,,-1311853870175970495,0.0,8.361043326109401,,,0,25,0.0,16431,44684923626691,6,44.69805145263672,-553.335157314566,0.030652355994538832,4,-912723.6255061474,3.4028234663852886E38,1.56109798E9,,,,0,,5,,1.56109798E9
Raw,1934027465,2028824000000,,,-1311853870175970495,0.0,8.361043326109401,,,0,26,0.0,16431,44684914673556,12,31.56230354309082,446.25537256559164,0.12584011800512296,4,763992.3826674401,3.4028234663852886E38,1.56109798E9,,,,0,,5,,1.56109798E9
Raw,1934027465,2028824000000,,,-1311853870175970495,0.0,8.361043326109401,,,0,27,0.0,16431,44684912983414,6,39.5015983581543,147.22014230029038,0.05172646830848937,1,138924.91420654772,0.0010236011585220695,1.56109798E9,,,,0,,5,,1.56109798E9
Raw,1934027466,2028824000000,,,-1311853870175970495,0.0,8.361043326109401,,,0,33,0.0,16431,44684926138502,11,32.52669906616211,-93.80976326058988,0.11135795301856255,4,-271838.7486321024,3.4028234663852886E38,1.56109798E9,,,,0,,5,,1.56109798E9
Fix,gps,34.486291,109.464224,358.419312,0.442845,3.000000,1627820681999
Raw,1934028469,2029824000000,,,-1311853870175970882,0.0,8.500774602360266,,,0,10,0.0,16431,44699931996946,6,43.086307525634766,-309.3209918605485,0.0348478119501429,1,-796109.1504644995,6.713190814480186E-4,1.57542003E9,,,,0,,1,,1.57542003E9
Raw,1934028470,2029824000000,,,-1311853870175970882,0.0,8.500774602360266,,,0,12,0.0,16431,44699924248797,26,31.179489135742188,-437.528491408013,0.1295162138223135,4,-1007592.3594080087,3.4028234663852886E38,1.57542003E9,,,,0,,1,,1.57542003E9
Raw,1934028470,2029824000000,,,-1311853870175970882,0.0,8.500774602360266,,,0,15,0.0,16431,44699915760611,65,21.892723083496094,414.0409754847965,4.2028349905013265,4,545455.7430450395,3.4028234663852886E38,1.57542003E9,,,,0,,1,,1.57542003E9
Raw,1934028470,2029824000000,,,-1311853870175970882,0.0,8.500774602360266,,,0,18,0.0,39,5920366800,47,25.970741271972656,566.9778193413426,0.23818964085132155,4,1061062.5624042265,3.4028234663852886E38,1.57542003E9,,,,0,,1,,1.57542003E9
Raw,1934028471,2029824000000,,,-1311853870175970882,0.0,8.500774602360266,,,0,23,0.0,16431,44699931151403,15,35.711341857910156,153.5857056638274,0.07841780796947395,1,112773.27925769228,0.001488670939579606,1.57542003E9,,,,0,,1,,1.57542003E9
Raw,1934028471,2029824000000,,,-1311853870175970882,0.0,8.500774602360266,,,0,24,0.0,16431,44699925403827,38,27.869720458984375,481.1208735270136,0.1894420424818588,4,544918.340413163,3.4028234663852886E38,1.57542003E9,,,,0,,1,,1.57542003E9
Raw,1934028471,2029824000000,,,-1311853870175970882,0.0,8.500774602360266,,,0,25,0.0,16431,44699923826706,21,32.9747314453125,-688.2851210710251,0.10539919798921638,1,-1210181.4799181824,0.001923325820825994,1.57542003E9,,,,0,,1,,1.57542003E9
Raw,1934028471,2029824000000,,,-1311853870175970882,0.0,8.500774602360266,,,0,31,0.0,16,2029019087112,1000000000,7.0,-817.9835917615364,2.99792458E8,2,-15.53134331566733,3.4028234663852886E38,1.57542003E9,,,,0,,1,,1.57542003E9
Raw,1934028472,2029824000000,,,-1311853870175970882,0.0,8.500774602360266,,,0,32,0.0,16431,44699927549708,21,32.93494415283203,-386.7819290052223,0.1065496556360182,4,-587852.8212046811,3.4028234663852886E38,1.57542003E9,,,,0,,1,,1.57542003E9
Raw,1934028472,2029824000000,,,-1311853870175970882,0.0,8.500774602360266,,,0,10,0.0,32995,55481931439393,33,42.315528869628906,-735.6478067779485,0.037780993840304145,4,-1464849.3230326872,3.4028234663852886E38,1.59806246E9,,,,0,,3,,1.59806246E9
Raw,1934028472,2029824000000,,,-1311853870175970882,0.0,8.500774602360266,,,0,9,0.0,32995,55481933742427,46,32.17512130737305,-36.25221813027261,0.11727999618311902,4,-414281.4071313684,3.4028234663852886E38,1.59862502E9,,,,0,,3,,1.59862502E9
Raw,1934028472,2029824000000,,,-1311853870175970882,0.0,8.500774602360266,,,0,16,0.0,32995,55481924126353,50,31.455833435058594,570.9641375387071,0.12546243179868488,4,549897.2578260067,3.4028234663852886E38,1.60143744E9,,,,0,,3,,1.60143744E9
Raw,1934028473,2029824000000,,,-1311853870175970882,0.0,8.500774602360266,,,0,23,0.0,32961,55481924473834,33,36.70630645751953,54.52254071972459,0.06894645056702622,4,1850.1384251164834,3.4028234663852886E38,1.60368755E9,,,,0,,3,,1.60368755E9
Raw,1934028474,2029824000000,,,-1311853870175970882,0.0,8.500774602360266,,,0,7,0.0,32961,55481933029484,70,28.537858963012695,-151.46226637508676,0.17685975810272692,4,-562443.0267724574,3.4028234663852886E38,1.60481254E9,,,,0,,3,,1.60481254E9
Raw,1934028474,2029824000000,,,-1311853870175970882,0.0,8.500774602360266,,,0,8,0.0,32961,55481928184842,39,33.67875671386719,-558.5866844629702,0.0980307472923242,4,-571233.0288110235,3.4028234663852886E38,1.60537498E9,,,,0,,3,,1.60537498E9
Raw,1934028474,2029824000000,,,-1311853870175970882,0.0,8.500774602360266,,,0,193,0.0,35,9658468,30,29.866016387939453,-258.3679238536861,0.15150826837197084,4,-503412.6004807392,3.4028234663852886E38,1.57542003E9,,,,0,,4,,1.57542003E9
Raw,1934028474,2029824000000,,,-1311853870175970882,0.0,8.500774602360266,,,0,194,0.0,35,12505916,14,36.49504852294922,-98.23826724888124,0.07206889368624642,1,-103094.02352545263,0.0013602328253909945,1.57542003E9,,,,0,,4,,1.57542003E9
Raw,1934028475,2029824000000,,,-1311853870175970882,0.0,8.500774602360266,,,0,6,0.0,16431,44685878683388,10,33.46738052368164,-81.0397825330798,0.10229781925932419,4,-137488.8515157861,3.4028234663852886E38,1.56109798E9,,,,0,,5,,1.56109798E9
Raw,1934028475,2029824000000,,,-1311853870175970882,0.0,8.500774602360266,,,0,14,0.0,16431,44685924242632,25,25.41913604736328,149.931469881593,0.2506662163613944,4,198842.0026038304,3.4028234663852886E38,1.56109798E9,,,,0,,5,,1.56109798E9
Raw,1934028475,2029824000000,,,-1311853870175970882,0.0,8.500774602360266,,,0,16,0.0,16431,44685878039254,10,33.12224578857422,-78.80490213212369,0.10619241391094647,4,-135641.9389041412,3.4028234663852886E38,1.56109798E9,,,,0,,5,,1.56109798E9
Raw,1934028475,2029824000000,,,-1311853870175970882,0.0,8.500774602360266,,,0,24,0.0,16431,44685924109628,16,29.345609664916992,65.27208786272007,0.15975783710746494,4,-62311.28767860749,3.4028234663852886E38,1.56109798E9,,,,0,,5,,1.56109798E9
Raw,1934028475,2029824000000,,,-1311853870175970882,0.0,8.500774602360266,,,0,25,0.0,16431,44685923628533,6,45.48900604248047,-553.1966462112573,0.030652686750800254,4,-913276.8812046568,3.4028234663852886E38,1.56109798E9,,,,0,,5,,1.56109798E9
Raw,1934028475,2029824000000,,,-1311853870175970882,0.0,8.500774602360266,,,0,26,0.0,16431,44685914672134,18,28.20533561706543,446.31351723641956,0.18396580051131262,4,764438.5827508944,3.4028234663852886E38,1.56109798E9,,,,0,,5,,1.56109798E9
Raw,1934028475,2029824000000,,,-1311853870175970882,0.0,8.500774602360266,,,0,27,0.0,16431,44685912982908,6,36.693824768066406,147.33760748669624,0.07057501534959854,1,139072.17429155865,0.0013416542205959558,1.56109798E9,,,,0,,5,,1.56109798E9
Raw,1934028475,2029824000000,,,-1311853870175970882,0.0,8.500774602360266,,,0,33,0.0,16431,44685926138819,11,32.36494445800781,-93.62692792257326,0.11343047591308464,4,-271932.4129061598,3.4028234663852886E38,1.56109798E9,,,,0,,5,,1.56109798E9
Fix,gps,34.486291,109.464218,358.443909,0.396494,3.000000,1627820682999
Raw,1934029549,2030824000000,,,-1311853870175971269,0.0,8.478158464523702,,,0,10,0.0,16431,44700931997975,6,43.197105407714844,-309.35006419596243,0.03443365310514193,1,-796418.4409514769,6.628100527450442E-4,1.57542003E9,,,,0,,1,,1.57542003E9
Raw,1934029550,2030824000000,,,-1311853870175971269,0.0,8.478158464523702,,,0,12,0.0,16431,44700924250194,34,28.670900344848633,-437.23868828019954,0.17262787527357726,4,-1008029.8039515397,3.4028234663852886E38,1.57542003E9,,,,0,,1,,1.57542003E9
Raw,1934029550,2030824000000,,,-1311853870175971269,0.0,8.478158464523702,,,0,15,0.0,16431,44700915759203,80,18.935688018798828,414.18630307940975,4.202834724232135,4,545870.9872923556,3.4028234663852886E38,1.57542003E9,,,,0,,1,,1.57542003E9
Raw,1934029550,2030824000000,,,-1311853870175971269,0.0,8.478158464523702,,,0,18,0.0,39,920364826,39,27.63691520690918,566.8216876080116,0.19725298264969093,4,1061629.4613136442,3.4028234663852886E38,1.57542003E9,,,,0,,1,,1.57542003E9
Raw,1934029551,2030824000000,,,-1311853870175971269,0.0,8.478158464523702,,,0,23,0.0,16431,44700931150909,17,34.642547607421875,153.71385570035318,0.08842313911245148,1,112926.93666741825,0.0016835975693538785,1.57542003E9,,,,0,,1,,1.57542003E9
Raw,1934029551,2030824000000,,,-1311853870175971269,0.0,8.478158464523702,,,0,24,0.0,16431,44700925402164,40,27.324363708496094,481.00260740287945,0.20165451223752884,4,545399.3150972774,3.4028234663852886E38,1.57542003E9,,,,0,,1,,1.57542003E9
Raw,1934029551,2030824000000,,,-1311853870175971269,0.0,8.478158464523702,,,0,25,0.0,16431,44700923829076,22,32.46421432495117,-688.1030525882802,0.11173853490245911,1,-1210869.5891073067,0.0020397587213665247,1.57542003E9,,,,0,,1,,1.57542003E9
Raw,1934029552,2030824000000,,,-1311853870175971269,0.0,8.478158464523702,,,0,31,0.0,16,2030019089841,1000000000,15.478167533874512,-817.9835917615364,2.99792458E8,2,-15.52494657202013,3.4028234663852886E38,1.57542003E9,,,,0,,1,,1.57542003E9
Raw,1934029552,2030824000000,,,-1311853870175971269,0.0,8.478158464523702,,,0,32,0.0,16431,44700927550990,24,31.860143661499023,-388.25101921118153,0.12040597985049606,4,-588240.7580058008,3.4028234663852886E38,1.57542003E9,,,,0,,1,,1.57542003E9
Raw,1934029552,2030824000000,,,-1311853870175971269,0.0,8.478158464523702,,,0,10,0.0,32995,55482931441856,33,41.377105712890625,-735.5186342677271,0.041857196561955384,4,-1464113.7596080399,3.4028234663852886E38,1.59806246E9,,,,0,,3,,1.59806246E9
Raw,1934029553,2030824000000,,,-1311853870175971269,0.0,8.478158464523702,,,0,9,0.0,32995,55482933742527,50,31.449186325073242,-35.98710774220993,0.12728759893513725,4,-414317.5119322104,3.4028234663852886E38,1.59862502E9,,,,0,,3,,1.59862502E9
Raw,1934029553,2030824000000,,,-1311853870175971269,0.0,8.478158464523702,,,0,16,0.0,32995,55482924124454,35,34.577537536621094,571.1083744947116,0.08780848996732771,4,550468.3316201261,3.4028234663852886E38,1.60143744E9,,,,0,,3,,1.60143744E9
Raw,1934029554,2030824000000,,,-1311853870175971269,0.0,8.478158464523702,,,0,23,0.0,32961,55482924473625,33,38.45891189575195,54.73603322738347,0.05649541193660876,1,1904.7773051918903,0.0010658515384420753,1.60368755E9,,,,0,,3,,1.60368755E9
Raw,1934029554,2030824000000,,,-1311853870175971269,0.0,8.478158464523702,,,0,7,0.0,32961,55482933030152,85,26.886390686035156,-151.51497489409928,0.21340520464769352,4,-562594.3755996748,3.4028234663852886E38,1.60481254E9,,,,0,,3,,1.60481254E9
Raw,1934029555,2030824000000,,,-1311853870175971269,0.0,8.478158464523702,,,0,8,0.0,32961,55482928186742,41,33.173248291015625,-558.6781276938209,0.10381743417752115,4,-571791.6028157508,3.4028234663852886E38,1.60537498E9,,,,0,,3,,1.60537498E9
Raw,1934029555,2030824000000,,,-1311853870175971269,0.0,8.478158464523702,,,0,193,0.0,35,9659328,29,30.056297302246094,-258.3317453260871,0.14826307931588634,4,-503670.9476961913,3.4028234663852886E38,1.57542003E9,,,,0,,4,,1.57542003E9
Raw,1934029555,2030824000000,,,-1311853870175971269,0.0,8.478158464523702,,,0,194,0.0,35,12506226,14,36.18649673461914,-98.09897224907252,0.07459373304906036,1,-103192.17447127568,0.001409421325661242,1.57542003E9,,,,0,,4,,1.57542003E9
Raw,1934029556,2030824000000,,,-1311853870175971269,0.0,8.478158464523702,,,0,6,0.0,16431,44686878683664,10,32.956214904785156,-81.10067936227193,0.10829505018685431,1,-137569.94335576988,0.0020631044171750546,1.56109798E9,,,,0,,5,,1.56109798E9
Raw,1934029556,2030824000000,,,-1311853870175971269,0.0,8.478158464523702,,,0,14,0.0,16431,44686924242203,65,21.86009979248047,150.12337115304467,4.200763149921608,4,198992.27387436407,3.4028234663852886E38,1.56109798E9,,,,0,,5,,1.56109798E9
Raw,1934029556,2030824000000,,,-1311853870175971269,0.0,8.478158464523702,,,0,16,0.0,16431,44686878039500,11,32.55856704711914,-78.80761168741725,0.11309486855982914,1,-135720.7259551752,0.0021597500890493393,1.56109798E9,,,,0,,5,,1.56109798E9
Raw,1934029557,2030824000000,,,-1311853870175971269,0.0,8.478158464523702,,,0,24,0.0,16431,44686924109383,166,27.3637752532959,65.29358537217183,0.20051348218429155,4,-62245.974348820375,3.4028234663852886E38,1.56109798E9,,,,1,,5,,1.56109798E9
Raw,1934029558,2030824000000,,,-1311853870175971269,0.0,8.478158464523702,,,0,25,0.0,16431,44686923630383,6,45.23683166503906,-553.1328097701901,0.030653019587289734,4,-913830.048716645,3.4028234663852886E38,1.56109798E9,,,,0,,5,,1.56109798E9
Raw,1934029558,2030824000000,,,-1311853870175971269,0.0,8.478158464523702,,,0,26,0.0,16431,44686914670628,15,29.636659622192383,446.42121779903164,0.1564173236807932,4,764884.8432449225,3.4028234663852886E38,1.56109798E9,,,,0,,5,,1.56109798E9
Raw,1934029558,2030824000000,,,-1311853870175971269,0.0,8.478158464523702,,,0,27,0.0,16431,44686912982424,6,36.93642044067383,147.38748716181738,0.06869537952164267,1,139219.50545998174,0.001304700504988432,1.56109798E9,,,,0,,5,,1.56109798E9
Raw,1934029559,2030824000000,,,-1311853870175971269,0.0,8.478158464523702,,,0,33,0.0,16431,44686926139110,11,32.013954162597656,-93.4808249520741,0.11806245316532665,4,-272025.96762408223,3.4028234663852886E38,1.56109798E9,,,,0,,5,,1.56109798E9
Fix,gps,34.486291,109.464214,358.614838,0.365596,3.000000,1627820683999
Raw,1934030506,2031824000000,,,-1311853870175971656,0.0,8.403591535912973,,,0,10,0.0,16431,44701931998991,6,46.03606414794922,-309.143967581369,0.032158322536439035,1,-796727.6278169502,4.7801484470255673E-4,1.57542003E9,,,,0,,1,,1.57542003E9
Raw,1934030507,2031824000000,,,-1311853870175971656,0.0,8.403591535912973,,,0,12,0.0,16431,44701924251663,35,28.551172256469727,-437.3521828604205,0.17501354737922714,4,-1008467.1675743646,3.4028234663852886E38,1.57542003E9,,,,0,,1,,1.57542003E9
Raw,1934030507,2031824000000,,,-1311853870175971656,0.0,8.403591535912973,,,0,15,0.0,16431,44701915757700,71,20.730060577392578,414.39577385719895,4.202834457962943,4,546286.314708798,3.4028234663852886E38,1.57542003E9,,,,0,,1,,1.57542003E9
Raw,1934030507,2031824000000,,,-1311853870175971656,0.0,8.403591535912973,,,0,18,0.0,16431,44701920362920,43,26.806671142578125,566.9944515801258,0.21667023075855107,1,1062196.4008780366,0.003912513609975576,1.57542003E9,,,,0,,1,,1.57542003E9
Raw,1934030508,2031824000000,,,-1311853870175971656,0.0,8.403591535912973,,,0,23,0.0,16431,44701931150393,17,34.79816818237305,153.82823642444373,0.08688852158949117,1,113080.67579018071,0.001653701881878078,1.57542003E9,,,,0,,1,,1.57542003E9
Raw,1934030508,2031824000000,,,-1311853870175971656,0.0,8.403591535912973,,,0,24,0.0,16431,44701925400531,38,27.84539794921875,481.01695611707555,0.1899699877214729,4,545880.3316869065,3.4028234663852886E38,1.57542003E9,,,,0,,1,,1.57542003E9
Raw,1934030509,2031824000000,,,-1311853870175971656,0.0,8.403591535912973,,,0,25,0.0,16431,44701923831362,26,31.103979110717773,-688.017641952234,0.13056532275806848,4,-1211557.7310704244,3.4028234663852886E38,1.57542003E9,,,,0,,1,,1.57542003E9
Raw,1934030509,2031824000000,,,-1311853870175971656,0.0,8.403591535912973,,,0,31,0.0,16,2031019092569,1000000000,20.832122802734375,-817.9835917615364,2.99792458E8,2,-15.518549828588023,3.4028234663852886E38,1.57542003E9,,,,0,,1,,1.57542003E9
Raw,1934030509,2031824000000,,,-1311853870175971656,0.0,8.403591535912973,,,0,32,0.0,16431,44701927552337,19,33.847862243652344,-387.7440085879482,0.0960552711972224,4,-588628.4922922639,3.4028234663852886E38,1.57542003E9,,,,0,,1,,1.57542003E9
Raw,1934030510,2031824000000,,,-1311853870175971656,0.0,8.403591535912973,,,0,10,0.0,32995,55483931444297,33,40.64466857910156,-735.4197269788979,0.04535925633925264,4,-1463378.4646366222,3.4028234663852886E38,1.59806246E9,,,,0,,3,,1.59806246E9
Raw,1934030510,2031824000000,,,-1311853870175971656,0.0,8.403591535912973,,,0,9,0.0,32995,55483933742648,53,31.028661727905273,-35.82613203974563,0.13347921469343627,4,-414353.4689610959,3.4028234663852886E38,1.59862502E9,,,,0,,3,,1.59862502E9
Raw,1934030510,2031824000000,,,-1311853870175971656,0.0,8.403591535912973,,,0,16,0.0,32995,55483924122517,33,36.44247055053711,571.2134507081714,0.07098485356092044,1,551039.4761331299,0.0013462587958201766,1.60143744E9,,,,0,,3,,1.60143744E9
Raw,1934030511,2031824000000,,,-1311853870175971656,0.0,8.403591535912973,,,0,23,0.0,32961,55483924473462,33,37.196441650390625,54.84601305427552,0.06520768579932262,1,1959.5683532021294,0.001232594600878656,1.60368755E9,,,,0,,3,,1.60368755E9
Raw,1934030511,2031824000000,,,-1311853870175971656,0.0,8.403591535912973,,,0,7,0.0,32961,55483933030466,104,25.117528915405273,-150.9062110969171,0.2610769090649103,4,-562745.6197442216,3.4028234663852886E38,1.60481254E9,,,,0,,3,,1.60481254E9
Raw,1934030511,2031824000000,,,-1311853870175971656,0.0,8.403591535912973,,,0,8,0.0,32961,55483928188562,33,35.472938537597656,-558.5757099119699,0.08001120441647652,1,-572350.1431603197,0.001501545892097056,1.60537498E9,,,,0,,3,,1.60537498E9
Raw,1934030512,2031824000000,,,-1311853870175971656,0.0,8.403591535912973,,,0,193,0.0,35,9660195,29,30.150680541992188,-258.3848798758062,0.14667965964265595,1,-503929.32327384327,0.0026622903533279896,1.57542003E9,,,,0,,4,,1.57542003E9
Raw,1934030512,2031824000000,,,-1311853870175971656,0.0,8.403591535912973,,,0,194,0.0,35,12506581,16,34.952781677246094,-98.20997880996731,0.0856348679891259,1,-103290.35453629738,0.0016245258739218116,1.57542003E9,,,,0,,4,,1.57542003E9
Raw,1934030512,2031824000000,,,-1311853870175971656,0.0,8.403591535912973,,,0,6,0.0,16431,44687878683937,8,34.709075927734375,-81.0702266873688,0.0891187756963781,1,-137651.03033105808,0.001686079427599907,1.56109798E9,,,,0,,5,,1.56109798E9
Raw,1934030512,2031824000000,,,-1311853870175971656,0.0,8.403591535912973,,,0,14,0.0,16431,44687924241684,95,16.8780517578125,150.07168510772783,299.7932070571403,4,199143.5357000925,3.4028234663852886E38,1.56109798E9,,,,0,,5,,1.56109798E9
Raw,1934030513,2031824000000,,,-1311853870175971656,0.0,8.403591535912973,,,0,16,0.0,16431,44687878039750,8,35.142799377441406,-78.75737414650263,0.08482581737140876,1,-135799.5006386319,0.0016039542388170958,1.56109798E9,,,,0,,5,,1.56109798E9
Raw,1934030513,2031824000000,,,-1311853870175971656,0.0,8.403591535912973,,,0,24,0.0,16431,44687924109240,29,24.043855667114258,65.58716313204519,0.2935152864642825,4,-62180.539329300074,3.4028234663852886E38,1.56109798E9,,,,0,,5,,1.56109798E9
Raw,1934030513,2031824000000,,,-1311853870175971656,0.0,8.403591535912973,,,0,25,0.0,16431,44687923632229,6,45.01107406616211,-553.0530909043832,0.030653352423779215,1,-914383.1266032796,5.428214790299535E-4,1.56109798E9,,,,0,,5,,1.56109798E9
Raw,1934030514,2031824000000,,,-1311853870175971656,0.0,8.403591535912973,,,0,26,0.0,16431,44687914669152,9,34.01846694946289,446.30305392226705,0.09549355969575052,4,765331.1330781045,3.4028234663852886E38,1.56109798E9,,,,0,,5,,1.56109798E9
Raw,1934030514,2031824000000,,,-1311853870175971656,0.0,8.403591535912973,,,0,27,0.0,16431,44687912981938,6,36.8408088684082,147.43837226940593,0.06942978739613767,1,139366.92280404654,0.0013191418256610632,1.56109798E9,,,,0,,5,,1.56109798E9
Raw,1934030514,2031824000000,,,-1311853870175971656,0.0,8.403591535912973,,,0,33,0.0,16431,44687926139445,10,33.00482940673828,-93.52796951005928,0.10545299268682867,1,-272119.49451040453,0.002051589312031865,1.56109798E9,,,,0,,5,,1.56109798E9
Fix,gps,34.486291,109.464210,358.389282,0.255636,3.000000,1627820684999
Raw,1934031530,2032824000000,,,-1311853870175972045,0.0,8.315253560014183,,,0,10,0.0,16431,44702932000032,6,45.61496353149414,-309.0443445609528,0.03215850975696437,1,-797036.7014479791,5.017603398300707E-4,1.57542003E9,,,,0,,1,,1.57542003E9
Raw,1934031530,2032824000000,,,-1311853870175972045,0.0,8.315253560014183,,,0,12,0.0,16431,44702924253150,43,26.77336311340332,-437.2773377858964,0.2145909013578191,4,-1008904.4557513318,3.4028234663852886E38,1.57542003E9,,,,0,,1,,1.57542003E9
Raw,1934031531,2032824000000,,,-1311853870175972045,0.0,8.315253560014183,,,0,15,0.0,16431,44702915756311,70,21.000043869018555,414.7048676554043,4.202834191693752,4,546701.627128425,3.4028234663852886E38,1.57542003E9,,,,0,,1,,1.57542003E9
Raw,1934031531,2032824000000,,,-1311853870175972045,0.0,8.315253560014183,,,0,18,0.0,16431,44702920361069,54,24.745140075683594,566.9993935363216,0.27372938865967367,1,1062763.331367596,0.004960579797625542,1.57542003E9,,,,0,,1,,1.57542003E9
Raw,1934031532,2032824000000,,,-1311853870175972045,0.0,8.315253560014183,,,0,23,0.0,16431,44702931149833,16,35.351341247558594,153.90306445773956,0.08165108147923505,1,113234.52537266508,0.001551667577587068,1.57542003E9,,,,0,,1,,1.57542003E9
Raw,1934031532,2032824000000,,,-1311853870175972045,0.0,8.315253560014183,,,0,24,0.0,16431,44702925398955,37,28.03789710998535,481.05523071575067,0.18582713865325928,4,546361.4336523167,3.4028234663852886E38,1.57542003E9,,,,0,,1,,1.57542003E9
Raw,1934031533,2032824000000,,,-1311853870175972045,0.0,8.315253560014183,,,0,25,0.0,16431,44702923833667,23,31.885902404785156,-688.0979402198018,0.1193848208589452,4,-1212245.825372654,3.4028234663852886E38,1.57542003E9,,,,0,,1,,1.57542003E9
Raw,1934031533,2032824000000,,,-1311853870175972045,0.0,8.315253560014183,,,0,31,0.0,16,2032019095236,1000000000,7.0,-817.7978423734871,2.99792458E8,2,-15.534210926513492,3.4028234663852886E38,1.57542003E9,,,,0,,1,,1.57542003E9
Raw,1934031534,2032824000000,,,-1311853870175972045,0.0,8.315253560014183,,,0,32,0.0,16431,44702927553685,22,32.46689224243164,-387.79533676747155,0.11237426923919147,4,-589016.169275354,3.4028234663852886E38,1.57542003E9,,,,0,,1,,1.57542003E9
Raw,1934031534,2032824000000,,,-1311853870175972045,0.0,8.315253560014183,,,0,10,0.0,32995,55484931446741,33,41.81714630126953,-735.2806705562848,0.03989202175620302,1,-1462643.0443969448,7.659312686882913E-4,1.59806246E9,,,,0,,3,,1.59806246E9
Raw,1934031534,2032824000000,,,-1311853870175972045,0.0,8.315253560014183,,,0,9,0.0,32995,55484933742771,47,32.02396011352539,-35.72155854251952,0.1192955291497298,1,-414389.24057651527,0.002239787019789219,1.59862502E9,,,,0,,3,,1.59862502E9
Raw,1934031534,2032824000000,,,-1311853870175972045,0.0,8.315253560014183,,,0,16,0.0,32995,55484924120673,33,36.190284729003906,571.3003268898481,0.07305385670956627,1,551610.7552136449,0.0013859188184142113,1.60143744E9,,,,0,,3,,1.60143744E9
Raw,1934031535,2032824000000,,,-1311853870175972045,0.0,8.315253560014183,,,0,23,0.0,32961,55484924473303,33,36.67047119140625,55.02345058324033,0.06922806768123185,1,2014.5142951185394,0.0013095400063320994,1.60368755E9,,,,0,,3,,1.60368755E9
Raw,1934031535,2032824000000,,,-1311853870175972045,0.0,8.315253560014183,,,0,7,0.0,32961,55484933031106,85,26.872955322265625,-151.18521008601283,0.21373210000583687,4,-562896.7884386095,3.4028234663852886E38,1.60481254E9,,,,0,,3,,1.60481254E9
Raw,1934031535,2032824000000,,,-1311853870175972045,0.0,8.315253560014183,,,0,8,0.0,32961,55484928190441,33,35.68543243408203,-558.4860730513149,0.07811347892531739,1,-572908.637575071,0.0014652578392997384,1.60537498E9,,,,0,,3,,1.60537498E9
Raw,1934031536,2032824000000,,,-1311853870175972045,0.0,8.315253560014183,,,0,193,0.0,35,9661075,32,29.14117431640625,-258.3174818180323,0.16454350992963684,1,-504187.6710802635,0.00299041043035686,1.57542003E9,,,,0,,4,,1.57542003E9
Raw,1934031536,2032824000000,,,-1311853870175972045,0.0,8.315253560014183,,,0,194,0.0,35,12506893,18,34.084136962890625,-98.0905879647679,0.09440525094244695,1,-103388.46424231486,0.001795390504412353,1.57542003E9,,,,0,,4,,1.57542003E9
Raw,1934031536,2032824000000,,,-1311853870175972045,0.0,8.315253560014183,,,0,6,0.0,16431,44688878684219,10,32.87655258178711,-81.09048870777161,0.1092620150770055,1,-137732.09377152214,0.002082112478092313,1.56109798E9,,,,0,,5,,1.56109798E9
Raw,1934031537,2032824000000,,,-1311853870175972045,0.0,8.315253560014183,,,0,14,0.0,16430,44688924241168,1000000000,13.475873947143555,150.28061056621266,2.99792458E8,4,199293.74204958315,3.4028234663852886E38,1.56109798E9,,,,0,,5,,1.56109798E9
Raw,1934031537,2032824000000,,,-1311853870175972045,0.0,8.315253560014183,,,0,16,0.0,16431,44688878040027,10,32.685001373291016,-78.7101614236044,0.11150753805784736,1,-135878.25254386233,0.0021285400725901127,1.56109798E9,,,,0,,5,,1.56109798E9
Raw,1934031537,2032824000000,,,-1311853870175972045,0.0,8.315253560014183,,,0,24,0.0,16431,44688924108980,26,24.861011505126953,65.31012814450659,0.26722714492665467,4,-62114.98988128481,3.4028234663852886E38,1.56109798E9,,,,0,,5,,1.56109798E9
Raw,1934031538,2032824000000,,,-1311853870175972045,0.0,8.315253560014183,,,0,25,0.0,16431,44688923634070,6,45.241397857666016,-552.960113962989,0.030653683180040636,1,-914936.1280436048,5.286164814606309E-4,1.56109798E9,,,,0,,5,,1.56109798E9
Raw,1934031538,2032824000000,,,-1311853870175972045,0.0,8.315253560014183,,,0,26,0.0,16431,44688914667684,12,31.869373321533203,446.458333594185,0.1215596992948948,4,765777.551730943,3.4028234663852886E38,1.56109798E9,,,,0,,5,,1.56109798E9
Raw,1934031538,2032824000000,,,-1311853870175972045,0.0,8.315253560014183,,,0,27,0.0,16431,44688912981445,7,36.425811767578125,147.4986982174513,0.07271318192075843,1,139514.4037292166,0.001383697846904397,1.56109798E9,,,,0,,5,,1.56109798E9
Raw,1934031539,2032824000000,,,-1311853870175972045,0.0,8.315253560014183,,,0,33,0.0,16431,44688926139762,13,30.796567916870117,-93.37806634565783,0.13565944347595427,1,-272212.9379585736,0.0024941766168922186,1.56109798E9,,,,0,,5,,1.56109798E9
Fix,gps,34.486291,109.464208,358.322693,0.179338,3.000000,1627820685999
Raw,1934032481,2033824000000,,,-1311853870175972434,0.0,8.425795719343483,,,0,10,0.0,16431,44703932001057,6,44.344703674316406,-308.86462776770804,0.03215869489726164,1,-797345.6757106461,5.807769484817982E-4,1.57542003E9,,,,0,,1,,1.57542003E9
Raw,1934032481,2033824000000,,,-1311853870175972434,0.0,8.425795719343483,,,0,12,0.0,16431,44703924254556,33,28.938156127929688,-437.1039944120214,0.16742114765038796,1,-1009341.6301199965,0.0030611297115683556,1.57542003E9,,,,0,,1,,1.57542003E9
Raw,1934032481,2033824000000,,,-1311853870175972434,0.0,8.425795719343483,,,0,15,0.0,16431,44703915754896,167,18.582822799682617,414.7203751731222,4.20283392542456,4,547117.2099309481,3.4028234663852886E38,1.57542003E9,,,,1,,1,,1.57542003E9
Raw,1934032481,2033824000000,,,-1311853870175972434,0.0,8.425795719343483,,,0,18,0.0,16431,44703920359172,62,22.39991569519043,567.0249212962572,4.203662022610388,4,1063330.2164271541,3.4028234663852886E38,1.57542003E9,,,,0,,1,,1.57542003E9
Raw,1934032481,2033824000000,,,-1311853870175972434,0.0,8.425795719343483,,,0,23,0.0,16431,44703931149353,14,36.22724151611328,154.14334577622537,0.07401109445331239,1,113388.50164941604,0.0014028256991878152,1.57542003E9,,,,0,,1,,1.57542003E9
Raw,1934032481,2033824000000,,,-1311853870175972434,0.0,8.425795719343483,,,0,24,0.0,16431,44703925397435,44,26.499120712280273,481.15604662214514,0.2216556221162358,4,546842.5851036123,3.4028234663852886E38,1.57542003E9,,,,0,,1,,1.57542003E9
Raw,1934032482,2033824000000,,,-1311853870175972434,0.0,8.425795719343483,,,0,25,0.0,16431,44703923835980,31,29.6383056640625,-687.9021705895348,0.15443929306563464,4,-1212933.8727286642,3.4028234663852886E38,1.57542003E9,,,,0,,1,,1.57542003E9
Raw,1934032482,2033824000000,,,-1311853870175972434,0.0,8.425795719343483,,,0,31,0.0,16,2033019098025,1000000000,23.87479591369629,-817.7978423734871,2.99792458E8,2,-15.52781563597744,3.4028234663852886E38,1.57542003E9,,,,0,,1,,1.57542003E9
Raw,1934032482,2033824000000,,,-1311853870175972434,0.0,8.425795719343483,,,0,32,0.0,16431,44703927554938,15,35.61366271972656,-387.3404041378051,0.0786350669879824,4,-589403.8131315431,3.4028234663852886E38,1.57542003E9,,,,0,,1,,1.57542003E9
Raw,1934032482,2033824000000,,,-1311853870175972434,0.0,8.425795719343483,,,0,10,0.0,32995,55485931449193,33,42.880714416503906,-735.0840829470612,0.035532283950075516,1,-1461907.872925953,6.776590598747134E-4,1.59806246E9,,,,0,,3,,1.59806246E9
Raw,1934032482,2033824000000,,,-1311853870175972434,0.0,8.425795719343483,,,0,9,0.0,32995,55485933742897,50,31.53663444519043,-35.319950046236514,0.12603735690878914,1,-414424.7726375978,0.002233555307611823,1.59862502E9,,,,0,,3,,1.59862502E9
Raw,1934032482,2033824000000,,,-1311853870175972434,0.0,8.425795719343483,,,0,16,0.0,32995,55485924118753,40,33.29069137573242,571.6142263144231,0.10171119494661468,1,552182.180554681,0.0018244889797642827,1.60143744E9,,,,0,,3,,1.60143744E9
Raw,1934032483,2033824000000,,,-1311853870175972434,0.0,8.425795719343483,,,0,23,0.0,32961,55485924473082,33,39.10947036743164,55.12046629573251,0.05247656110255114,1,2069.6039584560817,9.889373322948813E-4,1.60368755E9,,,,0,,3,,1.60368755E9
Raw,1934032483,2033824000000,,,-1311853870175972434,0.0,8.425795719343483,,,0,7,0.0,32961,55485933031708,106,24.973628997802734,-150.57855940113507,0.2653993234191987,4,-563047.8795175839,3.4028234663852886E38,1.60481254E9,,,,0,,3,,1.60481254E9
Raw,1934032483,2033824000000,,,-1311853870175972434,0.0,8.425795719343483,,,0,8,0.0,32961,55485928192269,34,34.68056106567383,-558.5996698789054,0.08751356355399897,1,-573467.1475781095,0.0016449680551886559,1.60537498E9,,,,0,,3,,1.60537498E9
Raw,1934032484,2033824000000,,,-1311853870175972434,0.0,8.425795719343483,,,0,193,0.0,35,9661945,32,29.11998748779297,-258.2500667190302,0.1649412661763906,1,-504445.96783302195,0.0029977131634950638,1.57542003E9,,,,0,,4,,1.57542003E9
Raw,1934032484,2033824000000,,,-1311853870175972434,0.0,8.425795719343483,,,0,194,0.0,35,12507244,18,33.99378204345703,-97.9775790595524,0.09536893739317676,1,-103486.54705214982,0.0018141642212867737,1.57542003E9,,,,0,,4,,1.57542003E9
Raw,1934032484,2033824000000,,,-1311853870175972434,0.0,8.425795719343483,,,0,6,0.0,16431,44689878684492,166,30.96084213256836,-80.9522502641151,0.1353950381687109,1,-137813.14763428102,0.0024474486708641052,1.56109798E9,,,,1,,5,,1.56109798E9
Raw,1934032484,2033824000000,,,-1311853870175972434,0.0,8.425795719343483,,,0,14,0.0,16431,44689924240578,166,20.297264099121094,150.0850283894565,4.200762883652416,4,199443.84989522718,3.4028234663852886E38,1.56109798E9,,,,1,,5,,1.56109798E9
Raw,1934032484,2033824000000,,,-1311853870175972434,0.0,8.425795719343483,,,0,16,0.0,16431,44689878040283,13,30.686918258666992,-78.65592771466248,0.13950942139616168,1,-135956.99466400532,0.002525863004848361,1.56109798E9,,,,0,,5,,1.56109798E9
Raw,1934032484,2033824000000,,,-1311853870175972434,0.0,8.425795719343483,,,0,24,0.0,16431,44689924108764,30,23.713666915893555,65.32152872621347,0.3048591195497061,4,-62049.25599099127,3.4028234663852886E38,1.56109798E9,,,,0,,5,,1.56109798E9
Raw,1934032485,2033824000000,,,-1311853870175972434,0.0,8.425795719343483,,,0,25,0.0,16431,44689923635912,6,44.0740966796875,-552.9103194940092,0.030654013936302058,1,-915489.0438385166,6.046524504199624E-4,1.56109798E9,,,,0,,5,,1.56109798E9
Raw,1934032485,2033824000000,,,-1311853870175972434,0.0,8.425795719343483,,,0,26,0.0,16431,44689914666129,10,32.7932243347168,446.4214222937708,0.10956012007880878,4,766224.0013690763,3.4028234663852886E38,1.56109798E9,,,,0,,5,,1.56109798E9
Raw,1934032485,2033824000000,,,-1311853870175972434,0.0,8.425795719343483,,,0,27,0.0,16431,44689912980940,7,35.82512283325195,147.57514516743197,0.07775248446882677,1,139661.94324538534,0.0014827764825895429,1.56109798E9,,,,0,,5,,1.56109798E9
Raw,1934032485,2033824000000,,,-1311853870175972434,0.0,8.425795719343483,,,0,33,0.0,16431,44689926140060,13,30.892690658569336,-93.30910049488392,0.13417863729243074,1,-272306.32129611226,0.002466726815328002,1.56109798E9,,,,0,,5,,1.56109798E9
Fix,gps,34.486291,109.464205,358.217407,0.201476,3.000000,1627820686999
Raw,1934033449,2034824000000,,,-1311853870175972820,0.0,8.299359118393761,,,0,10,0.0,16431,44704932002073,10,38.66378402709961,-309.2606318300466,0.05655139503413939,1,-797654.6953710204,0.0010596844367682934,1.57542003E9,,,,0,,1,,1.57542003E9
Raw,1934033449,2034824000000,,,-1311853870175972820,0.0,8.299359118393761,,,0,12,0.0,16431,44704924256042,27,30.717187881469727,-435.50992383799303,0.13655591359763347,4,-1009778.1504778326,3.4028234663852886E38,1.57542003E9,,,,0,,1,,1.57542003E9
Raw,1934033449,2034824000000,,,-1311853870175972820,0.0,8.299359118393761,,,0,15,0.0,16431,44704915753504,65,21.924510955810547,414.7906191160157,4.2028336591553686,4,547533.1305734529,3.4028234663852886E38,1.57542003E9,,,,0,,1,,1.57542003E9
Raw,1934033450,2034824000000,,,-1311853870175972820,0.0,8.299359118393761,,,0,18,0.0,16431,44704920357234,63,23.387765884399414,566.9732182097121,0.3194093662401898,4,1063897.1636925607,3.4028234663852886E38,1.57542003E9,,,,0,,1,,1.57542003E9
Raw,1934033450,2034824000000,,,-1311853870175972820,0.0,8.299359118393761,,,0,23,0.0,16431,44704931148802,16,35.0296745300293,154.0390023355808,0.08465573792528419,1,113542.61620509719,0.0015181188937276602,1.57542003E9,,,,0,,1,,1.57542003E9
Raw,1934033450,2034824000000,,,-1311853870175972820,0.0,8.299359118393761,,,0,24,0.0,16431,44704925395742,32,29.364938735961914,481.7517397972508,0.15963568611582557,4,547323.9556594485,3.4028234663852886E38,1.57542003E9,,,,0,,1,,1.57542003E9
Raw,1934033450,2034824000000,,,-1311853870175972820,0.0,8.299359118393761,,,0,25,0.0,16431,44704923838197,20,33.131160736083984,-687.4166319139108,0.10353234308245657,4,-1213621.502365484,3.4028234663852886E38,1.57542003E9,,,,0,,1,,1.57542003E9
Raw,1934033450,2034824000000,,,-1311853870175972820,0.0,8.299359118393761,,,0,31,0.0,16,2034019100753,1000000000,7.0,-817.7978423734871,2.99792458E8,2,-15.521420345281017,3.4028234663852886E38,1.57542003E9,,,,0,,1,,1.57542003E9
Raw,1934033450,2034824000000,,,-1311853870175972820,0.0,8.299359118393761,,,0,32,0.0,16431,44704927556245,6,44.061702728271484,-388.18159324724456,0.031359182125196186,4,-589791.7121851015,3.4028234663852886E38,1.57542003E9,,,,0,,1,,1.57542003E9
Raw,1934033451,2034824000000,,,-1311853870175972820,0.0,8.299359118393761,,,0,10,0.0,32995,55486931451653,33,43.001956939697266,-734.9413456191437,0.035068742571175926,1,-1461172.4851735265,6.682657985948026E-4,1.59806246E9,,,,0,,3,,1.59806246E9
Raw,1934033451,2034824000000,,,-1311853870175972820,0.0,8.299359118393761,,,0,9,0.0,32995,55486933742945,61,29.755826950073242,-34.84303423211283,0.15415508398726718,4,-414459.9668381085,3.4028234663852886E38,1.59862502E9,,,,0,,3,,1.59862502E9
Raw,1934033451,2034824000000,,,-1311853870175972820,0.0,8.299359118393761,,,0,16,0.0,32995,55486924116884,48,31.78562355041504,571.6186229513146,0.12081404570751147,1,552753.7650375019,0.002169674728065729,1.60143744E9,,,,0,,3,,1.60143744E9
Raw,1934033451,2034824000000,,,-1311853870175972820,0.0,8.299359118393761,,,0,23,0.0,32961,55486924472906,33,42.305633544921875,54.60552724105057,0.03656862444600281,1,2124.5007383986626,7.215052028186619E-4,1.60368755E9,,,,0,,3,,1.60368755E9
Raw,1934033452,2034824000000,,,-1311853870175972820,0.0,8.299359118393761,,,0,7,0.0,32961,55486933032082,77,27.760929107666016,-151.59258064760172,0.1931896648606387,4,-563199.0484036825,3.4028234663852886E38,1.60481254E9,,,,0,,3,,1.60481254E9
Raw,1934033452,2034824000000,,,-1311853870175972820,0.0,8.299359118393761,,,0,8,0.0,32961,55486928194192,43,32.719608306884766,-559.281216761992,0.1093060077400026,4,-574025.7849348189,3.4028234663852886E38,1.60537498E9,,,,0,,3,,1.60537498E9
Raw,1934033452,2034824000000,,,-1311853870175972820,0.0,8.299359118393761,,,0,193,0.0,35,9662827,43,26.73291778564453,-258.00697359788126,0.21656195904852305,4,-504704.15306664456,3.4028234663852886E38,1.57542003E9,,,,0,,4,,1.57542003E9
Raw,1934033452,2034824000000,,,-1311853870175972820,0.0,8.299359118393761,,,0,194,0.0,35,12507561,25,31.196805953979492,-97.5753975519691,0.13074534569431628,4,-103584.40912422462,3.4028234663852886E38,1.57542003E9,,,,0,,4,,1.57542003E9
Raw,1934033452,2034824000000,,,-1311853870175972820,0.0,8.299359118393761,,,0,6,0.0,16431,44690878684748,14,30.27970314025879,-81.34597932248073,0.14616587659566926,1,-137894.22891863185,0.0026471007149666548,1.56109798E9,,,,0,,5,,1.56109798E9
Raw,1934033452,2034824000000,,,-1311853870175972820,0.0,8.299359118393761,,,0,14,0.0,16431,44690924240116,22,26.40762710571289,150.26046783440768,0.22378434445200668,4,199594.26395998866,3.4028234663852886E38,1.56109798E9,,,,0,,5,,1.56109798E9
Raw,1934033452,2034824000000,,,-1311853870175972820,0.0,8.299359118393761,,,0,16,0.0,16431,44690878040535,11,32.351314544677734,-79.03034054079382,0.11574770851558508,1,-136035.81884054598,0.0020854026079177856,1.56109798E9,,,,0,,5,,1.56109798E9
Raw,1934033453,2034824000000,,,-1311853870175972820,0.0,8.299359118393761,,,0,24,0.0,16431,44690924108487,31,23.51958465576172,65.88086018051638,0.3117309282788199,4,-61983.378167945,3.4028234663852886E38,1.56109798E9,,,,0,,5,,1.56109798E9
Raw,1934033453,2034824000000,,,-1311853870175972820,0.0,8.299359118393761,,,0,25,0.0,16431,44690923637755,6,39.14762878417969,-553.1073501751675,0.0520997818755469,1,-916041.834195222,0.0010114639298990369,1.56109798E9,,,,0,,5,,1.56109798E9
Raw,1934033454,2034824000000,,,-1311853870175972820,0.0,8.299359118393761,,,0,26,0.0,16431,44690914664635,8,35.1990966796875,446.85123615297994,0.08369166871259148,1,766670.6943518382,0.0015935918781906366,1.56109798E9,,,,0,,5,,1.56109798E9
Raw,1934033454,2034824000000,,,-1311853870175972820,0.0,8.299359118393761,,,0,27,0.0,16431,44690912980447,9,34.164772033691406,146.83061390469118,0.09363886996268123,1,139809.1920485181,0.0017951192567124963,1.56109798E9,,,,0,,5,,1.56109798E9
Raw,1934033454,2034824000000,,,-1311853870175972820,0.0,8.299359118393761,,,0,33,0.0,16431,44690926140373,15,29.80307960510254,-93.09295807623039,0.15196462048269765,1,-272399.4818539361,0.0027964150067418814,1.56109798E9,,,,0,,5,,1.56109798E9
Fix,gps,34.486291,109.464201,357.987823,0.395533,3.000000,1627820687999
Raw,1934034541,2035824000000,,,-1311853870175973208,0.0,8.27134939989725,,,0,10,0.0,16431,44705932003129,13,37.001434326171875,-308.9848706743205,0.06802436035656925,4,-797963.5045584231,3.4028234663852886E38,1.57542003E9,,,,0,,1,,1.57542003E9
Raw,1934034541,2035824000000,,,-1311853870175973208,0.0,8.27134939989725,,,0,12,0.0,16431,44705924257502,31,29.501798629760742,-435.35368985729247,0.15695052773694107,4,-1010212.5668894047,3.4028234663852886E38,1.57542003E9,,,,0,,1,,1.57542003E9
Raw,1934034541,2035824000000,,,-1311853870175973208,0.0,8.27134939989725,,,0,15,0.0,16431,44705915752160,59,23.99746322631836,416.33254353156417,0.2971774863580372,4,547949.0810372992,3.4028234663852886E38,1.57542003E9,,,,0,,1,,1.57542003E9
Raw,1934034541,2035824000000,,,-1311853870175973208,0.0,8.27134939989725,,,0,18,0.0,16431,44705920355398,61,22.607072830200195,566.7448657510092,4.203661490072005,4,1064463.941428249,3.4028234663852886E38,1.57542003E9,,,,0,,1,,1.57542003E9
Raw,1934034541,2035824000000,,,-1311853870175973208,0.0,8.27134939989725,,,0,23,0.0,16431,44705931148346,19,33.84556579589844,154.49301473892115,0.09672713493488788,4,113697.17974817475,3.4028234663852886E38,1.57542003E9,,,,0,,1,,1.57542003E9
Raw,1934034542,2035824000000,,,-1311853870175973208,0.0,8.27134939989725,,,0,24,0.0,16431,44705925394188,33,28.93739891052246,482.16386486152464,0.16764066995702487,4,547805.6340519724,3.4028234663852886E38,1.57542003E9,,,,0,,1,,1.57542003E9
Raw,1934034542,2035824000000,,,-1311853870175973208,0.0,8.27134939989725,,,0,25,0.0,16431,44705923840518,14,36.0327262878418,-686.8227791914574,0.07432713934189866,4,-1214308.9376271858,3.4028234663852886E38,1.57542003E9,,,,0,,1,,1.57542003E9
Raw,1934034542,2035824000000,,,-1311853870175973208,0.0,8.27134939989725,,,0,31,0.0,16,2035019103420,1000000000,26.465065002441406,-817.7978423734871,2.99792458E8,2,-15.515025054733043,3.4028234663852886E38,1.57542003E9,,,,0,,1,,1.57542003E9
Raw,1934034542,2035824000000,,,-1311853870175973208,0.0,8.27134939989725,,,0,32,0.0,16431,44705927557535,6,44.73598098754883,-388.3142080855748,0.03135941511073882,4,-590179.8783785463,3.4028234663852886E38,1.57542003E9,,,,0,,1,,1.57542003E9
Raw,1934034542,2035824000000,,,-1311853870175973208,0.0,8.27134939989725,,,0,10,0.0,32995,55487931454080,33,42.913909912109375,-734.7033819077014,0.035405485728951774,1,-1460437.704596846,6.750744068995118E-4,1.59806246E9,,,,0,,3,,1.59806246E9
Raw,1934034542,2035824000000,,,-1311853870175973208,0.0,8.27134939989725,,,0,9,0.0,32995,55487933743026,56,30.420148849487305,-34.44303826205406,0.14298648931355507,4,-414494.6675846231,3.4028234663852886E38,1.59862502E9,,,,0,,3,,1.59862502E9
Raw,1934034543,2035824000000,,,-1311853870175973208,0.0,8.27134939989725,,,0,16,0.0,32995,55487924114921,44,32.45806121826172,572.221337112464,0.11186865732802154,1,553325.7754623453,0.0020080418325960636,1.60143744E9,,,,0,,3,,1.60143744E9
Raw,1934034543,2035824000000,,,-1311853870175973208,0.0,8.27134939989725,,,0,23,0.0,32961,55487924472725,33,43.60010528564453,54.49163645227253,0.0316167642844052,1,2179.155964815797,6.216067704372108E-4,1.60368755E9,,,,0,,3,,1.60368755E9
Raw,1934034543,2035824000000,,,-1311853870175973208,0.0,8.27134939989725,,,0,7,0.0,32961,55487933032592,96,25.821428298950195,-150.99426312334379,0.24093687323549418,4,-563351.0689177105,3.4028234663852886E38,1.60481254E9,,,,0,,3,,1.60481254E9
Raw,1934034543,2035824000000,,,-1311853870175973208,0.0,8.27134939989725,,,0,8,0.0,32961,55487928195969,45,32.42058563232422,-558.9549794881557,0.11308321928269732,4,-574584.6467158141,3.4028234663852886E38,1.60537498E9,,,,0,,3,,1.60537498E9
Raw,1934034543,2035824000000,,,-1311853870175973208,0.0,8.27134939989725,,,0,193,0.0,35,9663641,38,27.713130950927734,-257.5910312984769,0.19363684732608033,4,-504961.9190221881,3.4028234663852886E38,1.57542003E9,,,,0,,4,,1.57542003E9
Raw,1934034543,2035824000000,,,-1311853870175973208,0.0,8.27134939989725,,,0,194,0.0,35,12507889,25,31.43834686279297,-96.99405309105953,0.1272213644737306,4,-103681.86438008714,3.4028234663852886E38,1.57542003E9,,,,0,,4,,1.57542003E9
Raw,1934034544,2035824000000,,,-1311853870175973208,0.0,8.27134939989725,,,0,6,0.0,16431,44691878685014,13,31.142967224121094,-80.93174114590249,0.13265546934470857,1,-137975.32260833363,0.0023966648150235415,1.56109798E9,,,,0,,5,,1.56109798E9
Raw,1934034544,2035824000000,,,-1311853870175973208,0.0,8.27134939989725,,,0,14,0.0,16431,44691924239630,15,29.67766761779785,151.2139245556333,0.1538167390538857,4,199745.1099842652,3.4028234663852886E38,1.56109798E9,,,,0,,5,,1.56109798E9
Raw,1934034544,2035824000000,,,-1311853870175973208,0.0,8.27134939989725,,,0,16,0.0,16431,44691878040807,7,35.680755615234375,-78.87729326977814,0.07992658073902609,1,-136114.69355040247,0.0015076275449246168,1.56109798E9,,,,0,,5,,1.56109798E9
Raw,1934034544,2035824000000,,,-1311853870175973208,0.0,8.27134939989725,,,0,24,0.0,16431,44691924108353,22,26.478965759277344,66.7479263950708,0.2219364029787616,4,-61917.38403633255,3.4028234663852886E38,1.56109798E9,,,,0,,5,,1.56109798E9
Raw,1934034544,2035824000000,,,-1311853870175973208,0.0,8.27134939989725,,,0,25,0.0,16431,44691923639602,6,38.915122985839844,-552.6922258547197,0.053495818765655845,4,-916594.5808691373,3.4028234663852886E38,1.56109798E9,,,,0,,5,,1.56109798E9
Raw,1934034544,2035824000000,,,-1311853870175973208,0.0,8.27134939989725,,,0,26,0.0,16431,44691914663183,9,33.65757369995117,447.673100509571,0.09943182249479265,4,767117.7704555432,3.4028234663852886E38,1.56109798E9,,,,0,,5,,1.56109798E9
Raw,1934034545,2035824000000,,,-1311853870175973208,0.0,8.27134939989725,,,0,27,0.0,16431,44691912979956,9,33.69879913330078,146.69966910673054,0.09867074193612191,1,139956.04214184266,0.001894052023999393,1.56109798E9,,,,0,,5,,1.56109798E9
Raw,1934034545,2035824000000,,,-1311853870175973208,0.0,8.27134939989725,,,0,33,0.0,16431,44691926140682,15,29.590410232543945,-92.79584426149279,0.15570398851653844,4,-272492.4815048146,3.4028234663852886E38,1.56109798E9,,,,0,,5,,1.56109798E9
Fix,gps,34.486291,109.464193,357.871216,0.661501,3.000000,1627820688999
Raw,1934035536,2036824000000,,,-1311853870175973596,0.0,8.28372155181804,,,0,10,0.0,16431,44706932004134,8,40.72956466674805,-308.5977280506779,0.045038780564900155,4,-798272.2449559128,3.4028234663852886E38,1.57542003E9,,,,0,,1,,1.57542003E9
Raw,1934035536,2036824000000,,,-1311853870175973596,0.0,8.28372155181804,,,0,12,0.0,16431,44706924258936,35,28.484230041503906,-435.98418122050793,0.17636299964217717,4,-1010648.5421369575,3.4028234663852886E38,1.57542003E9,,,,0,,1,,1.57542003E9
Raw,1934035537,2036824000000,,,-1311853870175973596,0.0,8.28372155181804,,,0,15,0.0,16431,44706915750754,58,24.210357666015625,417.1539648162204,0.29005039204149186,4,548366.2476655295,3.4028234663852886E38,1.57542003E9,,,,0,,1,,1.57542003E9
Raw,1934035537,2036824000000,,,-1311853870175973596,0.0,8.28372155181804,,,0,18,0.0,16431,44706920353470,59,23.940746307373047,566.6158977355269,0.2999334390582342,4,1065031.048938485,3.4028234663852886E38,1.57542003E9,,,,0,,1,,1.57542003E9
Raw,1934035537,2036824000000,,,-1311853870175973596,0.0,8.28372155181804,,,0,23,0.0,16431,44706931147798,14,36.38026809692383,154.91320030416261,0.07275333032230202,4,113851.81278483542,3.4028234663852886E38,1.57542003E9,,,,0,,1,,1.57542003E9
Raw,1934035539,2036824000000,,,-1311853870175973596,0.0,8.28372155181804,,,0,24,0.0,16431,44706925392542,41,27.231842041015625,482.11546777326225,0.20380190670035958,4,548286.9521437552,3.4028234663852886E38,1.57542003E9,,,,0,,1,,1.57542003E9
Raw,1934035539,2036824000000,,,-1311853870175973596,0.0,8.28372155181804,,,0,25,0.0,16431,44706923842804,17,34.74113464355469,-687.4145869665194,0.08613329063212305,4,-1214996.1379774692,3.4028234663852886E38,1.57542003E9,,,,0,,1,,1.57542003E9
Raw,1934035539,2036824000000,,,-1311853870175973596,0.0,8.28372155181804,,,0,31,0.0,16,2036019106209,1000000000,29.349201202392578,-817.9835917615364,2.99792458E8,2,-15.537740059082099,3.4028234663852886E38,1.57542003E9,,,,0,,1,,1.57542003E9
Raw,1934035540,2036824000000,,,-1311853870175973596,0.0,8.28372155181804,,,0,32,0.0,16431,44706927558834,6,43.432586669921875,-388.0265521525223,0.03277190244434035,4,-590568.0807983964,3.4028234663852886E38,1.57542003E9,,,,0,,1,,1.57542003E9
Raw,1934035540,2036824000000,,,-1311853870175973596,0.0,8.28372155181804,,,0,10,0.0,32995,55488931456569,33,43.34959030151367,-734.6746163143962,0.03377459733163728,1,-1459702.7408546996,6.420481367968023E-4,1.59806246E9,,,,0,,3,,1.59806246E9
Raw,1934035540,2036824000000,,,-1311853870175973596,0.0,8.28372155181804,,,0,9,0.0,32995,55488933743271,57,30.370023727416992,-34.125815797968,0.1437997419919519,4,-414529.0193561396,3.4028234663852886E38,1.59862502E9,,,,0,,3,,1.59862502E9
Raw,1934035540,2036824000000,,,-1311853870175973596,0.0,8.28372155181804,,,0,16,0.0,32995,55488924113019,44,32.63627624511719,571.9164354564109,0.10961145178639892,4,553897.9079167661,3.4028234663852886E38,1.60143744E9,,,,0,,3,,1.60143744E9
Raw,1934035541,2036824000000,,,-1311853870175973596,0.0,8.28372155181804,,,0,23,0.0,32961,55488924472520,33,42.458404541015625,54.854465503493174,0.035945021999312016,1,2233.800396427854,7.089258288033307E-4,1.60368755E9,,,,0,,3,,1.60368755E9
Raw,1934035541,2036824000000,,,-1311853870175973596,0.0,8.28372155181804,,,0,7,0.0,32961,55488933033014,61,29.703065872192383,-150.28246806009315,0.15495151178112077,4,-563501.5856212821,3.4028234663852886E38,1.60481254E9,,,,0,,3,,1.60481254E9
Raw,1934035542,2036824000000,,,-1311853870175973596,0.0,8.28372155181804,,,0,8,0.0,32961,55488928197874,60,29.952465057373047,-558.9168071368501,0.14976230799910262,4,-575143.7534465649,3.4028234663852886E38,1.60537498E9,,,,0,,3,,1.60537498E9
