# 
# Header Description:
# 
# Version: v2.0.0.1 Platform: 10 Manufacturer: HUAWEI Model: BLA-AL00
# 
# Raw,ElapsedRealtimeMillis,TimeNanos,LeapSecond,TimeUncertaintyNanos,FullBiasNanos,BiasNanos,BiasUncertaintyNanos,DriftNanosPerSecond,DriftUncertaintyNanosPerSecond,HardwareClockDiscontinuityCount,Svid,TimeOffsetNanos,State,ReceivedSvTimeNanos,ReceivedSvTimeUncertaintyNanos,Cn0DbHz,PseudorangeRateMetersPerSecond,PseudorangeRateUncertaintyMetersPerSecond,AccumulatedDeltaRangeState,AccumulatedDeltaRangeMeters,AccumulatedDeltaRangeUncertaintyMeters,CarrierFrequencyHz,CarrierCycles,CarrierPhase,CarrierPhaseUncertainty,MultipathIndicator,SnrInDb,ConstellationType,AgcDb,CarrierFrequencyHz
# 
# Fix,Provider,Latitude,Longitude,Altitude,Speed,Accuracy,(UTC)TimeInMs
# 
# Nav,Svid,Type,Status,MessageId,Sub-messageId,Data(Bytes)
# 
Fix,gps,34.486417,109.464210,357.450500,0.636136,3.000000,1627951895999
Raw,2065243081,1497291000000,,,-1311985616708693742,0.0,6.816993676610662,,,0,1,0.0,16431,175913925389392,21,32.78192138671875,495.9075813718914,0.10803064487961095,4,540118.0827624252,3.4028234663852886E38,1.57542003E9,,,,0,,1,,1.57542003E9
Raw,2065243082,1497291000000,,,-1311985616708693742,0.0,6.816993676610662,,,0,3,0.0,16431,175913925922619,27,30.56983757019043,-189.70953092007153,0.13917894804575642,4,-11237.831287802892,3.4028234663852886E38,1.57542003E9,,,,0,,1,,1.57542003E9
Raw,2065243082,1497291000000,,,-1311985616708693742,0.0,6.816993676610662,,,0,6,0.0,39,5924337214,10,38.84362030029297,-648.7291583604774,0.05405809192870373,4,-527537.020914206,3.4028234663852886E38,1.57542003E9,,,,0,,1,,1.57542003E9
Raw,2065243082,1497291000000,,,-1311985616708693742,0.0,6.816993676610662,,,0,14,0.0,16431,175913932431258,9,39.90998077392578,-79.79822680686686,0.04935869032460519,1,-234655.66024095326,9.180507622659206E-4,1.57542003E9,,,,0,,1,,1.57542003E9
Raw,2065243082,1497291000000,,,-1311985616708693742,0.0,6.816993676610662,,,0,17,0.0,16431,175913929424623,12,37.905479431152344,-190.4307157000942,0.06104985908908239,4,-64854.78101657662,3.4028234663852886E38,1.57542003E9,,,,0,,1,,1.57542003E9
Raw,2065243082,1497291000000,,,-1311985616708693742,0.0,6.816993676610662,,,0,19,0.0,16431,175913927497162,7,42.22771453857422,-441.6661357123387,0.03743488549580554,4,-586459.8993277964,3.4028234663852886E38,1.57542003E9,,,,0,,1,,1.57542003E9
Raw,2065243083,1497291000000,,,-1311985616708693742,0.0,6.816993676610662,,,0,21,0.0,16431,175913915828609,41,27.168167114257812,474.71844998674715,0.20717147675256298,4,539491.5741989528,3.4028234663852886E38,1.57542003E9,,,,0,,1,,1.57542003E9
Raw,2065243083,1497291000000,,,-1311985616708693742,0.0,6.816993676610662,,,0,22,0.0,16431,175913922740562,166,30.269193649291992,142.0007293465448,0.14347078304757377,1,8027.355680876154,0.002626212080940604,1.57542003E9,,,,1,,1,,1.57542003E9
Raw,2065243083,1497291000000,,,-1311985616708693742,0.0,6.816993676610662,,,0,24,0.0,16,1497016437113,1000000000,7.0,-399.1522247650894,2.99792458E8,2,-524294.3759251222,3.4028234663852886E38,1.57542003E9,,,,0,,1,,1.57542003E9
Raw,2065243083,1497291000000,,,-1311985616708693742,0.0,6.816993676610662,,,0,30,0.0,16431,175913921350234,6,43.64544677734375,485.2867721877967,0.030894675520477102,1,60950.387637775624,6.294656777754426E-4,1.57542003E9,,,,0,,1,,1.57542003E9
Raw,2065243083,1497291000000,,,-1311985616708693742,0.0,6.816993676610662,,,0,10,0.0,16,1497001473168,1000000000,20.803565979003906,-855.6130776995888,2.99792458E8,2,-524288.8685068517,3.4028234663852886E38,1.59806246E9,,,,0,,3,,1.59806246E9
Raw,2065243084,1497291000000,,,-1311985616708693742,0.0,6.816993676610662,,,0,2,0.0,32995,13895919997363,33,35.15626525878906,-18.547468344974277,0.08505155539948672,4,-540.1454118049718,3.4028234663852886E38,1.59975002E9,,,,0,,3,,1.59975002E9
Raw,2065243084,1497291000000,,,-1311985616708693742,0.0,6.816993676610662,,,0,18,0.0,32995,13895928114829,33,35.54454040527344,377.1809010027466,0.07935319499768567,4,9800.13184459742,3.4028234663852886E38,1.60031245E9,,,,0,,3,,1.60031245E9
Raw,2065243084,1497291000000,,,-1311985616708693742,0.0,6.816993676610662,,,0,9,0.0,32995,13895932970229,33,37.97068786621094,-388.03439111752255,0.06124369890009976,4,-548269.8909996276,3.4028234663852886E38,1.59862502E9,,,,0,,3,,1.59862502E9
Raw,2065243084,1497291000000,,,-1311985616708693742,0.0,6.816993676610662,,,0,16,0.0,99,1932733028,33,36.293006896972656,378.2395021023451,0.07375284662112441,4,4.528553881929724,3.4028234663852886E38,1.60143744E9,,,,0,,3,,1.60143744E9
Raw,2065243085,1497291000000,,,-1311985616708693742,0.0,6.816993676610662,,,0,19,0.0,16,1497003169960,1000000000,27.055578231811523,-21.77307889367077,2.99792458E8,2,-0.06573256757854283,3.4028234663852886E38,1.60368755E9,,,,0,,3,,1.60368755E9
Raw,2065243085,1497291000000,,,-1311985616708693742,0.0,6.816993676610662,,,0,3,0.0,32995,13895922230752,35,34.53328323364258,-511.4035792194654,0.08791257625850052,1,-685634.2736903764,0.0016736844554543495,1.60481254E9,,,,0,,3,,1.60481254E9
Raw,2065243085,1497291000000,,,-1311985616708693742,0.0,6.816993676610662,,,0,193,0.0,35,11267913,20,33.22970962524414,-181.25793376382762,0.10370852175725087,1,-28228.5723623322,0.001980980858206749,1.57542003E9,,,,0,,4,,1.57542003E9
Raw,2065243085,1497291000000,,,-1311985616708693742,0.0,6.816993676610662,,,0,194,0.0,35,15722728,16,35.227577209472656,-150.0837502973369,0.08361661408421361,4,-51015.27089973046,3.4028234663852886E38,1.57542003E9,,,,0,,4,,1.57542003E9
Raw,2065243086,1497291000000,,,-1311985616708693742,0.0,6.816993676610662,,,0,195,0.0,1,844625,19,33.66862869262695,-120.85067349780394,0.09808222045542236,1,-48129.351761677644,0.0017756529850885272,1.57542003E9,,,,0,,4,,1.57542003E9
Raw,2065243086,1497291000000,,,-1311985616708693742,0.0,6.816993676610662,,,0,7,0.0,16431,175899879695579,11,31.930274963378906,-100.11477914011414,0.12163318127085987,4,-155181.22457360217,3.4028234663852886E38,1.56109798E9,,,,0,,5,,1.56109798E9
Raw,2065243086,1497291000000,,,-1311985616708693742,0.0,6.816993676610662,,,0,8,0.0,16431,175899877980745,8,34.71289825439453,-206.41874493125977,0.08895454585155615,1,-318411.1596842901,0.0016853377455845475,1.56109798E9,,,,0,,5,,1.56109798E9
Raw,2065243086,1497291000000,,,-1311985616708693742,0.0,6.816993676610662,,,0,10,0.0,16431,175899880265048,8,35.17269515991211,-164.20896878479175,0.08494577164221756,1,-218216.91683196384,0.0015984426718205214,1.56109798E9,,,,0,,5,,1.56109798E9
Raw,2065243086,1497291000000,,,-1311985616708693742,0.0,6.816993676610662,,,0,30,0.0,16431,175899924336465,6,39.50992202758789,-319.284861695166,0.05012378988388641,4,-107859.69027074169,3.4028234663852886E38,1.56109798E9,,,,0,,5,,1.56109798E9
Raw,2065243087,1497291000000,,,-1311985616708693742,0.0,6.816993676610662,,,0,32,0.0,16431,175899912995586,8,35.20676040649414,-649.4804720320662,0.08331994027931511,1,-215049.42111904727,0.0015921862795948982,1.56109798E9,,,,0,,5,,1.56109798E9
Raw,2065243087,1497291000000,,,-1311985616708693742,0.0,6.816993676610662,,,0,33,0.0,16431,175899910820330,16,28.912084579467773,18.526352133004863,0.16910313684997802,4,-819.4472866249905,3.4028234663852886E38,1.56109798E9,,,,0,,5,,1.56109798E9
Raw,2065243087,1497291000000,,,-1311985616708693742,0.0,6.816993676610662,,,0,36,0.0,16431,175899920606608,6,37.01799774169922,-330.56111060065086,0.06944643754152394,4,-150355.25283897886,3.4028234663852886E38,1.56109798E9,,,,0,,5,,1.56109798E9
Fix,gps,34.486417,109.464208,357.541534,0.546441,3.000000,1627951896999
Raw,2065244121,1498291000000,,,-1311985616708694129,0.0,6.892802035390982,,,0,1,0.0,16431,175914925387740,30,29.741962432861328,495.7469848367559,0.152894482425184,4,540613.8862821527,3.4028234663852886E38,1.57542003E9,,,,0,,1,,1.57542003E9
Raw,2065244122,1498291000000,,,-1311985616708694129,0.0,6.892802035390982,,,0,3,0.0,16431,175914925923242,30,29.803014755249023,-189.30210923479785,0.15192664383924792,4,-11427.236232603798,3.4028234663852886E38,1.57542003E9,,,,0,,1,,1.57542003E9
Raw,2065244122,1498291000000,,,-1311985616708694129,0.0,6.892802035390982,,,0,6,0.0,39,924339364,8,41.26201629638672,-648.9472179173104,0.04111046957689349,1,-528185.994216074,7.857147720642388E-4,1.57542003E9,,,,0,,1,,1.57542003E9
Raw,2065244123,1498291000000,,,-1311985616708694129,0.0,6.892802035390982,,,0,14,0.0,16431,175914932431515,8,41.18102264404297,-79.77256271710519,0.04294389521874109,1,-234735.4950674907,7.930758292786777E-4,1.57542003E9,,,,0,,1,,1.57542003E9
Raw,2065244123,1498291000000,,,-1311985616708694129,0.0,6.892802035390982,,,0,17,0.0,16431,175914929425210,18,34.37269973754883,-190.53909791183673,0.09083963187702726,4,-65045.30875754808,3.4028234663852886E38,1.57542003E9,,,,0,,1,,1.57542003E9
Raw,2065244124,1498291000000,,,-1311985616708694129,0.0,6.892802035390982,,,0,19,0.0,16431,175914927498642,7,41.8497428894043,-441.8802076217585,0.039040130921833616,4,-586901.7472774234,3.4028234663852886E38,1.57542003E9,,,,0,,1,,1.57542003E9
Raw,2065244124,1498291000000,,,-1311985616708694129,0.0,6.892802035390982,,,0,21,0.0,16431,175914915826880,166,24.5526180267334,475.16135150926107,0.2789666041052994,4,539966.8845389468,3.4028234663852886E38,1.57542003E9,,,,1,,1,,1.57542003E9
Raw,2065244124,1498291000000,,,-1311985616708694129,0.0,6.892802035390982,,,0,22,0.0,16431,175914922740210,35,28.58083152770996,142.4129566581882,0.17414770653549239,1,8169.6425694501,0.003189685521647334,1.57542003E9,,,,0,,1,,1.57542003E9
Raw,2065244125,1498291000000,,,-1311985616708694129,0.0,6.892802035390982,,,0,24,0.0,16,1498016438382,1000000000,23.38076400756836,-398.9665094594966,2.99792458E8,2,-524294.3823182508,3.4028234663852886E38,1.57542003E9,,,,0,,1,,1.57542003E9
Raw,2065244125,1498291000000,,,-1311985616708694129,0.0,6.892802035390982,,,0,30,0.0,16431,175914921348628,7,42.44820022583008,485.272968792905,0.035424403322922626,1,61435.62495544054,7.224942673929036E-4,1.57542003E9,,,,0,,1,,1.57542003E9
Raw,2065244125,1498291000000,,,-1311985616708694129,0.0,6.892802035390982,,,0,10,0.0,16,1498001476144,1000000000,19.786516189575195,-855.5216003862815,2.99792458E8,2,-524288.8550202978,3.4028234663852886E38,1.59806246E9,,,,0,,3,,1.59806246E9
Raw,2065244126,1498291000000,,,-1311985616708694129,0.0,6.892802035390982,,,0,2,0.0,32995,13896919997436,36,34.27104187011719,-18.38385977274359,0.09379076821556792,4,-558.6102342085891,3.4028234663852886E38,1.59975002E9,,,,0,,3,,1.59975002E9
Raw,2065244126,1498291000000,,,-1311985616708694129,0.0,6.892802035390982,,,0,18,0.0,32995,13896928113458,33,35.08924865722656,377.26804984407545,0.08354483789525713,4,10177.369474120987,3.4028234663852886E38,1.60031245E9,,,,0,,3,,1.60031245E9
Raw,2065244126,1498291000000,,,-1311985616708694129,0.0,6.892802035390982,,,0,9,0.0,32995,13896932971494,33,40.62257766723633,-388.01942891910903,0.045744223343898105,4,-548658.0068009734,3.4028234663852886E38,1.59862502E9,,,,0,,3,,1.59862502E9
Raw,2065244126,1498291000000,,,-1311985616708694129,0.0,6.892802035390982,,,0,16,0.0,99,932731811,33,38.34524154663086,378.03616616673,0.05871446193516855,4,382.4621410349071,3.4028234663852886E38,1.60143744E9,,,,0,,3,,1.60143744E9
Raw,2065244127,1498291000000,,,-1311985616708694129,0.0,6.892802035390982,,,0,19,0.0,16,1498003170154,1000000000,25.992259979248047,-21.6819764873853,2.99792458E8,2,-0.06511808648445098,3.4028234663852886E38,1.60368755E9,,,,0,,3,,1.60368755E9
Raw,2065244127,1498291000000,,,-1311985616708694129,0.0,6.892802035390982,,,0,3,0.0,32995,13896922232521,33,35.070587158203125,-511.14288250952245,0.08266352015476153,1,-686145.5302711881,0.0015732888132333755,1.60481254E9,,,,0,,3,,1.60481254E9
Raw,2065244127,1498291000000,,,-1311985616708694129,0.0,6.892802035390982,,,0,193,0.0,35,11268467,27,30.71869659423828,-181.05338790100598,0.137793707539275,1,-28409.66096673871,0.002493760082870722,1.57542003E9,,,,0,,4,,1.57542003E9
Raw,2065244128,1498291000000,,,-1311985616708694129,0.0,6.892802035390982,,,0,194,0.0,35,15723218,12,37.42406463623047,-150.144774935741,0.06556542677912858,4,-51165.45855148809,3.4028234663852886E38,1.57542003E9,,,,0,,4,,1.57542003E9
Raw,2065244128,1498291000000,,,-1311985616708694129,0.0,6.892802035390982,,,0,195,0.0,1,845002,20,33.343387603759766,-120.71988207089765,0.10177073107367052,1,-48250.13708537044,0.0019552235025912523,1.57542003E9,,,,0,,4,,1.57542003E9
Raw,2065244128,1498291000000,,,-1311985616708694129,0.0,6.892802035390982,,,0,7,0.0,16431,175900879695914,13,30.728588104248047,-100.05431686224267,0.1391550919903729,4,-155281.26809804916,3.4028234663852886E38,1.56109798E9,,,,0,,5,,1.56109798E9
Raw,2065244129,1498291000000,,,-1311985616708694129,0.0,6.892802035390982,,,0,8,0.0,16431,175900877981447,8,34.53555679321289,-206.7837509993908,0.09072283123195629,1,-318617.93057569035,0.0017201016889885068,1.56109798E9,,,,0,,5,,1.56109798E9
Raw,2065244129,1498291000000,,,-1311985616708694129,0.0,6.892802035390982,,,0,10,0.0,16431,175900880265577,9,33.98971176147461,-164.35661398644856,0.09680812237369074,1,-218381.23658296873,0.0018316662171855569,1.56109798E9,,,,0,,5,,1.56109798E9
Raw,2065244129,1498291000000,,,-1311985616708694129,0.0,6.892802035390982,,,0,30,0.0,16431,175900924337541,9,33.81988525390625,-319.5547265859136,0.09578252001500531,1,-108179.14999362273,0.0018678311025723815,1.56109798E9,,,,0,,5,,1.56109798E9
Raw,2065244129,1498291000000,,,-1311985616708694129,0.0,6.892802035390982,,,0,32,0.0,16431,175900912997739,166,31.265228271484375,-649.9227941528193,0.1298252774655329,4,-215699.0398596297,3.4028234663852886E38,1.56109798E9,,,,1,,5,,1.56109798E9
Raw,2065244130,1498291000000,,,-1311985616708694129,0.0,6.892802035390982,,,0,33,0.0,16431,175900910820202,18,28.137351989746094,18.75181184321032,0.18469772459350486,4,-800.7843919200659,3.4028234663852886E38,1.56109798E9,,,,0,,5,,1.56109798E9
Raw,2065244130,1498291000000,,,-1311985616708694129,0.0,6.892802035390982,,,0,36,0.0,16431,175900920607727,6,38.07130432128906,-331.0768122502975,0.061939006807993024,4,-150686.35539151795,3.4028234663852886E38,1.56109798E9,,,,0,,5,,1.56109798E9
Fix,gps,34.486416,109.464206,357.533173,0.485099,3.000000,1627951897999
Raw,2065245154,1499291000000,,,-1311985616708694517,0.0,6.908525492074528,,,0,1,0.0,16431,175915925386087,34,28.77762222290039,496.02789244341693,0.1707334698264007,4,541109.8151535415,3.4028234663852886E38,1.57542003E9,,,,0,,1,,1.57542003E9
Raw,2065245155,1499291000000,,,-1311985616708694517,0.0,6.908525492074528,,,0,3,0.0,16431,175915925923862,29,30.09345817565918,-189.1128834361832,0.14696563275441765,4,-11616.448424279637,3.4028234663852886E38,1.57542003E9,,,,0,,1,,1.57542003E9
Raw,2065245155,1499291000000,,,-1311985616708694517,0.0,6.908525492074528,,,0,6,0.0,16431,175915924341538,7,41.934268951416016,-648.8321555440893,0.03810723600683688,1,-528834.8754681718,7.665331941097975E-4,1.57542003E9,,,,0,,1,,1.57542003E9
Raw,2065245155,1499291000000,,,-1311985616708694517,0.0,6.908525492074528,,,0,14,0.0,16431,175915932431760,9,39.9099006652832,-79.64085958448692,0.04935921454207612,1,-234815.19155501653,9.180591441690922E-4,1.57542003E9,,,,0,,1,,1.57542003E9
Raw,2065245155,1499291000000,,,-1311985616708694517,0.0,6.908525492074528,,,0,17,0.0,16431,175915929425803,23,31.954505920410156,-190.4877186086286,0.11945690492165445,4,-65235.81563028525,3.4028234663852886E38,1.57542003E9,,,,0,,1,,1.57542003E9
Raw,2065245156,1499291000000,,,-1311985616708694517,0.0,6.908525492074528,,,0,19,0.0,16431,175915927500156,8,40.83791732788086,-441.8132015122346,0.0436970542689622,4,-587343.5720862013,3.4028234663852886E38,1.57542003E9,,,,0,,1,,1.57542003E9
Raw,2065245156,1499291000000,,,-1311985616708694517,0.0,6.908525492074528,,,0,21,0.0,16431,175915915825401,49,25.648170471191406,475.6356429742325,0.24624621434839034,4,540442.207282586,3.4028234663852886E38,1.57542003E9,,,,0,,1,,1.57542003E9
Raw,2065245156,1499291000000,,,-1311985616708694517,0.0,6.908525492074528,,,0,22,0.0,16431,175915922739742,39,27.45302963256836,142.48903722176124,0.1982247986316763,1,8312.062914912542,0.003631934756413102,1.57542003E9,,,,0,,1,,1.57542003E9
Raw,2065245157,1499291000000,,,-1311985616708694517,0.0,6.908525492074528,,,0,24,0.0,16,1499016439713,1000000000,25.25131607055664,-398.9665094594966,2.99792458E8,2,-524294.3791982782,3.4028234663852886E38,1.57542003E9,,,,0,,1,,1.57542003E9
Raw,2065245157,1499291000000,,,-1311985616708694517,0.0,6.908525492074528,,,0,30,0.0,16431,175915921346990,6,42.62236022949219,485.32773930053713,0.03472571712466113,1,61920.92064637517,7.081518415361643E-4,1.57542003E9,,,,0,,1,,1.57542003E9
Raw,2065245158,1499291000000,,,-1311985616708694517,0.0,6.908525492074528,,,0,10,0.0,16,1499001478875,1000000000,19.402894973754883,-855.5216003862815,2.99792458E8,2,-524288.841626614,3.4028234663852886E38,1.59806246E9,,,,0,,3,,1.59806246E9
Raw,2065245158,1499291000000,,,-1311985616708694517,0.0,6.908525492074528,,,0,2,0.0,32995,13897919997447,40,33.47447967529297,-18.249053006428213,0.10245336207177069,4,-576.9332755851516,3.4028234663852886E38,1.59975002E9,,,,0,,3,,1.59975002E9
Raw,2065245158,1499291000000,,,-1311985616708694517,0.0,6.908525492074528,,,0,18,0.0,32995,13897928112190,33,35.11118698120117,377.3123911200116,0.08333752236687192,4,10554.643932918787,3.4028234663852886E38,1.60031245E9,,,,0,,3,,1.60031245E9
Raw,2065245159,1499291000000,,,-1311985616708694517,0.0,6.908525492074528,,,0,9,0.0,32995,13897932972791,33,42.10536193847656,-387.8278173485378,0.038931746879490386,4,-549045.9427218676,3.4028234663852886E38,1.59862502E9,,,,0,,3,,1.59862502E9
Raw,2065245159,1499291000000,,,-1311985616708694517,0.0,6.908525492074528,,,0,16,0.0,99,1932730527,33,39.43010711669922,378.20340878088746,0.05208918103335694,4,760.5783860349004,3.4028234663852886E38,1.60143744E9,,,,0,,3,,1.60143744E9
Raw,2065245159,1499291000000,,,-1311985616708694517,0.0,6.908525492074528,,,0,19,0.0,16,1499003170226,1000000000,27.46735382080078,-21.59087621125336,2.99792458E8,2,-0.06450646359655231,3.4028234663852886E38,1.60368755E9,,,,0,,3,,1.60368755E9
Raw,2065245160,1499291000000,,,-1311985616708694517,0.0,6.908525492074528,,,0,3,0.0,32995,13897922234310,41,33.15160369873047,-511.077205615803,0.10300209295015283,1,-686656.6683202323,0.0019622649997472763,1.60481254E9,,,,0,,3,,1.60481254E9
Raw,2065245160,1499291000000,,,-1311985616708694517,0.0,6.908525492074528,,,0,193,0.0,35,11269093,30,29.855815887451172,-181.03087643847266,0.1519739399044031,1,-28590.682967876117,0.002754220040515065,1.57542003E9,,,,0,,4,,1.57542003E9
Raw,2065245160,1499291000000,,,-1311985616708694517,0.0,6.908525492074528,,,0,194,0.0,35,15723713,11,38.00917434692383,-150.09601998168512,0.06147853584570889,1,-51315.589826213596,0.0011426337296143174,1.57542003E9,,,,0,,4,,1.57542003E9
Raw,2065245161,1499291000000,,,-1311985616708694517,0.0,6.908525492074528,,,0,195,0.0,1,845391,22,32.51496124267578,-120.77954341104083,0.1118140222182733,1,-48370.93852686342,0.0021508873905986547,1.57542003E9,,,,0,,4,,1.57542003E9
Raw,2065245161,1499291000000,,,-1311985616708694517,0.0,6.908525492074528,,,0,7,0.0,16431,175901879696250,13,31.03042984008789,-99.93240391526058,0.13452343925370813,4,-155381.2369790898,3.4028234663852886E38,1.56109798E9,,,,0,,5,,1.56109798E9
Raw,2065245161,1499291000000,,,-1311985616708694517,0.0,6.908525492074528,,,0,8,0.0,16431,175901877982145,7,35.48149108886719,-206.6964658282359,0.08169554843422966,1,-318824.6404426523,0.001542614190839231,1.56109798E9,,,,0,,5,,1.56109798E9
Raw,2065245161,1499291000000,,,-1311985616708694517,0.0,6.908525492074528,,,0,10,0.0,16431,175901880266134,11,32.17182540893555,-164.18327061257355,0.11849698784416801,1,-218545.50907926157,0.0022580865770578384,1.56109798E9,,,,0,,5,,1.56109798E9
Raw,2065245162,1499291000000,,,-1311985616708694517,0.0,6.908525492074528,,,0,30,0.0,16431,175901924338605,8,35.09221649169922,-319.40987614569167,0.0828377600570046,1,-108498.59833529186,0.001613322296179831,1.56109798E9,,,,0,,5,,1.56109798E9
Raw,2065245162,1499291000000,,,-1311985616708694517,0.0,6.908525492074528,,,0,32,0.0,16431,175901912999938,166,27.344173431396484,-650.0052055326914,0.20256403787050792,4,-216348.62750974813,3.4028234663852886E38,1.56109798E9,,,,1,,5,,1.56109798E9
Raw,2065245162,1499291000000,,,-1311985616708694517,0.0,6.908525492074528,,,0,33,0.0,16431,175901910820180,17,28.704879760742188,18.77842598144757,0.17313866279215862,4,-782.0031586123549,3.4028234663852886E38,1.56109798E9,,,,0,,5,,1.56109798E9
Raw,2065245163,1499291000000,,,-1311985616708694517,0.0,6.908525492074528,,,0,36,0.0,16431,175901920608832,6,38.712364196777344,-330.9627723507722,0.05779617438160389,4,-151017.3588608183,3.4028234663852886E38,1.56109798E9,,,,0,,5,,1.56109798E9
Fix,gps,34.486416,109.464204,357.479919,0.427247,2.000000,1627951898999
Raw,2065246177,1500291000000,,,-1311985616708694905,0.0,6.882113488639333,,,0,1,0.0,16431,175916925384432,30,29.76056480407715,495.99728639745945,0.15256885184570068,4,541605.7457139033,3.4028234663852886E38,1.57542003E9,,,,0,,1,,1.57542003E9
Raw,2065246178,1500291000000,,,-1311985616708694905,0.0,6.882113488639333,,,0,3,0.0,16431,175916925924538,32,29.151975631713867,-189.08055622617132,0.16366906526264902,4,-11805.537820570586,3.4028234663852886E38,1.57542003E9,,,,0,,1,,1.57542003E9
Raw,2065246178,1500291000000,,,-1311985616708694905,0.0,6.882113488639333,,,0,6,0.0,16431,175916924343699,7,42.3445930480957,-648.9256778047879,0.036385318909877506,1,-529483.6963402102,7.311638910323381E-4,1.57542003E9,,,,0,,1,,1.57542003E9
Raw,2065246178,1500291000000,,,-1311985616708694905,0.0,6.882113488639333,,,0,14,0.0,16431,175916932432054,11,38.01824188232422,-79.6152125359535,0.060825231902788074,1,-234894.78619291345,0.0011414415203034878,1.57542003E9,,,,0,,1,,1.57542003E9
Raw,2065246178,1500291000000,,,-1311985616708694905,0.0,6.882113488639333,,,0,17,0.0,16431,175916929426472,31,29.556488037109375,-190.48410586823718,0.1568999532323645,1,-65426.27245583954,0.0028507886454463005,1.57542003E9,,,,0,,1,,1.57542003E9
Raw,2065246179,1500291000000,,,-1311985616708694905,0.0,6.882113488639333,,,0,19,0.0,16431,175916927501594,10,39.38908004760742,-441.77288196616814,0.05138441224825019,1,-587785.3550166,0.0010275202803313732,1.57542003E9,,,,0,,1,,1.57542003E9
Raw,2065246179,1500291000000,,,-1311985616708694905,0.0,6.882113488639333,,,0,21,0.0,16431,175916915823805,48,25.766887664794922,475.24873892778555,0.24294179703900276,4,540917.4982272584,3.4028234663852886E38,1.57542003E9,,,,0,,1,,1.57542003E9
Raw,2065246179,1500291000000,,,-1311985616708694905,0.0,6.882113488639333,,,0,22,0.0,16431,175916922739307,42,27.009794235229492,142.60398882699855,0.20857672905297442,1,8454.599158516883,0.0038220796268433332,1.57542003E9,,,,0,,1,,1.57542003E9
Raw,2065246180,1500291000000,,,-1311985616708694905,0.0,6.882113488639333,,,0,24,0.0,16,1500016441044,1000000000,22.774728775024414,-398.9665094594966,2.99792458E8,2,-524294.3760783056,3.4028234663852886E38,1.57542003E9,,,,0,,1,,1.57542003E9
Raw,2065246180,1500291000000,,,-1311985616708694905,0.0,6.882113488639333,,,0,30,0.0,16431,175916921345387,7,42.26559066772461,485.16833565137995,0.03617130088668538,1,62406.22888667295,7.378445588983595E-4,1.57542003E9,,,,0,,1,,1.57542003E9
Raw,2065246180,1500291000000,,,-1311985616708694905,0.0,6.882113488639333,,,0,10,0.0,16,1500001481729,1000000000,19.061683654785156,-855.5216003862815,2.99792458E8,2,-524288.8818076651,3.4028234663852886E38,1.59806246E9,,,,0,,3,,1.59806246E9
Raw,2065246180,1500291000000,,,-1311985616708694905,0.0,6.882113488639333,,,0,2,0.0,32995,13898919997567,41,33.19338607788086,-17.963574090286087,0.1057048916629798,1,-595.0777530595564,0.0019590281881392,1.59975002E9,,,,0,,3,,1.59975002E9
Raw,2065246181,1500291000000,,,-1311985616708694905,0.0,6.882113488639333,,,0,18,0.0,32995,13898928111047,38,33.83339309692383,377.32452447453375,0.09631367712674288,4,10931.924873654187,3.4028234663852886E38,1.60031245E9,,,,0,,3,,1.60031245E9
Raw,2065246181,1500291000000,,,-1311985616708694905,0.0,6.882113488639333,,,0,9,0.0,32995,13898932974093,33,42.993736267089844,-387.70941489457755,0.03537384546017053,4,-549433.7184350779,3.4028234663852886E38,1.59862502E9,,,,0,,3,,1.59862502E9
Raw,2065246181,1500291000000,,,-1311985616708694905,0.0,6.882113488639333,,,0,16,0.0,99,932729259,33,40.566986083984375,378.2218473898663,0.04597939312599672,4,1138.8181282201497,3.4028234663852886E38,1.60143744E9,,,,0,,3,,1.60143744E9
Raw,2065246181,1500291000000,,,-1311985616708694905,0.0,6.882113488639333,,,0,19,0.0,16,1500003170298,1000000000,25.71150016784668,-21.49977593512142,2.99792458E8,2,-0.06389769316792807,3.4028234663852886E38,1.60368755E9,,,,0,,3,,1.60368755E9
Raw,2065246182,1500291000000,,,-1311985616708694905,0.0,6.882113488639333,,,0,3,0.0,32995,13898922236011,42,32.91972732543945,-510.8779254925141,0.10577829875073474,1,-687167.6705371108,0.0020153545774519444,1.60481254E9,,,,0,,3,,1.60481254E9
Raw,2065246182,1500291000000,,,-1311985616708694905,0.0,6.882113488639333,,,0,193,0.0,35,11269716,35,28.584327697753906,-181.08479488469175,0.1756120539546111,1,-28771.705370867974,0.0031884019263088703,1.57542003E9,,,,0,,4,,1.57542003E9
Raw,2065246183,1500291000000,,,-1311985616708694905,0.0,6.882113488639333,,,0,194,0.0,35,15724200,11,38.10951232910156,-150.1629238438394,0.060804999604683774,1,-51465.69643642039,0.0011295101139694452,1.57542003E9,,,,0,,4,,1.57542003E9
Raw,2065246183,1500291000000,,,-1311985616708694905,0.0,6.882113488639333,,,0,195,0.0,1,845786,26,30.94281005859375,-120.85600740224976,0.13371978890803282,1,-48491.73283233261,0.0024302389938384295,1.57542003E9,,,,0,,4,,1.57542003E9
Raw,2065246183,1500291000000,,,-1311985616708694905,0.0,6.882113488639333,,,0,7,0.0,16431,175902879696572,12,31.35763931274414,-100.02113759081772,0.12968105941464098,4,-155481.2143921455,3.4028234663852886E38,1.56109798E9,,,,0,,5,,1.56109798E9
Raw,2065246184,1500291000000,,,-1311985616708694905,0.0,6.882113488639333,,,0,8,0.0,16431,175902877982805,6,36.75275802612305,-206.7873296573257,0.07101292831880812,1,-319031.33625825745,0.0013325822073966265,1.56109798E9,,,,0,,5,,1.56109798E9
Raw,2065246184,1500291000000,,,-1311985616708694905,0.0,6.882113488639333,,,0,10,0.0,16431,175902880266686,13,30.860586166381836,-164.33091581423037,0.13721245021495837,1,-218709.81053340036,0.0024758614599704742,1.56109798E9,,,,0,,5,,1.56109798E9
Raw,2065246184,1500291000000,,,-1311985616708694905,0.0,6.882113488639333,,,0,30,0.0,16431,175902924339674,6,37.05815505981445,-319.4699975989979,0.06621718303237331,1,-108818.02868345584,0.0012865423923358321,1.56109798E9,,,,0,,5,,1.56109798E9
Raw,2065246184,1500291000000,,,-1311985616708694905,0.0,6.882113488639333,,,0,32,0.0,16431,175902913002122,23,26.228792190551758,-649.6518386234629,0.2299998329075137,4,-216998.20919902276,3.4028234663852886E38,1.56109798E9,,,,0,,5,,1.56109798E9
Raw,2065246185,1500291000000,,,-1311985616708694905,0.0,6.882113488639333,,,0,33,0.0,16431,175902910820122,16,29.00092124938965,19.00357894954432,0.1674022092541365,4,-763.1128055450089,3.4028234663852886E38,1.56109798E9,,,,0,,5,,1.56109798E9
Raw,2065246185,1500291000000,,,-1311985616708694905,0.0,6.882113488639333,,,0,36,0.0,16431,175902920609935,6,39.566688537597656,-330.86727330759527,0.052729537636836965,1,-151348.26009267685,9.638233459554613E-4,1.56109798E9,,,,0,,5,,1.56109798E9
Raw,2065247086,1501291000000,,,-1311985616708695293,0.0,6.737926265405619,,,0,1,0.0,16431,175917925382767,31,29.60025978088379,496.02134861176455,0.15539242027873568,1,542101.7179348326,0.002836458617821336,1.57542003E9,,,,0,,1,,1.57542003E9
Raw,2065247086,1501291000000,,,-1311985616708695293,0.0,6.737926265405619,,,0,3,0.0,16431,175917925925161,50,25.388099670410156,-188.82394941101109,0.2518633959304071,4,-11994.502232150131,3.4028234663852886E38,1.57542003E9,,,,0,,1,,1.57542003E9
Raw,2065247086,1501291000000,,,-1311985616708695293,0.0,6.737926265405619,,,0,6,0.0,16431,175917924345869,9,39.714168548583984,-648.6324323488657,0.04897869922547746,1,-530132.463675584,9.897738927975297E-4,1.57542003E9,,,,0,,1,,1.57542003E9
Raw,2065247086,1501291000000,,,-1311985616708695293,0.0,6.737926265405619,,,0,14,0.0,16431,175917932432295,8,40.51786422729492,-79.38033328682656,0.04617375715448502,1,-234974.28215996159,8.559974958188832E-4,1.57542003E9,,,,0,,1,,1.57542003E9
Raw,2065247087,1501291000000,,,-1311985616708695293,0.0,6.737926265405619,,,0,17,0.0,16431,175917929427105,19,33.65036392211914,-190.37042383450535,0.0985703667718068,1,-65616.72220064726,0.0018873284570872784,1.57542003E9,,,,0,,1,,1.57542003E9
Raw,2065247087,1501291000000,,,-1311985616708695293,0.0,6.737926265405619,,,0,19,0.0,16431,175917927503065,8,41.12316131591797,-441.6410510243379,0.04232947073824772,1,-588227.0949603977,8.415625779889524E-4,1.57542003E9,,,,0,,1,,1.57542003E9
Raw,2065247087,1501291000000,,,-1311985616708695293,0.0,6.737926265405619,,,0,21,0.0,16431,175917915822234,49,25.562681198120117,475.3065086915917,0.24865308813842013,4,541392.7861147614,3.4028234663852886E38,1.57542003E9,,,,0,,1,,1.57542003E9
Raw,2065247087,1501291000000,,,-1311985616708695293,0.0,6.737926265405619,,,0,22,0.0,16431,175917922738774,32,29.36842918395996,142.71215802338781,0.15909399472919594,1,8597.280207999283,0.0029131846968084574,1.57542003E9,,,,0,,1,,1.57542003E9
Raw,2065247088,1501291000000,,,-1311985616708695293,0.0,6.737926265405619,,,0,24,0.0,16,1501016442374,1000000000,19.771648406982422,-398.78086231881684,2.99792458E8,2,-524294.3699930065,3.4028234663852886E38,1.57542003E9,,,,0,,1,,1.57542003E9
Raw,2065247088,1501291000000,,,-1311985616708695293,0.0,6.737926265405619,,,0,30,0.0,16431,175917921343760,6,42.761783599853516,485.37814725373437,0.03417603766228397,1,62891.55635169026,6.968756788410246E-4,1.57542003E9,,,,0,,1,,1.57542003E9
Raw,2065247088,1501291000000,,,-1311985616708695293,0.0,6.737926265405619,,,0,10,0.0,16,1501001484705,1000000000,15.088852882385254,-855.4301912378874,2.99792458E8,2,-524288.8683212347,3.4028234663852886E38,1.59806246E9,,,,0,,3,,1.59806246E9
Raw,2065247088,1501291000000,,,-1311985616708695293,0.0,6.737926265405619,,,0,2,0.0,32995,13899919997645,38,33.88199996948242,-17.936310255221372,0.09792245061955945,1,-613.0787116469435,0.0018097137799486518,1.59975002E9,,,,0,,3,,1.59975002E9
Raw,2065247089,1501291000000,,,-1311985616708695293,0.0,6.737926265405619,,,0,18,0.0,32995,13899928109715,33,36.026275634765625,377.33451063429493,0.07514978633021108,1,11309.22977718579,0.0014133299700915813,1.60031245E9,,,,0,,3,,1.60031245E9
Raw,2065247089,1501291000000,,,-1311985616708695293,0.0,6.737926265405619,,,0,9,0.0,32995,13899932975377,33,40.0097770690918,-387.46869050415694,0.04891825195853167,4,-549821.3454269215,3.4028234663852886E38,1.59862502E9,,,,0,,3,,1.59862502E9
Raw,2065247089,1501291000000,,,-1311985616708695293,0.0,6.737926265405619,,,0,16,0.0,99,1932728016,33,37.50326156616211,378.4724556926785,0.0644572435269469,1,1517.1770954654671,0.0011914861388504505,1.60143744E9,,,,0,,3,,1.60143744E9
Raw,2065247089,1501291000000,,,-1311985616708695293,0.0,6.737926265405619,,,0,19,0.0,16,1501003170370,1000000000,27.76795768737793,-21.49977593512142,2.99792458E8,2,-0.06490746733818735,3.4028234663852886E38,1.60368755E9,,,,0,,3,,1.60368755E9
Raw,2065247089,1501291000000,,,-1311985616708695293,0.0,6.737926265405619,,,0,3,0.0,32995,13899922237602,43,32.770469665527344,-510.8181107813166,0.10760497197230201,1,-687678.5456703077,0.00205028522759676,1.60481254E9,,,,0,,3,,1.60481254E9
Raw,2065247090,1501291000000,,,-1311985616708695293,0.0,6.737926265405619,,,0,193,0.0,35,11270314,29,30.15994644165039,-181.01538596198304,0.14681474133191164,1,-28952.71655655046,0.0026594523806124926,1.57542003E9,,,,0,,4,,1.57542003E9
Raw,2065247090,1501291000000,,,-1311985616708695293,0.0,6.737926265405619,,,0,194,0.0,35,15724750,16,35.00136184692383,-149.97184055134426,0.08574868974761601,1,-51615.77459856799,0.0016154652694240212,1.57542003E9,,,,0,,4,,1.57542003E9
Raw,2065247090,1501291000000,,,-1311985616708695293,0.0,6.737926265405619,,,0,195,0.0,1,846245,23,31.920509338378906,-120.76270667751857,0.11963458968156365,1,-48612.527991476316,0.0021715208422392607,1.57542003E9,,,,0,,4,,1.57542003E9
Raw,2065247090,1501291000000,,,-1311985616708695293,0.0,6.737926265405619,,,0,7,0.0,16431,175903879696914,14,30.15060806274414,-99.87633827428056,0.14848624618208306,4,-155581.17830175292,3.4028234663852886E38,1.56109798E9,,,,0,,5,,1.56109798E9
Raw,2065247091,1501291000000,,,-1311985616708695293,0.0,6.737926265405619,,,0,8,0.0,16431,175903877983512,9,33.73133850097656,-206.61277635624413,0.09921054447567373,1,-319238.01011458825,0.0018869698978960514,1.56109798E9,,,,0,,5,,1.56109798E9
Raw,2065247091,1501291000000,,,-1311985616708695293,0.0,6.737926265405619,,,0,10,0.0,16431,175903880267220,9,33.489952087402344,-164.2016580978676,0.1023259439426853,1,-218874.0970898376,0.001940145273692906,1.56109798E9,,,,0,,5,,1.56109798E9
Raw,2065247092,1501291000000,,,-1311985616708695293,0.0,6.737926265405619,,,0,30,0.0,16431,175903924340729,7,36.201541900634766,-319.314002195493,0.07299976245911344,1,-109137.45868364752,0.0014198903227224946,1.56109798E9,,,,0,,5,,1.56109798E9
Raw,2065247092,1501291000000,,,-1311985616708695293,0.0,6.737926265405619,,,0,32,0.0,16431,175903913004353,66,21.714717864990234,-648.8533548320465,4.202339197266596,4,-217648.16875196458,3.4028234663852886E38,1.56109798E9,,,,0,,5,,1.56109798E9
Raw,2065247092,1501291000000,,,-1311985616708695293,0.0,6.737926265405619,,,0,33,0.0,16431,175903910820047,17,28.622760772705078,19.070124945905107,0.1747648186706383,1,-744.1218668071174,0.0032034472096711397,1.56109798E9,,,,0,,5,,1.56109798E9
Raw,2065247092,1501291000000,,,-1311985616708695293,0.0,6.737926265405619,,,0,36,0.0,16431,175903920611041,6,36.6478385925293,-330.6975426741117,0.07230935972898389,1,-151679.06118894566,0.001348776277154684,1.56109798E9,,,,0,,5,,1.56109798E9
Fix,gps,34.486415,109.464200,357.493103,0.272126,2.000000,1627951900999
Raw,2065248166,1502291000000,,,-1311985616708695682,0.0,6.742867332441929,,,0,1,0.0,16431,175918925381168,32,29.232757568359375,496.073528852701,0.16206607480383717,1,542597.8040123285,0.00295904534868896,1.57542003E9,,,,0,,1,,1.57542003E9
Raw,2065248167,1502291000000,,,-1311985616708695682,0.0,6.742867332441929,,,0,2,0.0,16,1502014197095,1000000000,7.0,-697.1239290158246,2.99792458E8,2,-9.756369956986541,3.4028234663852886E38,1.57542003E9,,,,0,,1,,1.57542003E9
Raw,2065248167,1502291000000,,,-1311985616708695682,0.0,6.742867332441929,,,0,3,0.0,16,1502005925849,1000000000,25.521570205688477,-188.99391862169034,2.99792458E8,2,-0.9423946782844723,3.4028234663852886E38,1.57542003E9,,,,0,,1,,1.57542003E9
Raw,2065248167,1502291000000,,,-1311985616708695682,0.0,6.742867332441929,,,0,6,0.0,16431,175918924348030,8,40.622833251953125,-648.6229574259523,0.04419180322920671,1,-530781.0919665892,8.457148796878755E-4,1.57542003E9,,,,0,,1,,1.57542003E9
Raw,2065248168,1502291000000,,,-1311985616708695682,0.0,6.742867332441929,,,0,14,0.0,16431,175918932432580,9,39.72948455810547,-79.32757364412925,0.050348396267900136,1,-235053.60118584658,9.373277425765991E-4,1.57542003E9,,,,0,,1,,1.57542003E9
Raw,2065248168,1502291000000,,,-1311985616708695682,0.0,6.742867332441929,,,0,17,0.0,16431,175918929427677,21,33.00343322753906,-190.35852905717888,0.10606123472952994,1,-65807.09221779511,0.0019169810693711042,1.57542003E9,,,,0,,1,,1.57542003E9
Raw,2065248168,1502291000000,,,-1311985616708695682,0.0,6.742867332441929,,,0,19,0.0,16431,175918927504521,8,41.14382553100586,-441.7148054602533,0.04223234905061729,1,-588668.7681720578,8.395626791752875E-4,1.57542003E9,,,,0,,1,,1.57542003E9
Raw,2065248169,1502291000000,,,-1311985616708695682,0.0,6.742867332441929,,,0,21,0.0,16431,175918915820610,55,24.66676902770996,475.4300916789434,0.2753604538763732,4,541868.131598232,3.4028234663852886E38,1.57542003E9,,,,0,,1,,1.57542003E9
Raw,2065248169,1502291000000,,,-1311985616708695682,0.0,6.742867332441929,,,0,22,0.0,16431,175918922738296,30,29.68682861328125,142.89506152631748,0.153385316396221,1,8740.086213171413,0.002808329649269581,1.57542003E9,,,,0,,1,,1.57542003E9
Raw,2065248169,1502291000000,,,-1311985616708695682,0.0,6.742867332441929,,,0,24,0.0,16,1502016443704,1000000000,20.094783782958984,-398.78086231881684,2.99792458E8,2,-524294.379348569,3.4028234663852886E38,1.57542003E9,,,,0,,1,,1.57542003E9
Raw,2065248170,1502291000000,,,-1311985616708695682,0.0,6.742867332441929,,,0,30,0.0,16431,175918921342139,7,42.50324249267578,485.45384438967153,0.03520099931072715,1,63376.97795754533,7.179303793236613E-4,1.57542003E9,,,,0,,1,,1.57542003E9
Raw,2065248170,1502291000000,,,-1311985616708695682,0.0,6.742867332441929,,,0,10,0.0,16,1502001487436,1000000000,7.909097671508789,-855.4301912378874,2.99792458E8,2,-524288.8549289816,3.4028234663852886E38,1.59806246E9,,,,0,,3,,1.59806246E9
Raw,2065248170,1502291000000,,,-1311985616708695682,0.0,6.742867332441929,,,0,2,0.0,32995,13900919997738,39,33.47844696044922,-17.834715777710706,0.10240828769018279,1,-630.9216525688995,0.0018957790452986956,1.59975002E9,,,,0,,3,,1.59975002E9
Raw,2065248171,1502291000000,,,-1311985616708695682,0.0,6.742867332441929,,,0,18,0.0,32995,13900928108537,33,35.88667297363281,377.2948386549024,0.07634353768338209,1,11686.58882558619,0.0014362287474796176,1.60031245E9,,,,0,,3,,1.60031245E9
Raw,2065248171,1502291000000,,,-1311985616708695682,0.0,6.742867332441929,,,0,9,0.0,32995,13900932976653,33,40.78974533081055,-387.3742139346757,0.044917661366378175,1,-550208.744639086,8.605894981883466E-4,1.59862502E9,,,,0,,3,,1.59862502E9
Raw,2065248171,1502291000000,,,-1311985616708695682,0.0,6.742867332441929,,,0,16,0.0,99,932726753,33,38.301124572753906,378.6210892855745,0.05900086773436658,1,1895.7503651344493,0.001086915610358119,1.60143744E9,,,,0,,3,,1.60143744E9
Raw,2065248172,1502291000000,,,-1311985616708695682,0.0,6.742867332441929,,,0,19,0.0,17,170461,95,25.884517669677734,-21.345456962446733,0.23923494713018423,4,-17.300315255327693,3.4028234663852886E38,1.60368755E9,,,,0,,3,,1.60368755E9
Raw,2065248172,1502291000000,,,-1311985616708695682,0.0,6.742867332441929,,,0,3,0.0,32995,13900922239365,41,33.0582275390625,-510.66968168315975,0.10411192790341356,1,-688189.3184539542,0.0019834733102470636,1.60481254E9,,,,0,,3,,1.60481254E9
Raw,2065248173,1502291000000,,,-1311985616708695682,0.0,6.742867332441929,,,0,193,0.0,35,11270916,32,29.262048721313477,-180.88583854473984,0.16258311964842076,1,-29133.685598803208,0.0029490829911082983,1.57542003E9,,,,0,,4,,1.57542003E9
Raw,2065248173,1502291000000,,,-1311985616708695682,0.0,6.742867332441929,,,0,194,0.0,35,15725245,15,35.94768142700195,-149.96103641262653,0.07718941665866025,1,-51765.7765513697,0.0014487109147012234,1.57542003E9,,,,0,,4,,1.57542003E9
Raw,2065248173,1502291000000,,,-1311985616708695682,0.0,6.742867332441929,,,0,195,0.0,1,846647,24,31.630151748657227,-120.76358430077403,0.12365352372474364,1,-48733.30523858088,0.0022453388664871454,1.57542003E9,,,,0,,4,,1.57542003E9
Raw,2065248174,1502291000000,,,-1311985616708695682,0.0,6.742867332441929,,,0,7,0.0,16431,175904879697245,14,30.30864906311035,-99.92646504721148,0.145872897275804,1,-155681.03686200664,0.0026382936630398035,1.56109798E9,,,,0,,5,,1.56109798E9
Raw,2065248177,1502291000000,,,-1311985616708695682,0.0,6.742867332441929,,,0,8,0.0,16431,175904877984207,9,34.0894660949707,-206.56308413463387,0.09533394795722011,1,-319444.54999162914,0.0018107505748048425,1.56109798E9,,,,0,,5,,1.56109798E9
Raw,2065248177,1502291000000,,,-1311985616708695682,0.0,6.742867332441929,,,0,10,0.0,16431,175904880267758,10,32.647064208984375,-164.23955778952097,0.11238212418034321,1,-219038.27223069005,0.0021378572564572096,1.56109798E9,,,,0,,5,,1.56109798E9
Raw,2065248177,1502291000000,,,-1311985616708695682,0.0,6.742867332441929,,,0,30,0.0,16431,175904924341805,8,35.362037658691406,-319.40776303338725,0.08032848912098611,1,-109456.72983753547,0.0015639755874872208,1.56109798E9,,,,0,,5,,1.56109798E9
Raw,2065248178,1502291000000,,,-1311985616708695682,0.0,6.742867332441929,,,0,32,0.0,16431,175904913006446,63,22.24890899658203,-649.0254712374867,4.202339463535788,4,-218297.48795065458,3.4028234663852886E38,1.56109798E9,,,,0,,5,,1.56109798E9
Raw,2065248178,1502291000000,,,-1311985616708695682,0.0,6.742867332441929,,,0,33,0.0,16431,175904910819970,15,29.576961517333984,19.16924525008757,0.15678522449444054,1,-724.9906708966151,0.0028701694682240486,1.56109798E9,,,,0,,5,,1.56109798E9
Raw,2065248178,1502291000000,,,-1311985616708695682,0.0,6.742867332441929,,,0,36,0.0,16431,175904920612148,6,37.33600616455078,-330.69243030563325,0.0670840889528744,1,-152009.7099768678,0.0012460388243198395,1.56109798E9,,,,0,,5,,1.56109798E9
Fix,gps,34.486415,109.464199,357.504333,0.191674,2.000000,1627951901999
Raw,2065249162,1503291000000,,,-1311985616708696071,0.0,6.686700768875316,,,0,1,0.0,16431,175919925379470,29,30.054054260253906,496.213232841988,0.14753107202457172,1,543093.9457563697,0.002692072419449687,1.57542003E9,,,,0,,1,,1.57542003E9
Raw,2065249163,1503291000000,,,-1311985616708696071,0.0,6.686700768875316,,,0,2,0.0,16,1503014199420,1000000000,7.0,-697.1239290158246,2.99792458E8,2,-9.750918352753777,3.4028234663852886E38,1.57542003E9,,,,0,,1,,1.57542003E9
Raw,2065249163,1503291000000,,,-1311985616708696071,0.0,6.686700768875316,,,0,3,0.0,16,1503005926479,1000000000,28.248830795288086,-188.8082714810106,2.99792458E8,2,-0.9399924327896725,3.4028234663852886E38,1.57542003E9,,,,0,,1,,1.57542003E9
Raw,2065249164,1503291000000,,,-1311985616708696071,0.0,6.686700768875316,,,0,6,0.0,16431,175919924350179,7,41.98760986328125,-648.4442971888598,0.037880258162835606,1,-531429.6195383938,7.618403760716319E-4,1.57542003E9,,,,0,,1,,1.57542003E9
Raw,2065249164,1503291000000,,,-1311985616708696071,0.0,6.686700768875316,,,0,14,0.0,16431,175919932432827,12,37.62004470825195,-78.9691710519495,0.06357387468158487,1,-235132.75250594408,0.0011949880281463265,1.57542003E9,,,,0,,1,,1.57542003E9
Raw,2065249164,1503291000000,,,-1311985616708696071,0.0,6.686700768875316,,,0,17,0.0,16431,175919929428271,31,29.574588775634766,-189.81499908178137,0.15657718504669071,1,-65997.31342978493,0.0028448537923395634,1.57542003E9,,,,0,,1,,1.57542003E9
Raw,2065249165,1503291000000,,,-1311985616708696071,0.0,6.686700768875316,,,0,19,0.0,16431,175919927505988,9,40.33174133300781,-441.5191380773558,0.04623929265926374,1,-589110.3658178134,9.218440391123295E-4,1.57542003E9,,,,0,,1,,1.57542003E9
Raw,2065249165,1503291000000,,,-1311985616708696071,0.0,6.686700768875316,,,0,21,0.0,16431,175919915818928,71,20.817462921142578,475.35050914296266,4.202845374999798,4,542343.4899398498,3.4028234663852886E38,1.57542003E9,,,,0,,1,,1.57542003E9
Raw,2065249165,1503291000000,,,-1311985616708696071,0.0,6.686700768875316,,,0,22,0.0,16431,175919922737876,31,29.54482650756836,142.95431387698238,0.15590538787632313,1,8883.012721839094,0.002854619175195694,1.57542003E9,,,,0,,1,,1.57542003E9
Raw,2065249166,1503291000000,,,-1311985616708696071,0.0,6.686700768875316,,,0,24,0.0,16,1503016445034,1000000000,7.0,-398.5952151781371,2.99792458E8,2,-524294.373261818,3.4028234663852886E38,1.57542003E9,,,,0,,1,,1.57542003E9
Raw,2065249166,1503291000000,,,-1311985616708696071,0.0,6.686700768875316,,,0,30,0.0,16431,175919921340526,7,42.05067825317383,485.4998557059773,0.03707051274894668,1,63862.442175144766,7.563288090750575E-4,1.57542003E9,,,,0,,1,,1.57542003E9
Raw,2065249166,1503291000000,,,-1311985616708696071,0.0,6.686700768875316,,,0,10,0.0,16,1503001490289,1000000000,7.0,-855.3387820894932,2.99792458E8,2,-524288.8414467826,3.4028234663852886E38,1.59806246E9,,,,0,,3,,1.59806246E9
Raw,2065249166,1503291000000,,,-1311985616708696071,0.0,6.686700768875316,,,0,2,0.0,32995,13901919997845,43,32.82237243652344,-17.556875592136755,0.11016093154688239,1,-648.579045411913,0.0020445198751986027,1.59975002E9,,,,0,,3,,1.59975002E9
Raw,2065249167,1503291000000,,,-1311985616708696071,0.0,6.686700768875316,,,0,18,0.0,32995,13901928107238,38,33.85382080078125,377.4385984565156,0.09609016910314444,1,12063.993978434064,0.0018149565439671278,1.60031245E9,,,,0,,3,,1.60031245E9
Raw,2065249167,1503291000000,,,-1311985616708696071,0.0,6.686700768875316,,,0,9,0.0,32995,13901932977972,33,42.35179138183594,-387.07575386290546,0.037908919545036,1,-550595.965794384,7.189421448856592E-4,1.59862502E9,,,,0,,3,,1.59862502E9
Raw,2065249167,1503291000000,,,-1311985616708696071,0.0,6.686700768875316,,,0,16,0.0,99,1932725490,33,40.256797790527344,378.8126326912327,0.04756716047587095,1,2274.4693875970665,8.67785420268774E-4,1.60143744E9,,,,0,,3,,1.60143744E9
Raw,2065249168,1503291000000,,,-1311985616708696071,0.0,6.686700768875316,,,0,19,0.0,17,170459,100,25.455101013183594,-21.116548533671875,0.2512394606472268,4,-0.2770440546969404,3.4028234663852886E38,1.60368755E9,,,,0,,3,,1.60368755E9
Raw,2065249168,1503291000000,,,-1311985616708696071,0.0,6.686700768875316,,,0,3,0.0,32995,13901922240997,34,34.885135650634766,-510.6169902053755,0.08444029286564342,1,-688699.9614953932,0.0016072411090135574,1.60481254E9,,,,0,,3,,1.60481254E9
Raw,2065249168,1503291000000,,,-1311985616708696071,0.0,6.686700768875316,,,0,193,0.0,35,11271471,40,27.33765411376953,-180.99670877580854,0.2024034109806846,1,-29314.630159422974,0.003680499503389001,1.57542003E9,,,,0,,4,,1.57542003E9
Raw,2065249168,1503291000000,,,-1311985616708696071,0.0,6.686700768875316,,,0,194,0.0,35,15725730,12,37.77634048461914,-149.90926516116838,0.06307234001741108,1,-51915.73742935579,0.0011736771557480097,1.57542003E9,,,,0,,4,,1.57542003E9
Raw,2065249169,1503291000000,,,-1311985616708696071,0.0,6.686700768875316,,,0,195,0.0,1,847076,29,30.045915603637695,-120.7633286823501,0.1481123210279761,1,-48854.07841534713,0.0026945965364575386,1.57542003E9,,,,0,,4,,1.57542003E9
Raw,2065249169,1503291000000,,,-1311985616708696071,0.0,6.686700768875316,,,0,7,0.0,16431,175905879697567,12,31.60006332397461,-99.82519754826808,0.12620941673202613,1,-155780.8588870438,0.0022738012485206127,1.56109798E9,,,,0,,5,,1.56109798E9
Raw,2065249169,1503291000000,,,-1311985616708696071,0.0,6.686700768875316,,,0,8,0.0,16431,175905877984880,6,37.0898551940918,-206.4554687781631,0.06843324582344001,1,-319651.0560784261,0.0012818556278944016,1.56109798E9,,,,0,,5,,1.56109798E9
Raw,2065249170,1503291000000,,,-1311985616708696071,0.0,6.686700768875316,,,0,10,0.0,16431,175905880268319,13,31.17220115661621,-164.01795365720966,0.13250584270086257,1,-219202.4054484494,0.0023886116687208414,1.56109798E9,,,,0,,5,,1.56109798E9
Raw,2065249170,1503291000000,,,-1311985616708696071,0.0,6.686700768875316,,,0,30,0.0,16431,175905924342863,7,36.26158905029297,-319.1225951196609,0.07250259627386407,1,-109775.93896406634,0.001410108176060021,1.56109798E9,,,,0,,5,,1.56109798E9
Raw,2065249170,1503291000000,,,-1311985616708696071,0.0,6.686700768875316,,,0,32,0.0,16431,175905913008595,16,28.93250846862793,-649.5525223451555,0.1691041686430954,4,-218947.0052571843,3.4028234663852886E38,1.56109798E9,,,,0,,5,,1.56109798E9
Raw,2065249171,1503291000000,,,-1311985616708696071,0.0,6.686700768875316,,,0,33,0.0,16431,175905910819915,16,29.33151626586914,19.352796319691166,0.16122308318510525,1,-705.755296326108,0.002952431095764041,1.56109798E9,,,,0,,5,,1.56109798E9
Raw,2065249171,1503291000000,,,-1311985616708696071,0.0,6.686700768875316,,,0,36,0.0,16431,175905920613240,6,39.47906494140625,-330.4271324640597,0.05322718643499608,1,-152340.22213073404,9.735957137309015E-4,1.56109798E9,,,,0,,5,,1.56109798E9
Fix,gps,34.486415,109.464199,357.466461,0.000000,2.000000,1627951902999
Raw,2065250167,1504291000000,,,-1311985616708696460,0.0,7.361799402222096,,,0,1,0.0,16431,175920925377875,29,30.032512664794922,496.48081420814856,0.1478947291729782,1,543590.2325199608,0.0026987572200596333,1.57542003E9,,,,0,,1,,1.57542003E9
Raw,2065250168,1504291000000,,,-1311985616708696460,0.0,7.361799402222096,,,0,2,0.0,16,1504014201685,1000000000,7.0,-697.1239290158246,2.99792458E8,2,-9.745466748385033,3.4028234663852886E38,1.57542003E9,,,,0,,1,,1.57542003E9
Raw,2065250168,1504291000000,,,-1311985616708696460,0.0,7.361799402222096,,,0,3,0.0,16,1504005927109,1000000000,29.11772346496582,-188.8082714810106,2.99792458E8,2,-0.9385159264028873,3.4028234663852886E38,1.57542003E9,,,,0,,1,,1.57542003E9
Raw,2065250168,1504291000000,,,-1311985616708696460,0.0,7.361799402222096,,,0,6,0.0,16431,175920924352352,6,44.348262786865234,-648.5346838635583,0.030782879904116697,1,-532078.0874427281,5.805388209410012E-4,1.57542003E9,,,,0,,1,,1.57542003E9
Raw,2065250169,1504291000000,,,-1311985616708696460,0.0,7.361799402222096,,,0,14,0.0,16431,175920932433100,15,35.698143005371094,-78.84069723208677,0.07876456534512705,1,-235211.75153546137,0.0014909346355125308,1.57542003E9,,,,0,,1,,1.57542003E9
Raw,2065250169,1504291000000,,,-1311985616708696460,0.0,7.361799402222096,,,0,17,0.0,16431,175920929428958,46,26.219715118408203,-190.04461259137554,0.2295951203781298,4,-66187.53390095012,3.4028234663852886E38,1.57542003E9,,,,0,,1,,1.57542003E9
Raw,2065250169,1504291000000,,,-1311985616708696460,0.0,7.361799402222096,,,0,19,0.0,16431,175920927507441,10,39.277503967285156,-441.39054496889526,0.05203232840049754,1,-589551.865020258,0.0010408047819510102,1.57542003E9,,,,0,,1,,1.57542003E9
Raw,2065250170,1504291000000,,,-1311985616708696460,0.0,7.361799402222096,,,0,21,0.0,16431,175920915817389,75,19.951539993286133,475.3626765799413,4.202845108730607,4,542818.9593209685,3.4028234663852886E38,1.57542003E9,,,,0,,1,,1.57542003E9
Raw,2065250170,1504291000000,,,-1311985616708696460,0.0,7.361799402222096,,,0,22,0.0,16431,175920922737382,42,26.84837532043457,143.8099709892158,0.21247956972862359,4,9026.134078850097,3.4028234663852886E38,1.57542003E9,,,,0,,1,,1.57542003E9
Raw,2065250171,1504291000000,,,-1311985616708696460,0.0,7.361799402222096,,,0,24,0.0,16,1504016446363,1000000000,21.063213348388672,-398.40956803745735,2.99792458E8,2,-524294.3671774828,3.4028234663852886E38,1.57542003E9,,,,0,,1,,1.57542003E9
Raw,2065250171,1504291000000,,,-1311985616708696460,0.0,7.361799402222096,,,0,30,0.0,16431,175920921338903,8,40.87783432006836,485.34900675340737,0.0423946359624319,1,64347.926504801995,8.656709105707705E-4,1.57542003E9,,,,0,,1,,1.57542003E9
Raw,2065250171,1504291000000,,,-1311985616708696460,0.0,7.361799402222096,,,0,10,0.0,16,1504001493264,1000000000,17.85734748840332,-855.247372941099,2.99792458E8,2,-524288.8815250084,3.4028234663852886E38,1.59806246E9,,,,0,,3,,1.59806246E9
Raw,2065250171,1504291000000,,,-1311985616708696460,0.0,7.361799402222096,,,0,2,0.0,32995,13902919997799,36,34.351654052734375,-17.142262508536767,0.09295762855692463,1,-665.9818305808666,0.0017144596204161644,1.59975002E9,,,,0,,3,,1.59975002E9
Raw,2065250172,1504291000000,,,-1311985616708696460,0.0,7.361799402222096,,,0,18,0.0,32995,13902928106017,48,31.828365325927734,377.6625883607835,0.12094220439778597,1,12441.518604789439,0.0021605421788990498,1.60031245E9,,,,0,,3,,1.60031245E9
Raw,2065250172,1504291000000,,,-1311985616708696460,0.0,7.361799402222096,,,0,9,0.0,32995,13902932979271,33,43.274818420410156,-386.9355386367706,0.03432267709863687,1,-550982.9950237481,6.464613252319396E-4,1.59862502E9,,,,0,,3,,1.59862502E9
Raw,2065250172,1504291000000,,,-1311985616708696460,0.0,7.361799402222096,,,0,16,0.0,99,932724203,33,41.40024185180664,378.87711669897385,0.04198199776414224,1,2653.3415840747143,7.60746537707746E-4,1.60143744E9,,,,0,,3,,1.60143744E9
Raw,2065250173,1504291000000,,,-1311985616708696460,0.0,7.361799402222096,,,0,19,0.0,17,170551,86,26.828479766845703,-20.88045296687777,0.2148423426837972,4,-21.281861798980014,3.4028234663852886E38,1.60368755E9,,,,0,,3,,1.60368755E9
Raw,2065250173,1504291000000,,,-1311985616708696460,0.0,7.361799402222096,,,0,3,0.0,32995,13902922242662,33,35.767005920410156,-510.26594090319054,0.07632722869539754,1,-689210.4100938289,0.0014520696131512523,1.60481254E9,,,,0,,3,,1.60481254E9
Raw,2065250173,1504291000000,,,-1311985616708696460,0.0,7.361799402222096,,,0,193,0.0,35,11272171,58,24.090869903564453,-180.02464303332147,0.2932232224447633,4,-29495.54876275908,3.4028234663852886E38,1.57542003E9,,,,0,,4,,1.57542003E9
Raw,2065250174,1504291000000,,,-1311985616708696460,0.0,7.361799402222096,,,0,194,0.0,35,15726221,10,39.142276763916016,-149.88891793462426,0.05430591365785872,1,-52065.63579467118,0.001002886681817472,1.57542003E9,,,,0,,4,,1.57542003E9
Raw,2065250174,1504291000000,,,-1311985616708696460,0.0,7.361799402222096,,,0,195,0.0,1,847394,47,25.990970611572266,-121.02542277301052,0.23539215015723736,4,-48974.69822994346,3.4028234663852886E38,1.57542003E9,,,,0,,4,,1.57542003E9
Raw,2065250174,1504291000000,,,-1311985616708696460,0.0,7.361799402222096,,,0,7,0.0,16431,175906879697902,11,32.102115631103516,-99.73618269244463,0.11932024225907373,1,-155880.6149821754,0.0021460994612425566,1.56109798E9,,,,0,,5,,1.56109798E9
Raw,2065250174,1504291000000,,,-1311985616708696460,0.0,7.361799402222096,,,0,8,0.0,16431,175906877985577,6,38.635986328125,-206.40383385653104,0.05780203230381875,1,-319857.4944174449,0.0010728342458605766,1.56109798E9,,,,0,,5,,1.56109798E9
Raw,2065250175,1504291000000,,,-1311985616708696460,0.0,7.361799402222096,,,0,10,0.0,16431,175906880268860,10,33.17119216918945,-164.07001460954825,0.1060149371738432,1,-219366.49187564178,0.002012668875977397,1.56109798E9,,,,0,,5,,1.56109798E9
Raw,2065250176,1504291000000,,,-1311985616708696460,0.0,7.361799402222096,,,0,30,0.0,16431,175906924343924,6,40.378990173339844,-319.166084334184,0.04542698440440582,1,-110095.09662858183,8.777733310125768E-4,1.56109798E9,,,,0,,5,,1.56109798E9
Raw,2065250176,1504291000000,,,-1311985616708696460,0.0,7.361799402222096,,,0,32,0.0,16431,175906913010759,13,30.9083194732666,-649.4906967690231,0.13517527455561912,4,-219596.48015800936,3.4028234663852886E38,1.56109798E9,,,,0,,5,,1.56109798E9
Raw,2065250176,1504291000000,,,-1311985616708696460,0.0,7.361799402222096,,,0,33,0.0,16431,175906910819852,16,29.047832489013672,19.591776114368514,0.16651095634442992,1,-686.3323051166134,0.003050450934097171,1.56109798E9,,,,0,,5,,1.56109798E9
Raw,2065250177,1504291000000,,,-1311985616708696460,0.0,7.361799402222096,,,0,36,0.0,16431,175906920614341,6,41.73780822753906,-330.32260156990424,0.041888183639126025,1,-152670.59902774208,7.912618457339704E-4,1.56109798E9,,,,0,,5,,1.56109798E9
Fix,gps,34.486415,109.464199,357.500214,0.000000,2.000000,1627951903999
Raw,2065251168,1505291000000,,,-1311985616708696846,0.0,7.043379323591177,,,0,1,0.0,16431,175921925376125,28,30.29592514038086,496.69178461402475,0.14350551453525107,4,544086.7723537518,3.4028234663852886E38,1.57542003E9,,,,0,,1,,1.57542003E9
Raw,2065251168,1505291000000,,,-1311985616708696846,0.0,7.043379323591177,,,0,2,0.0,16,1505014204071,1000000000,19.327678680419922,-696.9383159576014,2.99792458E8,2,-9.737421883545743,3.4028234663852886E38,1.57542003E9,,,,0,,1,,1.57542003E9
Raw,2065251169,1505291000000,,,-1311985616708696846,0.0,7.043379323591177,,,0,3,0.0,17,927698,23,31.98629379272461,-188.35993380668128,0.1183974863756378,4,-151.20560589459376,3.4028234663852886E38,1.57542003E9,,,,0,,1,,1.57542003E9
Raw,2065251169,1505291000000,,,-1311985616708696846,0.0,7.043379323591177,,,0,6,0.0,16431,175921924354514,6,45.82569122314453,-648.8146371614366,0.030783268906763778,1,-532726.7526729362,4.897336475551128E-4,1.57542003E9,,,,0,,1,,1.57542003E9
Raw,2065251170,1505291000000,,,-1311985616708696846,0.0,7.043379323591177,,,0,14,0.0,16431,175921932433386,12,37.85750961303711,-79.01248133357586,0.06191976885890105,1,-235290.64030517987,0.0011627605417743325,1.57542003E9,,,,0,,1,,1.57542003E9
Raw,2065251171,1505291000000,,,-1311985616708696846,0.0,7.043379323591177,,,0,17,0.0,16431,175921929429653,19,33.56859588623047,-190.5446703934782,0.0994870899938709,4,-66377.82932628426,3.4028234663852886E38,1.57542003E9,,,,0,,1,,1.57542003E9
Raw,2065251171,1505291000000,,,-1311985616708696846,0.0,7.043379323591177,,,0,19,0.0,16431,175921927508905,17,34.48886489868164,-442.44931648077636,0.08931063929073918,1,-589993.6939214503,0.0017136515816673636,1.57542003E9,,,,0,,1,,1.57542003E9
Raw,2065251172,1505291000000,,,-1311985616708696846,0.0,7.043379323591177,,,0,21,0.0,16431,175921915815954,67,21.56947898864746,475.13057505102097,4.202844842461415,4,543293.825005051,3.4028234663852886E38,1.57542003E9,,,,0,,1,,1.57542003E9
Raw,2065251172,1505291000000,,,-1311985616708696846,0.0,7.043379323591177,,,0,22,0.0,16431,175921922736528,60,22.830154418945312,144.24489721690338,4.200492354153766,4,9169.911846630925,3.4028234663852886E38,1.57542003E9,,,,0,,1,,1.57542003E9
Raw,2065251173,1505291000000,,,-1311985616708696846,0.0,7.043379323591177,,,0,24,0.0,16,1505016447692,1000000000,12.676065444946289,-398.40956803745735,2.99792458E8,2,-524294.3640618656,3.4028234663852886E38,1.57542003E9,,,,0,,1,,1.57542003E9
Raw,2065251174,1505291000000,,,-1311985616708696846,0.0,7.043379323591177,,,0,30,0.0,16431,175921921337289,10,39.364437103271484,485.3877585064738,0.05041775523185177,1,64833.345178789496,9.775608777999878E-4,1.57542003E9,,,,0,,1,,1.57542003E9
Raw,2065251174,1505291000000,,,-1311985616708696846,0.0,7.043379323591177,,,0,10,0.0,16,1505001495994,1000000000,13.478458404541016,-855.247372941099,2.99792458E8,2,-524288.8681356177,3.4028234663852886E38,1.59806246E9,,,,0,,3,,1.59806246E9
Raw,2065251175,1505291000000,,,-1311985616708696846,0.0,7.043379323591177,,,0,2,0.0,32995,13903919997802,38,33.8762092590332,-16.77408570687234,0.09798535671607128,1,-682.9346551566051,0.001810921006835997,1.59975002E9,,,,0,,3,,1.59975002E9
Raw,2065251176,1505291000000,,,-1311985616708696846,0.0,7.043379323591177,,,0,18,0.0,32995,13903928104729,55,30.610509872436523,377.72645888430725,0.138926266903855,1,12819.255459381971,0.0024857393000274897,1.60031245E9,,,,0,,3,,1.60031245E9
Raw,2065251177,1505291000000,,,-1311985616708696846,0.0,7.043379323591177,,,0,9,0.0,32995,13903932980544,33,43.571624755859375,-387.1751723885825,0.03324832251515478,1,-551370.0643567041,6.247441051527858E-4,1.59862502E9,,,,0,,3,,1.59862502E9
Raw,2065251177,1505291000000,,,-1311985616708696846,0.0,7.043379323591177,,,0,16,0.0,99,1932722939,33,40.54636001586914,379.01774091458697,0.046082135589843254,1,3032.335913253348,8.393325260840356E-4,1.60143744E9,,,,0,,3,,1.60143744E9
Raw,2065251178,1505291000000,,,-1311985616708696846,0.0,7.043379323591177,,,0,19,0.0,99,1933170603,76,27.885740280151367,-21.301328701863824,0.190491825411505,4,-42.41422952524687,3.4028234663852886E38,1.60368755E9,,,,0,,3,,1.60368755E9
Raw,2065251179,1505291000000,,,-1311985616708696846,0.0,7.043379323591177,,,0,3,0.0,32995,13903922244390,35,34.494140625,-509.36824308083624,0.08831028257978085,1,-689720.2167565599,0.0016812440007925034,1.60481254E9,,,,0,,3,,1.60481254E9
Raw,2065251179,1505291000000,,,-1311985616708696846,0.0,7.043379323591177,,,0,193,0.0,16,1505011272790,1000000000,31.44020652770996,-181.19653421840178,2.99792458E8,2,-1.9875050086229749,3.4028234663852886E38,1.57542003E9,,,,0,,4,,1.57542003E9
Raw,2065251180,1505291000000,,,-1311985616708696846,0.0,7.043379323591177,,,0,194,0.0,35,15726731,9,40.21971893310547,-149.43621770586003,0.04830067385230047,1,-52215.248735442394,8.858900982886553E-4,1.57542003E9,,,,0,,4,,1.57542003E9
Raw,2065251180,1505291000000,,,-1311985616708696846,0.0,7.043379323591177,,,0,195,0.0,1,847792,65,23.171337127685547,-120.77206231183408,0.3251256332451249,4,-49096.157124375204,3.4028234663852886E38,1.57542003E9,,,,0,,4,,1.57542003E9
Raw,2065251181,1505291000000,,,-1311985616708696846,0.0,7.043379323591177,,,0,7,0.0,16431,175907879698215,12,31.645437240600586,-99.51684504349208,0.12557039563496014,1,-155980.15519446178,0.0022619543597102165,1.56109798E9,,,,0,,5,,1.56109798E9
Raw,2065251182,1505291000000,,,-1311985616708696846,0.0,7.043379323591177,,,0,8,0.0,16431,175907877986262,6,37.79986572265625,-206.43834234376038,0.06331601377181592,1,-320063.8925260443,0.0011812412412837148,1.56109798E9,,,,0,,5,,1.56109798E9
