# 
# Header Description:
# 
# Version: v2.0.0.1 Platform: 10 Manufacturer: HUAWEI Model: BLA-AL00
# 
# Raw,ElapsedRealtimeMillis,TimeNanos,LeapSecond,TimeUncertaintyNanos,FullBiasNanos,BiasNanos,BiasUncertaintyNanos,DriftNanosPerSecond,DriftUncertaintyNanosPerSecond,HardwareClockDiscontinuityCount,Svid,TimeOffsetNanos,State,ReceivedSvTimeNanos,ReceivedSvTimeUncertaintyNanos,Cn0DbHz,PseudorangeRateMetersPerSecond,PseudorangeRateUncertaintyMetersPerSecond,AccumulatedDeltaRangeState,AccumulatedDeltaRangeMeters,AccumulatedDeltaRangeUncertaintyMeters,CarrierFrequencyHz,CarrierCycles,CarrierPhase,CarrierPhaseUncertainty,MultipathIndicator,SnrInDb,ConstellationType,AgcDb,CarrierFrequencyHz
# 
# Fix,Provider,Latitude,Longitude,Altitude,Speed,Accuracy,(UTC)TimeInMs
# 
# Nav,Svid,Type,Status,MessageId,Sub-messageId,Data(Bytes)
# 
Fix,gps,34.486761,109.464208,362.899261,1.096763,3.000000,1627819141000
Raw,1932487549,488825000000,,,-1311853870175373936,0.0,9.595417782399926,,,0,10,0.0,16431,43158931072008,15,35.845306396484375,-433.7110858651756,0.07723403339007512,4,-218966.83562923435,3.4028234663852886E38,1.57542003E9,,,,0,,1,,1.57542003E9
Raw,1932487550,488825000000,,,-1311853870175373936,0.0,9.595417782399926,,,0,12,0.0,16431,43158922657931,25,31.43813133239746,-562.035726815709,0.12545272129410429,4,-280673.47795897874,3.4028234663852886E38,1.57542003E9,,,,0,,1,,1.57542003E9
Raw,1932487550,488825000000,,,-1311853870175373936,0.0,9.595417782399926,,,0,15,0.0,16431,43158918896354,7,41.86732482910156,415.52025634525603,0.04101409677136439,4,201675.98344002326,3.4028234663852886E38,1.57542003E9,,,,0,,1,,1.57542003E9
Raw,1932487550,488825000000,,,-1311853870175373936,0.0,9.595417782399926,,,0,18,0.0,16431,43158924224816,8,40.928550720214844,537.2978959749532,0.0426683107659073,4,252530.94258392343,3.4028234663852886E38,1.57542003E9,,,,0,,1,,1.57542003E9
Raw,1932487550,488825000000,,,-1311853870175373936,0.0,9.595417782399926,,,0,23,0.0,16431,43158932556738,7,41.80198669433594,4.880944870862994,0.04015775008849207,4,-8726.525291614676,3.4028234663852886E38,1.57542003E9,,,,0,,1,,1.57542003E9
Raw,1932487551,488825000000,,,-1311853870175373936,0.0,9.595417782399926,,,0,24,0.0,16431,43158928657485,18,33.98940658569336,388.593104827301,0.09472340934274143,4,179831.96097833707,3.4028234663852886E38,1.57542003E9,,,,0,,1,,1.57542003E9
Raw,1932487551,488825000000,,,-1311853870175373936,0.0,9.595417782399926,,,0,25,0.0,16431,43158921154030,166,30.4317684173584,-730.7794686882303,0.1405341667008867,4,-356703.7221870202,3.4028234663852886E38,1.57542003E9,,,,1,,1,,1.57542003E9
Raw,1932487551,488825000000,,,-1311853870175373936,0.0,9.595417782399926,,,0,31,0.0,16,488015781317,1000000000,7.0,-851.4008950628477,2.99792458E8,2,-12.762742610500052,3.4028234663852886E38,1.57542003E9,,,,0,,1,,1.57542003E9
Raw,1932487552,488825000000,,,-1311853870175373936,0.0,9.595417782399926,,,0,32,0.0,16431,43158926442669,8,40.64341354370117,-432.1725356128229,0.0444658358319083,4,-214015.4322157674,3.4028234663852886E38,1.57542003E9,,,,0,,1,,1.57542003E9
Raw,1932487552,488825000000,,,-1311853870175373936,0.0,9.595417782399926,,,0,10,0.0,32995,53940928275558,57,30.298673629760742,-872.6527381679939,0.1439819699699425,4,-429320.68509798497,3.4028234663852886E38,1.59806246E9,,,,0,,3,,1.59806246E9
Raw,1932487552,488825000000,,,-1311853870175373936,0.0,9.595417782399926,,,0,6,0.0,32995,53940928420076,39,33.64064025878906,215.2343768056238,0.09849773352888991,4,19616.454931739947,3.4028234663852886E38,1.59975002E9,,,,0,,3,,1.59975002E9
Raw,1932487552,488825000000,,,-1311853870175373936,0.0,9.595417782399926,,,0,9,0.0,32995,53940933896878,33,43.704715728759766,-292.06245385635384,0.03294307192996797,4,-160683.5080038703,3.4028234663852886E38,1.59862502E9,,,,0,,3,,1.59862502E9
Raw,1932487553,488825000000,,,-1311853870175373936,0.0,9.595417782399926,,,0,16,0.0,32995,53940927684203,79,27.55674171447754,413.3407854979919,0.196767241076943,4,182821.6147466038,3.4028234663852886E38,1.60143744E9,,,,0,,3,,1.60143744E9
Raw,1932487553,488825000000,,,-1311853870175373936,0.0,9.595417782399926,,,0,23,0.0,32995,53940925155372,33,38.10595703125,-181.70247124425464,0.05892766034850533,4,-105654.34070185629,3.4028234663852886E38,1.60368755E9,,,,0,,3,,1.60368755E9
Raw,1932487553,488825000000,,,-1311853870175373936,0.0,9.595417782399926,,,0,7,0.0,32995,53940933057104,49,31.647171020507812,-222.54589874995145,0.1243514818431844,4,-112838.18501119352,3.4028234663852886E38,1.60481254E9,,,,0,,3,,1.60481254E9
Raw,1932487554,488825000000,,,-1311853870175373936,0.0,9.595417782399926,,,0,8,0.0,32995,53940926293402,36,34.29578399658203,-563.8684086678536,0.09106918088290977,4,-272676.2500973445,3.4028234663852886E38,1.60537498E9,,,,0,,3,,1.60537498E9
Raw,1932487554,488825000000,,,-1311853870175373936,0.0,9.595417782399926,,,0,193,0.0,35,9368492,7,41.45899200439453,-242.44713930924001,0.04111080657383909,4,-116696.57670850119,3.4028234663852886E38,1.57542003E9,,,,0,,4,,1.57542003E9
Raw,1932487554,488825000000,,,-1311853870175373936,0.0,9.595417782399926,,,0,194,0.0,35,12948876,9,40.22590637207031,-118.29044196688108,0.04776862224249742,4,-59015.95052614485,3.4028234663852886E38,1.57542003E9,,,,0,,4,,1.57542003E9
Raw,1932487554,488825000000,,,-1311853870175373936,0.0,9.595417782399926,,,0,3,0.0,16,612249510,1000000000,29.927989959716797,-116.53506764674438,2.99792458E8,6,-71.31723779984694,3.4028234663852886E38,1.56109798E9,,,,0,,5,,1.56109798E9
Raw,1932487555,488825000000,,,-1311853870175373936,0.0,9.595417782399926,,,0,6,0.0,16431,43144879286249,20,27.091495513916016,-73.75622524432913,0.2096049941035757,4,-18461.93230856477,3.4028234663852886E38,1.56109798E9,,,,0,,5,,1.56109798E9
Raw,1932487555,488825000000,,,-1311853870175373936,0.0,9.595417782399926,,,0,14,0.0,16431,43144925820887,7,35.54610824584961,76.55446308976491,0.07892649861817158,4,25515.430501740248,3.4028234663852886E38,1.56109798E9,,,,0,,5,,1.56109798E9
Raw,1932487555,488825000000,,,-1311853870175373936,0.0,9.595417782399926,,,0,16,0.0,16431,43144878646617,16,29.07217788696289,-74.51360559317902,0.16745820899349162,4,-17952.302286061957,3.4028234663852886E38,1.56109798E9,,,,0,,5,,1.56109798E9
Raw,1932487555,488825000000,,,-1311853870175373936,0.0,9.595417782399926,,,0,24,0.0,16431,43144925043423,6,44.68484878540039,-92.91108556761054,0.03090719225270963,4,-42348.96543737374,3.4028234663852886E38,1.56109798E9,,,,0,,5,,1.56109798E9
Raw,1932487556,488825000000,,,-1311853870175373936,0.0,9.595417782399926,,,0,26,0.0,16431,43144917788325,7,35.57222366333008,371.4577408209798,0.08084535922641273,4,130087.56947715819,3.4028234663852886E38,1.56109798E9,,,,0,,5,,1.56109798E9
Raw,1932487556,488825000000,,,-1311853870175373936,0.0,9.595417782399926,,,0,27,0.0,16431,43144914456354,14,30.112857818603516,32.07007278849578,0.1481749275716474,4,6073.06310242558,3.4028234663852886E38,1.56109798E9,,,,0,,5,,1.56109798E9
Raw,1932487557,488825000000,,,-1311853870175373936,0.0,9.595417782399926,,,0,33,0.0,16431,43144926456622,8,34.9455451965332,-168.9479298695494,0.08461613870394824,4,-67398.70923133052,3.4028234663852886E38,1.56109798E9,,,,0,,5,,1.56109798E9
Fix,gps,34.486760,109.464209,362.914886,0.996471,3.000000,1627819142000
Raw,1932488530,489825000000,,,-1311853870175374325,0.0,9.65853190135511,,,0,10,0.0,16431,43159931073475,18,34.31421661376953,-433.59564858493286,0.09173834864501046,4,-219400.45047210233,3.4028234663852886E38,1.57542003E9,,,,0,,1,,1.57542003E9
Raw,1932488531,489825000000,,,-1311853870175374325,0.0,9.65853190135511,,,0,12,0.0,16431,43159922659845,17,34.44606399536133,-561.977445815055,0.08887292602342328,4,-281235.417763897,3.4028234663852886E38,1.57542003E9,,,,0,,1,,1.57542003E9
Raw,1932488531,489825000000,,,-1311853870175374325,0.0,9.65853190135511,,,0,15,0.0,16431,43159918894999,6,44.156639099121094,415.66026707665173,0.03339875212703164,4,202091.66579413874,3.4028234663852886E38,1.57542003E9,,,,0,,1,,1.57542003E9
Raw,1932488531,489825000000,,,-1311853870175374325,0.0,9.65853190135511,,,0,18,0.0,16431,43159924223029,17,34.77137756347656,537.0732585040114,0.08590470685206003,4,253068.09621692813,3.4028234663852886E38,1.57542003E9,,,,0,,1,,1.57542003E9
Raw,1932488531,489825000000,,,-1311853870175374325,0.0,9.65853190135511,,,0,23,0.0,16431,43159932556760,10,38.82110595703125,4.922941380298077,0.05567487013909231,4,-8721.57656282573,3.4028234663852886E38,1.57542003E9,,,,0,,1,,1.57542003E9
Raw,1932488532,489825000000,,,-1311853870175374325,0.0,9.65853190135511,,,0,24,0.0,16431,43159928656238,7,41.539039611816406,388.59726288699676,0.04062101271683172,4,180220.62780378986,3.4028234663852886E38,1.57542003E9,,,,0,,1,,1.57542003E9
Raw,1932488532,489825000000,,,-1311853870175374325,0.0,9.65853190135511,,,0,25,0.0,16431,43159921156482,43,26.81426429748535,-730.9040741492777,0.21302936568377207,4,-357434.7558375795,3.4028234663852886E38,1.57542003E9,,,,0,,1,,1.57542003E9
Raw,1932488532,489825000000,,,-1311853870175374325,0.0,9.65853190135511,,,0,31,0.0,16,489015784096,1000000000,7.0,-851.4008950628477,2.99792458E8,2,-12.756084539136197,3.4028234663852886E38,1.57542003E9,,,,0,,1,,1.57542003E9
Raw,1932488532,489825000000,,,-1311853870175374325,0.0,9.65853190135511,,,0,32,0.0,16431,43159926444149,13,36.70065689086914,-432.19083789197566,0.06934519284188007,4,-214447.6060087996,3.4028234663852886E38,1.57542003E9,,,,0,,1,,1.57542003E9
Raw,1932488532,489825000000,,,-1311853870175374325,0.0,9.65853190135511,,,0,10,0.0,32995,53941928278553,53,31.021352767944336,-872.5176353103375,0.1326066255898773,4,-430192.6372829838,3.4028234663852886E38,1.59806246E9,,,,0,,3,,1.59806246E9
Raw,1932488532,489825000000,,,-1311853870175374325,0.0,9.65853190135511,,,0,6,0.0,32995,53941928419370,35,34.619232177734375,215.26544296474435,0.08816407583086427,4,19831.73541673535,3.4028234663852886E38,1.59975002E9,,,,0,,3,,1.59975002E9
Raw,1932488533,489825000000,,,-1311853870175374325,0.0,9.65853190135511,,,0,9,0.0,32995,53941933897956,33,38.7968635559082,-291.7804556110841,0.05606541631539269,4,-160975.23606542163,3.4028234663852886E38,1.59862502E9,,,,0,,3,,1.59862502E9
Raw,1932488533,489825000000,,,-1311853870175374325,0.0,9.65853190135511,,,0,16,0.0,32995,53941927682916,33,35.788814544677734,413.46760631871325,0.077115402144312,4,183235.1395136212,3.4028234663852886E38,1.60143744E9,,,,0,,3,,1.60143744E9
Raw,1932488533,489825000000,,,-1311853870175374325,0.0,9.65853190135511,,,0,23,0.0,32995,53941925155973,33,35.90608596801758,-181.66329346048167,0.07564523008662738,4,-105835.94967512741,3.4028234663852886E38,1.60368755E9,,,,0,,3,,1.60368755E9
Raw,1932488533,489825000000,,,-1311853870175374325,0.0,9.65853190135511,,,0,7,0.0,32995,53941933057921,34,34.711204528808594,-222.64697027476984,0.0880857594048895,4,-113060.94468866989,3.4028234663852886E38,1.60481254E9,,,,0,,3,,1.60481254E9
Raw,1932488533,489825000000,,,-1311853870175374325,0.0,9.65853190135511,,,0,8,0.0,32995,53941926295301,37,33.99948501586914,-563.8254647726349,0.09419047155578514,4,-273240.60765863955,3.4028234663852886E38,1.60537498E9,,,,0,,3,,1.60537498E9
Raw,1932488533,489825000000,,,-1311853870175374325,0.0,9.65853190135511,,,0,193,0.0,35,9369321,15,35.674007415771484,-242.45997135412085,0.07842641179272702,4,-116939.08634599985,3.4028234663852886E38,1.57542003E9,,,,0,,4,,1.57542003E9
Raw,1932488534,489825000000,,,-1311853870175374325,0.0,9.65853190135511,,,0,194,0.0,35,12949348,11,38.587974548339844,-118.10447956347849,0.05719859558793436,4,-59134.10668213136,3.4028234663852886E38,1.57542003E9,,,,0,,4,,1.57542003E9
Raw,1932488534,489825000000,,,-1311853870175374325,0.0,9.65853190135511,,,0,3,0.0,16,489002249900,1000000000,7.0,-116.53506764674438,2.99792458E8,2,-0.22914252375667843,3.4028234663852886E38,1.56109798E9,,,,0,,5,,1.56109798E9
Raw,1932488534,489825000000,,,-1311853870175374325,0.0,9.65853190135511,,,0,6,0.0,16431,43145879286530,22,26.433046340942383,-73.79985930929246,0.22583907723616603,4,-18535.82138225708,3.4028234663852886E38,1.56109798E9,,,,0,,5,,1.56109798E9
Raw,1932488534,489825000000,,,-1311853870175374325,0.0,9.65853190135511,,,0,14,0.0,16431,43145925820666,6,41.780155181884766,76.71341514637317,0.03904148723052825,4,25592.163685701475,3.4028234663852886E38,1.56109798E9,,,,0,,5,,1.56109798E9
Raw,1932488534,489825000000,,,-1311853870175374325,0.0,9.65853190135511,,,0,16,0.0,16431,43145878646875,25,25.4478816986084,-74.64750704424301,0.252431497892477,4,-18026.831995461103,3.4028234663852886E38,1.56109798E9,,,,0,,5,,1.56109798E9
Raw,1932488534,489825000000,,,-1311853870175374325,0.0,9.65853190135511,,,0,24,0.0,16431,43145925043763,6,41.21394348144531,-92.80582190063984,0.04146102544898278,4,-42441.74824613505,3.4028234663852886E38,1.56109798E9,,,,0,,5,,1.56109798E9
Raw,1932488535,489825000000,,,-1311853870175374325,0.0,9.65853190135511,,,0,26,0.0,16431,43145917787139,9,33.828651428222656,371.57535937844,0.09810595169712233,4,130459.14473774293,3.4028234663852886E38,1.56109798E9,,,,0,,5,,1.56109798E9
Raw,1932488535,489825000000,,,-1311853870175374325,0.0,9.65853190135511,,,0,27,0.0,16431,43145914456310,6,36.96429443359375,32.105394994374606,0.068747876156946,4,6105.212771540865,3.4028234663852886E38,1.56109798E9,,,,0,,5,,1.56109798E9
Raw,1932488535,489825000000,,,-1311853870175374325,0.0,9.65853190135511,,,0,33,0.0,16431,43145926457214,6,37.1683235168457,-168.7499448796084,0.06577336637593156,4,-67567.53074796665,3.4028234663852886E38,1.56109798E9,,,,0,,5,,1.56109798E9
Raw,1932489440,490825000000,,,-1311853870175374710,0.0,9.387356153701015,,,0,10,0.0,16431,43160931074825,27,30.55040740966797,-433.7555634709379,0.14041501123765265,4,-219834.08328198167,3.4028234663852886E38,1.57542003E9,,,,0,,1,,1.57542003E9
Raw,1932489440,490825000000,,,-1311853870175374710,0.0,9.387356153701015,,,0,12,0.0,16431,43160922661685,12,37.36614990234375,-561.8689954383995,0.06363568657813753,4,-281797.1884979021,3.4028234663852886E38,1.57542003E9,,,,0,,1,,1.57542003E9
Raw,1932489440,490825000000,,,-1311853870175374710,0.0,9.387356153701015,,,0,15,0.0,16431,43160918893562,7,41.46216583251953,415.60904114449795,0.04280974547165595,4,202507.34616152194,3.4028234663852886E38,1.57542003E9,,,,0,,1,,1.57542003E9
Raw,1932489440,490825000000,,,-1311853870175374710,0.0,9.387356153701015,,,0,18,0.0,16431,43160924221202,25,31.483423233032227,537.4367479028272,0.12508393846375981,4,253605.52400171256,3.4028234663852886E38,1.57542003E9,,,,0,,1,,1.57542003E9
Raw,1932489440,490825000000,,,-1311853870175374710,0.0,9.387356153701015,,,0,23,0.0,16431,43160932556690,6,45.02210998535156,5.038536291902254,0.03225864153459654,4,-8716.458468881881,3.4028234663852886E38,1.57542003E9,,,,0,,1,,1.57542003E9
Raw,1932489440,490825000000,,,-1311853870175374710,0.0,9.387356153701015,,,0,24,0.0,16431,43160928654899,10,38.71845245361328,388.6616105649118,0.055608074016109676,4,180609.3355755883,3.4028234663852886E38,1.57542003E9,,,,0,,1,,1.57542003E9
Raw,1932489441,490825000000,,,-1311853870175374710,0.0,9.387356153701015,,,0,25,0.0,16431,43160921158889,31,29.44871711730957,-730.8387039976669,0.15735053062999882,4,-358165.6536873589,3.4028234663852886E38,1.57542003E9,,,,0,,1,,1.57542003E9
Raw,1932489441,490825000000,,,-1311853870175374710,0.0,9.387356153701015,,,0,31,0.0,16,490015786936,1000000000,7.0,-851.4008950628477,2.99792458E8,2,-12.749426467776061,3.4028234663852886E38,1.57542003E9,,,,0,,1,,1.57542003E9
Raw,1932489441,490825000000,,,-1311853870175374710,0.0,9.387356153701015,,,0,32,0.0,16431,43160926445571,28,30.375591278076172,-432.2028689991282,0.14239651999412628,4,-214879.78339029866,3.4028234663852886E38,1.57542003E9,,,,0,,1,,1.57542003E9
Raw,1932489441,490825000000,,,-1311853870175374710,0.0,9.387356153701015,,,0,10,0.0,32995,53942928281427,33,36.276214599609375,-872.4889378819453,0.073090393835199,4,-431065.0979998014,3.4028234663852886E38,1.59806246E9,,,,0,,3,,1.59806246E9
Raw,1932489441,490825000000,,,-1311853870175374710,0.0,9.387356153701015,,,0,6,0.0,32995,53942928418636,47,31.985889434814453,215.3370842883553,0.11885103433894073,4,20047.15041893876,3.4028234663852886E38,1.59975002E9,,,,0,,3,,1.59975002E9
Raw,1932489441,490825000000,,,-1311853870175374710,0.0,9.387356153701015,,,0,9,0.0,32995,53942933898842,33,45.93394088745117,-291.64528458851464,0.03250006656246933,4,-161266.73794581302,3.4028234663852886E38,1.59862502E9,,,,0,,3,,1.59862502E9
Raw,1932489441,490825000000,,,-1311853870175374710,0.0,9.387356153701015,,,0,16,0.0,32995,53942927681506,37,33.98373794555664,413.6806216719808,0.09460867228390524,4,183648.87733034178,3.4028234663852886E38,1.60143744E9,,,,0,,3,,1.60143744E9
Raw,1932489442,490825000000,,,-1311853870175374710,0.0,9.387356153701015,,,0,23,0.0,32995,53942925156542,33,35.948486328125,-181.54676554163018,0.07528150637092301,4,-106017.47040826254,3.4028234663852886E38,1.60368755E9,,,,0,,3,,1.60368755E9
Raw,1932489442,490825000000,,,-1311853870175374710,0.0,9.387356153701015,,,0,7,0.0,32995,53942933058474,51,31.216938018798828,-222.5217683707333,0.13054697514658586,4,-113283.55992316558,3.4028234663852886E38,1.60481254E9,,,,0,,3,,1.60481254E9
Raw,1932489442,490825000000,,,-1311853870175374710,0.0,9.387356153701015,,,0,8,0.0,32995,53942926297158,64,29.299835205078125,-563.638181674042,0.16099156212302257,4,-273804.1916781569,3.4028234663852886E38,1.60537498E9,,,,0,,3,,1.60537498E9
Raw,1932489442,490825000000,,,-1311853870175374710,0.0,9.387356153701015,,,0,193,0.0,35,9370095,7,41.52651596069336,-242.46261274450137,0.040805791054422974,4,-117181.56108390997,3.4028234663852886E38,1.57542003E9,,,,0,,4,,1.57542003E9
Raw,1932489442,490825000000,,,-1311853870175374710,0.0,9.387356153701015,,,0,194,0.0,35,12949678,10,39.43372344970703,-118.14422822839822,0.05210787812315351,4,-59252.172427133155,3.4028234663852886E38,1.57542003E9,,,,0,,4,,1.57542003E9
Raw,1932489442,490825000000,,,-1311853870175374710,0.0,9.387356153701015,,,0,3,0.0,16,490002250288,1000000000,31.23992347717285,-116.53506764674438,2.99792458E8,2,-0.23005384390898237,3.4028234663852886E38,1.56109798E9,,,,0,,5,,1.56109798E9
Raw,1932489443,490825000000,,,-1311853870175374710,0.0,9.387356153701015,,,0,6,0.0,16431,43146879286793,18,28.304550170898438,-73.81501748183098,0.18273643565376718,4,-18609.6769820428,3.4028234663852886E38,1.56109798E9,,,,0,,5,,1.56109798E9
Raw,1932489443,490825000000,,,-1311853870175374710,0.0,9.387356153701015,,,0,13,0.0,16,490011228593,1000000000,26.154457092285156,84.30994311275867,2.99792458E8,2,0.9246502007684039,3.4028234663852886E38,1.56109798E9,,,,0,,5,,1.56109798E9
Raw,1932489443,490825000000,,,-1311853870175374710,0.0,9.387356153701015,,,0,14,0.0,16431,43146925820366,6,41.10395812988281,76.71408827488949,0.04211749549900978,4,25668.91344148018,3.4028234663852886E38,1.56109798E9,,,,0,,5,,1.56109798E9
Raw,1932489443,490825000000,,,-1311853870175374710,0.0,9.387356153701015,,,0,16,0.0,16431,43146878647115,15,29.88766098022461,-74.46335953165027,0.1527523612441758,4,-18101.399901138302,3.4028234663852886E38,1.56109798E9,,,,0,,5,,1.56109798E9
Raw,1932489443,490825000000,,,-1311853870175374710,0.0,9.387356153701015,,,0,24,0.0,16431,43146925044051,6,42.156898498535156,-92.66570892187457,0.03728904486702739,4,-42534.332401917236,3.4028234663852886E38,1.56109798E9,,,,0,,5,,1.56109798E9
Raw,1932489443,490825000000,,,-1311853870175374710,0.0,9.387356153701015,,,0,26,0.0,16431,43146917785864,13,31.05233383178711,371.7604611998154,0.13384995293815644,4,130830.81979879474,3.4028234663852886E38,1.56109798E9,,,,0,,5,,1.56109798E9
Raw,1932489443,490825000000,,,-1311853870175374710,0.0,9.387356153701015,,,0,27,0.0,16431,43146914456174,6,36.58226013183594,32.36912291279458,0.0717221529524178,4,6137.528375802482,3.4028234663852886E38,1.56109798E9,,,,0,,5,,1.56109798E9
Raw,1932489443,490825000000,,,-1311853870175374710,0.0,9.387356153701015,,,0,33,0.0,16431,43146926457773,6,37.86832046508789,-168.72392292405323,0.06077067168124997,4,-67736.28156985753,3.4028234663852886E38,1.56109798E9,,,,0,,5,,1.56109798E9
Fix,gps,34.486759,109.464210,362.887177,0.926981,3.000000,1627819143000
Fix,gps,34.486758,109.464212,362.866516,0.640184,3.000000,1627819144000
Raw,1932490489,491825000000,,,-1311853870175375095,0.0,9.426632586619448,,,0,10,0.0,16431,43161931076289,23,31.942462921142578,-433.60488493065054,0.11991718450295713,4,-220267.5570510278,3.4028234663852886E38,1.57542003E9,,,,0,,1,,1.57542003E9
Raw,1932490489,491825000000,,,-1311853870175375095,0.0,9.426632586619448,,,0,12,0.0,16431,43161922663608,12,37.65286636352539,-561.8826965859216,0.061585297310165904,4,-282358.97629833897,3.4028234663852886E38,1.57542003E9,,,,0,,1,,1.57542003E9
Raw,1932490490,491825000000,,,-1311853870175375095,0.0,9.426632586619448,,,0,15,0.0,16431,43161918892204,11,38.47351837158203,415.65195095726017,0.058995392574114625,4,202923.02909104875,3.4028234663852886E38,1.57542003E9,,,,0,,1,,1.57542003E9
Raw,1932490490,491825000000,,,-1311853870175375095,0.0,9.426632586619448,,,0,18,0.0,16431,43161924219452,27,30.823667526245117,537.3679354231076,0.1348948514923195,4,254142.85651201886,3.4028234663852886E38,1.57542003E9,,,,0,,1,,1.57542003E9
Raw,1932490490,491825000000,,,-1311853870175375095,0.0,9.426632586619448,,,0,23,0.0,16431,43161932556710,6,43.09747314453125,5.088148100216653,0.03490650558483474,4,-8711.295487821488,3.4028234663852886E38,1.57542003E9,,,,0,,1,,1.57542003E9
Raw,1932490490,491825000000,,,-1311853870175375095,0.0,9.426632586619448,,,0,24,0.0,16431,43161928653599,166,33.61184310913086,388.60428387304046,0.0988618233647327,4,180997.9975579528,3.4028234663852886E38,1.57542003E9,,,,1,,1,,1.57542003E9
Raw,1932490490,491825000000,,,-1311853870175375095,0.0,9.426632586619448,,,0,25,0.0,16431,43161921161364,20,33.1224479675293,-730.8190043377967,0.10315408273307414,4,-358896.6230877754,3.4028234663852886E38,1.57542003E9,,,,0,,1,,1.57542003E9
Raw,1932490490,491825000000,,,-1311853870175375095,0.0,9.426632586619448,,,0,31,0.0,16,491015789775,1000000000,7.0,-851.2152820046244,2.99792458E8,2,-12.766616914809662,3.4028234663852886E38,1.57542003E9,,,,0,,1,,1.57542003E9
Raw,1932490491,491825000000,,,-1311853870175375095,0.0,9.426632586619448,,,0,32,0.0,16431,43161926446961,29,30.035858154296875,-432.1362377966261,0.14803047653521284,4,-215311.84238282763,3.4028234663852886E38,1.57542003E9,,,,0,,1,,1.57542003E9
Raw,1932490491,491825000000,,,-1311853870175375095,0.0,9.426632586619448,,,0,10,0.0,32995,53943928284326,33,37.22529983520508,-872.3033929886351,0.06567955225091535,4,-431937.4504873271,3.4028234663852886E38,1.59806246E9,,,,0,,3,,1.59806246E9
Raw,1932490491,491825000000,,,-1311853870175375095,0.0,9.426632586619448,,,0,6,0.0,32995,53943928417954,166,30.322830200195312,215.4599685853483,0.14361183915181563,4,20262.56431060247,3.4028234663852886E38,1.59975002E9,,,,1,,3,,1.59975002E9
Raw,1932490491,491825000000,,,-1311853870175375095,0.0,9.426632586619448,,,0,9,0.0,32995,53943933899857,33,45.37233352661133,-291.46526105316116,0.03250024962253854,4,-161558.17273974873,3.4028234663852886E38,1.59862502E9,,,,0,,3,,1.59862502E9
Raw,1932490491,491825000000,,,-1311853870175375095,0.0,9.426632586619448,,,0,16,0.0,32995,53943927680102,35,34.46150588989258,413.6774860859807,0.08961895405185727,4,184062.6888518481,3.4028234663852886E38,1.60143744E9,,,,0,,3,,1.60143744E9
Raw,1932490491,491825000000,,,-1311853870175375095,0.0,9.426632586619448,,,0,23,0.0,32995,53943925157112,33,35.99598693847656,-181.46968806620384,0.07487607824308673,4,-106198.8434237901,3.4028234663852886E38,1.60368755E9,,,,0,,3,,1.60368755E9
Raw,1932490492,491825000000,,,-1311853870175375095,0.0,9.426632586619448,,,0,7,0.0,32995,53943933059386,44,32.57564926147461,-222.65499669328096,0.11198322796861299,4,-113506.24626527507,3.4028234663852886E38,1.60481254E9,,,,0,,3,,1.60481254E9
Raw,1932490492,491825000000,,,-1311853870175375095,0.0,9.426632586619448,,,0,8,0.0,32995,53943926298882,166,25.457855224609375,-563.6141535421934,0.24992457345370933,4,-274367.9499669847,3.4028234663852886E38,1.60537498E9,,,,1,,3,,1.60537498E9
Raw,1932490492,491825000000,,,-1311853870175375095,0.0,9.426632586619448,,,0,193,0.0,35,9370928,7,41.686988830566406,-242.43885727230497,0.0400898223214452,4,-117423.99279812672,3.4028234663852886E38,1.57542003E9,,,,0,,4,,1.57542003E9
Raw,1932490492,491825000000,,,-1311853870175375095,0.0,9.426632586619448,,,0,194,0.0,35,12950103,10,38.844757080078125,-118.21003293132964,0.05560038133274656,4,-59370.360318390914,3.4028234663852886E38,1.57542003E9,,,,0,,4,,1.57542003E9
Raw,1932490492,491825000000,,,-1311853870175375095,0.0,9.426632586619448,,,0,3,0.0,16,491002250677,1000000000,28.791234970092773,-116.53506764674438,2.99792458E8,2,-0.22914252375683258,3.4028234663852886E38,1.56109798E9,,,,0,,5,,1.56109798E9
Raw,1932490493,491825000000,,,-1311853870175375095,0.0,9.426632586619448,,,0,6,0.0,16431,43147879287046,19,27.528532028198242,-73.79316210658573,0.199489876844543,4,-18683.565837139577,3.4028234663852886E38,1.56109798E9,,,,0,,5,,1.56109798E9
Raw,1932490493,491825000000,,,-1311853870175375095,0.0,9.426632586619448,,,0,13,0.0,16,491011228312,1000000000,27.62445831298828,84.30994311275867,2.99792458E8,2,0.9253095160017178,3.4028234663852886E38,1.56109798E9,,,,0,,5,,1.56109798E9
Raw,1932490493,491825000000,,,-1311853870175375095,0.0,9.426632586619448,,,0,14,0.0,16431,43147925820127,6,41.06509017944336,76.9078299989934,0.042301649768183264,4,25745.852432372165,3.4028234663852886E38,1.56109798E9,,,,0,,5,,1.56109798E9
Raw,1932490494,491825000000,,,-1311853870175375095,0.0,9.426632586619448,,,0,16,0.0,16431,43147878647358,19,27.67704200744629,-74.54338513956583,0.19605179240098003,4,-18175.966406491236,3.4028234663852886E38,1.56109798E9,,,,0,,5,,1.56109798E9
Raw,1932490494,491825000000,,,-1311853870175375095,0.0,9.426632586619448,,,0,24,0.0,16431,43147925044392,6,40.414791107177734,-92.69444895333743,0.04536935376625226,4,-42626.916518678896,3.4028234663852886E38,1.56109798E9,,,,0,,5,,1.56109798E9
Raw,1932490494,491825000000,,,-1311853870175375095,0.0,9.426632586619448,,,0,26,0.0,16431,43147917784643,166,28.66819190979004,371.90783374182,0.17511601109251373,4,131202.62302511366,3.4028234663852886E38,1.56109798E9,,,,1,,5,,1.56109798E9
Raw,1932490494,491825000000,,,-1311853870175375095,0.0,9.426632586619448,,,0,27,0.0,16431,43147914456085,6,36.87617111206055,32.36132016040439,0.0694223526610539,4,6169.982825136766,3.4028234663852886E38,1.56109798E9,,,,0,,5,,1.56109798E9
Raw,1932490494,491825000000,,,-1311853870175375095,0.0,9.426632586619448,,,0,33,0.0,16431,43147926458337,6,37.48636245727539,-168.79677417487073,0.06345055044132009,4,-67905.00605024796,3.4028234663852886E38,1.56109798E9,,,,0,,5,,1.56109798E9
Fix,gps,34.486757,109.464213,362.827667,0.440253,3.000000,1627819145000
Raw,1932491498,492825000000,,,-1311853870175375482,0.0,9.710127202516329,,,0,10,0.0,16431,43162931077751,20,33.08841323852539,-433.38045195444784,0.105341925150289,4,-220700.86147489198,3.4028234663852886E38,1.57542003E9,,,,0,,1,,1.57542003E9
Raw,1932491498,492825000000,,,-1311853870175375482,0.0,9.710127202516329,,,0,12,0.0,16431,43162922665440,11,38.0563850402832,-561.9438405129235,0.0588117458805876,4,-282920.756216743,3.4028234663852886E38,1.57542003E9,,,,0,,1,,1.57542003E9
Raw,1932491499,492825000000,,,-1311853870175375482,0.0,9.710127202516329,,,0,15,0.0,16431,43162918890800,6,43.735923767089844,415.64653184667304,0.03373216483968462,4,203338.64211170722,3.4028234663852886E38,1.57542003E9,,,,0,,1,,1.57542003E9
Raw,1932491499,492825000000,,,-1311853870175375482,0.0,9.710127202516329,,,0,18,0.0,16431,43162924217642,43,26.79686737060547,537.2820817151267,0.2140066568260094,4,254680.09619943937,3.4028234663852886E38,1.57542003E9,,,,0,,1,,1.57542003E9
Raw,1932491499,492825000000,,,-1311853870175375482,0.0,9.710127202516329,,,0,23,0.0,16431,43162932556673,6,44.3994140625,5.249760718587222,0.03225863737414042,4,-8706.023744735909,3.4028234663852886E38,1.57542003E9,,,,0,,1,,1.57542003E9
Raw,1932491500,492825000000,,,-1311853870175375482,0.0,9.710127202516329,,,0,24,0.0,16431,43162928652352,10,38.98725891113281,388.72663989195735,0.0539604543445146,4,181386.8358224703,3.4028234663852886E38,1.57542003E9,,,,0,,1,,1.57542003E9
Raw,1932491500,492825000000,,,-1311853870175375482,0.0,9.710127202516329,,,0,25,0.0,16431,43162921163810,28,30.503604888916016,-730.8160050816227,0.13938012274091072,4,-359627.59859651106,3.4028234663852886E38,1.57542003E9,,,,0,,1,,1.57542003E9
Raw,1932491500,492825000000,,,-1311853870175375482,0.0,9.710127202516329,,,0,31,0.0,16,492015792614,1000000000,7.0,-851.2152820046244,2.99792458E8,2,-12.75996029485733,3.4028234663852886E38,1.57542003E9,,,,0,,1,,1.57542003E9
Raw,1932491501,492825000000,,,-1311853870175375482,0.0,9.710127202516329,,,0,32,0.0,16431,43162926448409,21,33.0228157043457,-432.1300688719955,0.10529270695440707,4,-215743.95888376885,3.4028234663852886E38,1.57542003E9,,,,0,,1,,1.57542003E9
Raw,1932491501,492825000000,,,-1311853870175375482,0.0,9.710127202516329,,,0,10,0.0,32995,53944928287244,33,35.68315124511719,-872.3543803435932,0.0781510228813308,4,-432809.7643236959,3.4028234663852886E38,1.59806246E9,,,,0,,3,,1.59806246E9
Raw,1932491501,492825000000,,,-1311853870175375482,0.0,9.710127202516329,,,0,6,0.0,32995,53944928417204,57,30.37956428527832,215.5292923019157,0.14268657035288412,4,20478.06652944564,3.4028234663852886E38,1.59975002E9,,,,0,,3,,1.59975002E9
Raw,1932491502,492825000000,,,-1311853870175375482,0.0,9.710127202516329,,,0,9,0.0,32995,53944933900811,33,46.870933532714844,-291.2918835968296,0.0325004202012394,4,-161849.40868528793,3.4028234663852886E38,1.59862502E9,,,,0,,3,,1.59862502E9
Raw,1932491502,492825000000,,,-1311853870175375482,0.0,9.710127202516329,,,0,16,0.0,32995,53944927678784,52,31.181344985961914,414.12263705062514,0.1301056922079203,4,184476.79748103308,3.4028234663852886E38,1.60143744E9,,,,0,,3,,1.60143744E9
Raw,1932491502,492825000000,,,-1311853870175375482,0.0,9.710127202516329,,,0,23,0.0,32995,53944925157765,41,33.22163009643555,-181.36231128692873,0.10270411276203312,4,-106380.10579432083,3.4028234663852886E38,1.60368755E9,,,,0,,3,,1.60368755E9
Raw,1932491503,492825000000,,,-1311853870175375482,0.0,9.710127202516329,,,0,7,0.0,32995,53944933059999,42,33.00033187866211,-222.68728982083633,0.10675187044520212,4,-113728.97293231843,3.4028234663852886E38,1.60481254E9,,,,0,,3,,1.60481254E9
Raw,1932491503,492825000000,,,-1311853870175375482,0.0,9.710127202516329,,,0,8,0.0,32995,53944926300797,111,24.538198471069336,-563.8773723539191,0.27771189374908,4,-274931.7713916608,3.4028234663852886E38,1.60537498E9,,,,0,,3,,1.60537498E9
Raw,1932491503,492825000000,,,-1311853870175375482,0.0,9.710127202516329,,,0,193,0.0,35,9371723,8,41.163734436035156,-242.42974021518512,0.042474604089485724,4,-117666.43015497229,3.4028234663852886E38,1.57542003E9,,,,0,,4,,1.57542003E9
Raw,1932491504,492825000000,,,-1311853870175375482,0.0,9.710127202516329,,,0,194,0.0,35,12950483,10,38.90693664550781,-118.18303110514944,0.05522045680091672,4,-59488.52186015762,3.4028234663852886E38,1.57542003E9,,,,0,,4,,1.57542003E9
Raw,1932491504,492825000000,,,-1311853870175375482,0.0,9.710127202516329,,,0,3,0.0,16,492002251066,1000000000,29.661222457885742,-116.53506764674438,2.99792458E8,2,-0.23005384390772587,3.4028234663852886E38,1.56109798E9,,,,0,,5,,1.56109798E9
Raw,1932491504,492825000000,,,-1311853870175375482,0.0,9.710127202516329,,,0,6,0.0,16431,43148879287309,17,28.43434715270996,-73.97600596521647,0.18007758799937612,4,-18757.564768558568,3.4028234663852886E38,1.56109798E9,,,,0,,5,,1.56109798E9
Raw,1932491505,492825000000,,,-1311853870175375482,0.0,9.710127202516329,,,0,13,0.0,16,492011228031,1000000000,25.101625442504883,84.30994311275867,2.99792458E8,2,0.9246502007349171,3.4028234663852886E38,1.56109798E9,,,,0,,5,,1.56109798E9
Raw,1932491505,492825000000,,,-1311853870175375482,0.0,9.710127202516329,,,0,14,0.0,16431,43148925819871,6,40.22980499267578,76.81812497342537,0.046465912704038825,4,25822.688082736684,3.4028234663852886E38,1.56109798E9,,,,0,,5,,1.56109798E9
Raw,1932491505,492825000000,,,-1311853870175375482,0.0,9.710127202516329,,,0,16,0.0,16431,43148878647638,16,29.075843811035156,-74.51894801823897,0.16738911213827545,4,-18250.542451370147,3.4028234663852886E38,1.56109798E9,,,,0,,5,,1.56109798E9
Raw,1932491506,492825000000,,,-1311853870175375482,0.0,9.710127202516329,,,0,24,0.0,16431,43148925044683,6,41.65287399291992,-92.54289278979462,0.03946277085663216,4,-42719.43972689206,3.4028234663852886E38,1.56109798E9,,,,0,,5,,1.56109798E9
Raw,1932491506,492825000000,,,-1311853870175375482,0.0,9.710127202516329,,,0,26,0.0,16431,43148917783396,23,26.132915496826172,371.80555228979506,0.23338677702446797,4,131574.383666047,3.4028234663852886E38,1.56109798E9,,,,0,,5,,1.56109798E9
Raw,1932491506,492825000000,,,-1311853870175375482,0.0,9.710127202516329,,,0,27,0.0,16431,43148914455963,7,35.80143356323242,32.60827738006161,0.0782237476542823,4,6202.569980309041,3.4028234663852886E38,1.56109798E9,,,,0,,5,,1.56109798E9
Raw,1932491507,492825000000,,,-1311853870175375482,0.0,9.710127202516329,,,0,33,0.0,16431,43148926458911,9,34.11198043823242,-168.76838348858723,0.09302242350051426,4,-68073.71382486011,3.4028234663852886E38,1.56109798E9,,,,0,,5,,1.56109798E9
Fix,gps,34.486757,109.464213,362.754272,0.000000,3.000000,1627819146000
Raw,1932492523,493825000000,,,-1311853870175375867,0.0,9.291712746964379,,,0,10,0.0,16431,43163931079148,29,30.188758850097656,-433.33876911012044,0.14630087507580258,4,-221134.16282718081,3.4028234663852886E38,1.57542003E9,,,,0,,1,,1.57542003E9
Raw,1932492524,493825000000,,,-1311853870175375867,0.0,9.291712746964379,,,0,12,0.0,16431,43163922667323,14,36.41272735595703,-561.62482871987,0.07096402631759119,4,-283482.3697404604,3.4028234663852886E38,1.57542003E9,,,,0,,1,,1.57542003E9
Raw,1932492524,493825000000,,,-1311853870175375867,0.0,9.291712746964379,,,0,15,0.0,16431,43163918889426,7,41.750022888183594,415.5845017758015,0.04152428518426468,4,203754.2851540553,3.4028234663852886E38,1.57542003E9,,,,0,,1,,1.57542003E9
Raw,1932492524,493825000000,,,-1311853870175375867,0.0,9.291712746964379,,,0,18,0.0,16431,43163924215835,65,23.12428092956543,537.3143918839103,0.32623085009209407,4,255217.42512391327,3.4028234663852886E38,1.57542003E9,,,,0,,1,,1.57542003E9
Raw,1932492525,493825000000,,,-1311853870175375867,0.0,9.291712746964379,,,0,23,0.0,16431,43163932556683,6,43.85207748413086,5.247744528268544,0.03225863945436848,4,-8700.698938007581,3.4028234663852886E38,1.57542003E9,,,,0,,1,,1.57542003E9
Raw,1932492525,493825000000,,,-1311853870175375867,0.0,9.291712746964379,,,0,24,0.0,16431,43163928651026,12,37.288360595703125,388.77697968024154,0.06528119273802441,4,181775.74777331873,3.4028234663852886E38,1.57542003E9,,,,0,,1,,1.57542003E9
Raw,1932492526,493825000000,,,-1311853870175375867,0.0,9.291712746964379,,,0,25,0.0,16431,43163921166253,20,33.08224105834961,-730.9629686341491,0.10363257679126364,4,-360358.6224068104,3.4028234663852886E38,1.57542003E9,,,,0,,1,,1.57542003E9
Raw,1932492527,493825000000,,,-1311853870175375867,0.0,9.291712746964379,,,0,31,0.0,16,493015795453,1000000000,7.0,-851.2152820046244,2.99792458E8,2,-12.753303674982485,3.4028234663852886E38,1.57542003E9,,,,0,,1,,1.57542003E9
Raw,1932492527,493825000000,,,-1311853870175375867,0.0,9.291712746964379,,,0,32,0.0,16431,43163926449917,17,34.78658676147461,-432.2049139465196,0.08615628131263392,4,-216176.04381586728,3.4028234663852886E38,1.57542003E9,,,,0,,1,,1.57542003E9
Raw,1932492528,493825000000,,,-1311853870175375867,0.0,9.291712746964379,,,0,10,0.0,32995,53945928290200,33,35.459285736083984,-872.0922862529328,0.0801530510073809,4,-433681.96974974894,3.4028234663852886E38,1.59806246E9,,,,0,,3,,1.59806246E9
Raw,1932492528,493825000000,,,-1311853870175375867,0.0,9.291712746964379,,,0,6,0.0,32995,53945928416541,59,30.01787757873535,215.63660091627776,0.148689093380597,4,20693.639250111006,3.4028234663852886E38,1.59975002E9,,,,0,,3,,1.59975002E9
Raw,1932492528,493825000000,,,-1311853870175375867,0.0,9.291712746964379,,,0,9,0.0,32995,53945933901812,33,46.60356903076172,-291.14549944606415,0.03250060118108056,4,-162140.4699984569,3.4028234663852886E38,1.59862502E9,,,,0,,3,,1.59862502E9
Raw,1932492529,493825000000,,,-1311853870175375867,0.0,9.291712746964379,,,0,16,0.0,32995,53945927677305,53,30.930768966674805,414.1797933302139,0.13387306011143862,4,184890.98280155662,3.4028234663852886E38,1.60143744E9,,,,0,,3,,1.60143744E9
Raw,1932492529,493825000000,,,-1311853870175375867,0.0,9.291712746964379,,,0,23,0.0,32995,53945925158333,38,33.77593231201172,-180.97656604400356,0.096412121839419,4,-106561.06805871698,3.4028234663852886E38,1.60368755E9,,,,0,,3,,1.60368755E9
Raw,1932492529,493825000000,,,-1311853870175375867,0.0,9.291712746964379,,,0,7,0.0,32995,53945933060744,62,29.629573822021484,-222.6625800398573,0.15625323529147928,4,-113951.61141514422,3.4028234663852886E38,1.60481254E9,,,,0,,3,,1.60481254E9
Raw,1932492530,493825000000,,,-1311853870175375867,0.0,9.291712746964379,,,0,8,0.0,32995,53945926302651,112,24.513381958007812,-563.9062061121374,0.278503561981134,4,-275495.6868152131,3.4028234663852886E38,1.60537498E9,,,,0,,3,,1.60537498E9
Raw,1932492530,493825000000,,,-1311853870175375867,0.0,9.291712746964379,,,0,193,0.0,35,9372571,6,42.93846130371094,-242.55018761653673,0.03493693932134162,4,-117908.94264640698,3.4028234663852886E38,1.57542003E9,,,,0,,4,,1.57542003E9
Raw,1932492530,493825000000,,,-1311853870175375867,0.0,9.291712746964379,,,0,194,0.0,35,12950882,11,38.0240478515625,-118.02125020464979,0.06087941352281939,4,-59606.55560313723,3.4028234663852886E38,1.57542003E9,,,,0,,4,,1.57542003E9
Raw,1932492531,493825000000,,,-1311853870175375867,0.0,9.291712746964379,,,0,6,0.0,16431,43149879287556,19,27.7551326751709,-73.9778464178687,0.19444224506332541,4,-18831.577099080943,3.4028234663852886E38,1.56109798E9,,,,0,,5,,1.56109798E9
Raw,1932492531,493825000000,,,-1311853870175375867,0.0,9.291712746964379,,,0,14,0.0,16431,43149925819627,6,41.74755096435547,76.92443667593415,0.039184186714936925,4,25899.66412142059,3.4028234663852886E38,1.56109798E9,,,,0,,5,,1.56109798E9
Raw,1932492531,493825000000,,,-1311853870175375867,0.0,9.291712746964379,,,0,16,0.0,16431,43149878647884,16,28.963367462158203,-74.68061815075492,0.16952713725392732,4,-18325.12769500289,3.4028234663852886E38,1.56109798E9,,,,0,,5,,1.56109798E9
Raw,1932492532,493825000000,,,-1311853870175375867,0.0,9.291712746964379,,,0,24,0.0,16431,43149925045001,6,43.492889404296875,-92.35139198720708,0.03210240184575018,4,-42811.80143524943,3.4028234663852886E38,1.56109798E9,,,,0,,5,,1.56109798E9
Raw,1932492532,493825000000,,,-1311853870175375867,0.0,9.291712746964379,,,0,26,0.0,16431,43149917782163,17,28.828798294067383,371.86035687988374,0.17196594670512277,4,131946.25528869889,3.4028234663852886E38,1.56109798E9,,,,0,,5,,1.56109798E9
Raw,1932492532,493825000000,,,-1311853870175375867,0.0,9.291712746964379,,,0,27,0.0,16431,43149914455863,7,35.76837921142578,32.67242908385167,0.0785121005469438,4,6235.173237345812,3.4028234663852886E38,1.56109798E9,,,,0,,5,,1.56109798E9
Raw,1932492533,493825000000,,,-1311853870175375867,0.0,9.291712746964379,,,0,33,0.0,16431,43149926459478,10,33.37655258178711,-168.7379308136841,0.10113904070028534,4,-68242.3835311892,3.4028234663852886E38,1.56109798E9,,,,0,,5,,1.56109798E9
Fix,gps,34.486757,109.464213,362.946686,0.000000,3.000000,1627819147000
Raw,1932493469,494825000000,,,-1311853870175376252,0.0,9.082503530991461,,,0,10,0.0,16431,43164931080607,39,27.617813110351562,-433.2957911324452,0.196009205972151,4,-221567.60064945364,3.4028234663852886E38,1.57542003E9,,,,0,,1,,1.57542003E9
Raw,1932493469,494825000000,,,-1311853870175376252,0.0,9.082503530991461,,,0,12,0.0,16431,43164922669225,12,37.830074310302734,-561.4572793636039,0.060352242128043354,4,-284043.79660995817,3.4028234663852886E38,1.57542003E9,,,,0,,1,,1.57542003E9
Raw,1932493469,494825000000,,,-1311853870175376252,0.0,9.082503530991461,,,0,15,0.0,16431,43164918888037,6,42.915283203125,415.70767577367496,0.03673740582981841,4,204169.9944743694,3.4028234663852886E38,1.57542003E9,,,,0,,1,,1.57542003E9
Raw,1932493469,494825000000,,,-1311853870175376252,0.0,9.082503530991461,,,0,18,0.0,16431,43164924214058,50,25.481821060180664,537.5305428231779,0.24886403990545292,4,255754.84999816236,3.4028234663852886E38,1.57542003E9,,,,0,,1,,1.57542003E9
Raw,1932493470,494825000000,,,-1311853870175376252,0.0,9.082503530991461,,,0,23,0.0,16431,43164932556667,6,43.728233337402344,5.460700237237194,0.032619687996788646,4,-8695.20145544198,3.4028234663852886E38,1.57542003E9,,,,0,,1,,1.57542003E9
Raw,1932493470,494825000000,,,-1311853870175376252,0.0,9.082503530991461,,,0,24,0.0,16431,43164928649748,12,37.4783935546875,389.0419707797064,0.06390190584424857,4,182164.90235022327,3.4028234663852886E38,1.57542003E9,,,,0,,1,,1.57542003E9
Raw,1932493470,494825000000,,,-1311853870175376252,0.0,9.082503530991461,,,0,25,0.0,16431,43164921168687,33,29.04129409790039,-730.780491161926,0.16489886280763077,4,-361089.47329334106,3.4028234663852886E38,1.57542003E9,,,,0,,1,,1.57542003E9
Raw,1932493471,494825000000,,,-1311853870175376252,0.0,9.082503530991461,,,0,31,0.0,16,494015798293,1000000000,7.0,-851.2152820046244,2.99792458E8,2,-12.746647055078538,3.4028234663852886E38,1.57542003E9,,,,0,,1,,1.57542003E9
Raw,1932493471,494825000000,,,-1311853870175376252,0.0,9.082503530991461,,,0,32,0.0,16431,43164926451313,13,36.7933349609375,-431.9900922230563,0.06862280036465532,4,-216608.01924766845,3.4028234663852886E38,1.57542003E9,,,,0,,1,,1.57542003E9
Raw,1932493471,494825000000,,,-1311853870175376252,0.0,9.082503530991461,,,0,10,0.0,32995,53946928293073,33,37.60775375366211,-872.2489292231116,0.06291609408788054,4,-434554.19135210756,3.4028234663852886E38,1.59806246E9,,,,0,,3,,1.59806246E9
Raw,1932493471,494825000000,,,-1311853870175376252,0.0,9.082503530991461,,,0,6,0.0,32995,53946928415811,60,29.89066505432129,215.6483764050064,0.15086031893607454,4,20909.251431885285,3.4028234663852886E38,1.59975002E9,,,,0,,3,,1.59975002E9
Raw,1932493471,494825000000,,,-1311853870175376252,0.0,9.082503530991461,,,0,9,0.0,32995,53946933902754,33,46.449337005615234,-290.93647174020975,0.03250076967955336,4,-162431.3057917942,3.4028234663852886E38,1.59862502E9,,,,0,,3,,1.59862502E9
Raw,1932493472,494825000000,,,-1311853870175376252,0.0,9.082503530991461,,,0,16,0.0,32995,53946927675933,43,32.7489013671875,414.3676217481111,0.10884976380113487,4,185305.3261660899,3.4028234663852886E38,1.60143744E9,,,,0,,3,,1.60143744E9
Raw,1932493472,494825000000,,,-1311853870175376252,0.0,9.082503530991461,,,0,23,0.0,32995,53946925158987,37,34.091033935546875,-180.88362318506586,0.09301040810324401,4,-106742.00820245605,3.4028234663852886E38,1.60368755E9,,,,0,,3,,1.60368755E9
Raw,1932493472,494825000000,,,-1311853870175376252,0.0,9.082503530991461,,,0,7,0.0,32995,53946933061600,66,29.05773162841797,-222.65920587666153,0.16672675088238464,4,-114174.24050614024,3.4028234663852886E38,1.60481254E9,,,,0,,3,,1.60481254E9
Raw,1932493472,494825000000,,,-1311853870175376252,0.0,9.082503530991461,,,0,8,0.0,32995,53946926304600,101,25.42205810546875,-563.7229447434142,0.2509530382062043,4,-276059.26938810677,3.4028234663852886E38,1.60537498E9,,,,0,,3,,1.60537498E9
Raw,1932493472,494825000000,,,-1311853870175376252,0.0,9.082503530991461,,,0,193,0.0,35,9373361,8,41.089359283447266,-242.53689545849284,0.04282567585813371,4,-118151.44929463913,3.4028234663852886E38,1.57542003E9,,,,0,,4,,1.57542003E9
Raw,1932493473,494825000000,,,-1311853870175376252,0.0,9.082503530991461,,,0,194,0.0,35,12951295,9,39.777496337890625,-117.92995182423931,0.05017649454199566,4,-59724.459651255005,3.4028234663852886E38,1.57542003E9,,,,0,,4,,1.57542003E9
Raw,1932493473,494825000000,,,-1311853870175376252,0.0,9.082503530991461,,,0,3,0.0,16,251683,1000000000,33.075836181640625,-116.53506764674438,2.99792458E8,6,24.474571141921583,3.4028234663852886E38,1.56109798E9,,,,0,,5,,1.56109798E9
Raw,1932493473,494825000000,,,-1311853870175376252,0.0,9.082503530991461,,,0,6,0.0,16431,43150879287799,24,25.737009048461914,-74.13347543496599,0.24439221525103672,4,-18905.626158200605,3.4028234663852886E38,1.56109798E9,,,,0,,5,,1.56109798E9
Raw,1932493473,494825000000,,,-1311853870175376252,0.0,9.082503530991461,,,0,14,0.0,16431,43150925819372,6,38.22173309326172,76.96476474261476,0.05827912428829632,4,25976.684150397574,3.4028234663852886E38,1.56109798E9,,,,0,,5,,1.56109798E9
Raw,1932493474,494825000000,,,-1311853870175376252,0.0,9.082503530991461,,,0,16,0.0,16431,43150878648126,23,25.94041633605957,-74.85920170232032,0.23870077784821686,4,-18399.884205375372,3.4028234663852886E38,1.56109798E9,,,,0,,5,,1.56109798E9
Raw,1932493474,494825000000,,,-1311853870175376252,0.0,9.082503530991461,,,0,24,0.0,16431,43150925045312,6,41.67669677734375,-92.099880499297,0.039357278331291295,4,-42903.92221022582,3.4028234663852886E38,1.56109798E9,,,,0,,5,,1.56109798E9
Raw,1932493474,494825000000,,,-1311853870175376252,0.0,9.082503530991461,,,0,26,0.0,16431,43150917780931,10,32.780487060546875,372.0074908446927,0.11027728286269256,4,132318.48298885717,3.4028234663852886E38,1.56109798E9,,,,0,,5,,1.56109798E9
Raw,1932493474,494825000000,,,-1311853870175376252,0.0,9.082503530991461,,,0,27,0.0,16431,43150914455759,6,40.13277053833008,32.42864153265107,0.048529544703835664,4,6267.681078688844,3.4028234663852886E38,1.56109798E9,,,,0,,5,,1.56109798E9
Raw,1932493474,494825000000,,,-1311853870175376252,0.0,9.082503530991461,,,0,33,0.0,16431,43150926460048,10,33.15394592285156,-168.48439141961092,0.10373453292890378,4,-68410.92134074213,3.4028234663852886E38,1.56109798E9,,,,0,,5,,1.56109798E9
Fix,gps,34.486757,109.464213,362.806824,0.000000,3.000000,1627819148000
Raw,1932494462,495825000000,,,-1311853870175376643,0.0,9.562259429106527,,,0,10,0.0,16431,43165931082073,34,28.767610549926758,-433.03577607163265,0.17195383145690568,4,-222000.81330571778,3.4028234663852886E38,1.57542003E9,,,,0,,1,,1.57542003E9
Raw,1932494462,495825000000,,,-1311853870175376643,0.0,9.562259429106527,,,0,12,0.0,16431,43165922671099,30,29.69107437133789,-561.5386001048673,0.15329849599794,4,-284605.2331108019,3.4028234663852886E38,1.57542003E9,,,,0,,1,,1.57542003E9
Raw,1932494463,495825000000,,,-1311853870175376643,0.0,9.562259429106527,,,0,15,0.0,16431,43165918886651,6,44.43272399902344,415.60696211465006,0.03339725020237286,4,204585.59475765252,3.4028234663852886E38,1.57542003E9,,,,0,,1,,1.57542003E9
Raw,1932494463,495825000000,,,-1311853870175376643,0.0,9.562259429106527,,,0,18,0.0,16431,43165924212310,8,40.67142868041992,537.2046122914503,0.043925197040676656,4,256291.94557647558,3.4028234663852886E38,1.57542003E9,,,,0,,1,,1.57542003E9
Raw,1932494463,495825000000,,,-1311853870175376643,0.0,9.562259429106527,,,0,23,0.0,16431,43165932556630,10,39.34925842285156,5.561249874440083,0.052523611700795336,4,-8689.60495286033,3.4028234663852886E38,1.57542003E9,,,,0,,1,,1.57542003E9
Raw,1932494463,495825000000,,,-1311853870175376643,0.0,9.562259429106527,,,0,24,0.0,16431,43165928648444,28,30.529491424560547,389.0052639740313,0.14031229789699895,4,182554.01361690232,3.4028234663852886E38,1.57542003E9,,,,0,,1,,1.57542003E9
Raw,1932494463,495825000000,,,-1311853870175376643,0.0,9.562259429106527,,,0,25,0.0,16431,43165921171149,12,37.73987579345703,-731.285593167594,0.060707761424282025,4,-361820.8327842065,3.4028234663852886E38,1.57542003E9,,,,0,,1,,1.57542003E9
Raw,1932494463,495825000000,,,-1311853870175376643,0.0,9.562259429106527,,,0,31,0.0,16,495015801193,1000000000,7.0,-851.2152820046244,2.99792458E8,2,-12.76661691480486,3.4028234663852886E38,1.57542003E9,,,,0,,1,,1.57542003E9
Raw,1932494464,495825000000,,,-1311853870175376643,0.0,9.562259429106527,,,0,32,0.0,16431,43165926452771,11,38.20753860473633,-431.7568659730707,0.05848666864176805,4,-217039.76830839616,3.4028234663852886E38,1.57542003E9,,,,0,,1,,1.57542003E9
Raw,1932494464,495825000000,,,-1311853870175376643,0.0,9.562259429106527,,,0,10,0.0,32995,53947928295946,33,39.6525993347168,-872.4844389976843,0.050032089270578395,4,-435426.7232391564,3.4028234663852886E38,1.59806246E9,,,,0,,3,,1.59806246E9
Raw,1932494464,495825000000,,,-1311853870175376643,0.0,9.562259429106527,,,0,6,0.0,32995,53947928415005,34,34.82719421386719,215.50483813936057,0.08611334540549093,4,21124.69787386195,3.4028234663852886E38,1.59975002E9,,,,0,,3,,1.59975002E9
Raw,1932494464,495825000000,,,-1311853870175376643,0.0,9.562259429106527,,,0,9,0.0,32995,53947933903721,33,41.1510009765625,-290.89386866955624,0.0433496437016985,4,-162722.1888465605,3.4028234663852886E38,1.59862502E9,,,,0,,3,,1.59862502E9
Raw,1932494464,495825000000,,,-1311853870175376643,0.0,9.562259429106527,,,0,16,0.0,32995,53947927674527,62,29.553531646728516,414.5409310395296,0.1566376780786538,4,185719.8630138128,3.4028234663852886E38,1.60143744E9,,,,0,,3,,1.60143744E9
Raw,1932494464,495825000000,,,-1311853870175376643,0.0,9.562259429106527,,,0,23,0.0,32995,53947925159596,33,37.27935028076172,-180.47033931727026,0.06471929817648331,4,-106922.35883989155,3.4028234663852886E38,1.60368755E9,,,,0,,3,,1.60368755E9
Raw,1932494465,495825000000,,,-1311853870175376643,0.0,9.562259429106527,,,0,7,0.0,32995,53947933062376,61,29.69613265991211,-222.31338823155284,0.1550786886037513,4,-114396.42763115068,3.4028234663852886E38,1.60481254E9,,,,0,,3,,1.60481254E9
Raw,1932494465,495825000000,,,-1311853870175376643,0.0,9.562259429106527,,,0,8,0.0,32995,53947926306556,44,32.57243728637695,-563.5121788322772,0.11080909732649685,4,-276622.74290542345,3.4028234663852886E38,1.60537498E9,,,,0,,3,,1.60537498E9
Raw,1932494465,495825000000,,,-1311853870175376643,0.0,9.562259429106527,,,0,193,0.0,35,9374169,12,37.347999572753906,-242.456460861099,0.06497520783233268,4,-118393.98565299906,3.4028234663852886E38,1.57542003E9,,,,0,,4,,1.57542003E9
Raw,1932494466,495825000000,,,-1311853870175376643,0.0,9.562259429106527,,,0,194,0.0,35,12951677,11,38.319366455078125,-118.12110328164749,0.05892233496467364,4,-59842.67979320628,3.4028234663852886E38,1.57542003E9,,,,0,,4,,1.57542003E9
Raw,1932494466,495825000000,,,-1311853870175376643,0.0,9.562259429106527,,,0,3,0.0,16,495002252085,1000000000,7.0,-116.53506764674438,2.99792458E8,2,-0.2291425237515874,3.4028234663852886E38,1.56109798E9,,,,0,,5,,1.56109798E9
Raw,1932494466,495825000000,,,-1311853870175376643,0.0,9.562259429106527,,,0,6,0.0,16431,43151879288020,21,26.674776077270508,-74.01552457355467,0.21973608751410345,4,-18979.558858600798,3.4028234663852886E38,1.56109798E9,,,,0,,5,,1.56109798E9
Raw,1932494466,495825000000,,,-1311853870175376643,0.0,9.562259429106527,,,0,14,0.0,16431,43151925819120,8,35.16978454589844,76.80121155437593,0.08237455983550673,4,26053.6363851701,3.4028234663852886E38,1.56109798E9,,,,0,,5,,1.56109798E9
Raw,1932494466,495825000000,,,-1311853870175376643,0.0,9.562259429106527,,,0,16,0.0,16431,43151878648387,18,28.19662857055664,-74.6260776997043,0.1848628947014096,4,-18474.492800828928,3.4028234663852886E38,1.56109798E9,,,,0,,5,,1.56109798E9
Raw,1932494466,495825000000,,,-1311853870175376643,0.0,9.562259429106527,,,0,24,0.0,16431,43151925045599,6,41.32658386230469,-92.20371270309374,0.04093884244109283,4,-42996.16331351054,3.4028234663852886E38,1.56109798E9,,,,0,,5,,1.56109798E9
Raw,1932494467,495825000000,,,-1311853870175376643,0.0,9.562259429106527,,,0,26,0.0,16431,43151917779698,10,33.405033111572266,371.92208020864655,0.10284802293917228,4,132691.0240763603,3.4028234663852886E38,1.56109798E9,,,,0,,5,,1.56109798E9
Raw,1932494467,495825000000,,,-1311853870175376643,0.0,9.562259429106527,,,0,27,0.0,16431,43151914455635,166,32.37035369873047,32.70696526307694,0.11485649721043967,4,6300.319639458449,3.4028234663852886E38,1.56109798E9,,,,1,,5,,1.56109798E9
Raw,1932494467,495825000000,,,-1311853870175376643,0.0,9.562259429106527,,,0,33,0.0,16431,43151926460575,9,33.49656295776367,-168.5359752175582,0.09976738824348697,4,-68579.3599757064,3.4028234663852886E38,1.56109798E9,,,,0,,5,,1.56109798E9
Fix,gps,34.486753,109.464215,362.447235,0.400145,3.000000,1627819149000
Raw,1932495461,496825000000,,,-1311853870175377024,0.0,8.9400595588351,,,0,10,0.0,16431,43166931083521,29,29.952878952026367,-433.14276090265776,0.15027427708722163,4,-222433.8286747842,3.4028234663852886E38,1.57542003E9,,,,0,,1,,1.57542003E9
Raw,1932495461,496825000000,,,-1311853870175377024,0.0,8.9400595588351,,,0,12,0.0,16431,43166922672936,37,28.10108184814453,-561.6042769985868,0.183996954006728,4,-285167.019418426,3.4028234663852886E38,1.57542003E9,,,,0,,1,,1.57542003E9
Raw,1932495462,496825000000,,,-1311853870175377024,0.0,8.9400595588351,,,0,15,0.0,16431,43166918885260,7,42.29792022705078,415.66418655915186,0.03919281966138283,4,205001.2846171,3.4028234663852886E38,1.57542003E9,,,,0,,1,,1.57542003E9
Raw,1932495462,496825000000,,,-1311853870175377024,0.0,8.9400595588351,,,0,18,0.0,16431,43166924210468,6,42.908973693847656,536.8872023738534,0.03412147536051781,4,256828.68627336874,3.4028234663852886E38,1.57542003E9,,,,0,,1,,1.57542003E9
Raw,1932495462,496825000000,,,-1311853870175377024,0.0,8.9400595588351,,,0,23,0.0,16431,43166932556619,12,37.406333923339844,5.726077959568226,0.0651240315081478,4,-8684.03400841018,3.4028234663852886E38,1.57542003E9,,,,0,,1,,1.57542003E9
Raw,1932495462,496825000000,,,-1311853870175377024,0.0,8.9400595588351,,,0,24,0.0,16431,43166928647136,12,37.37969207763672,389.3088704967365,0.06461393878573823,4,182943.4072376508,3.4028234663852886E38,1.57542003E9,,,,0,,1,,1.57542003E9
Raw,1932495462,496825000000,,,-1311853870175377024,0.0,8.9400595588351,,,0,25,0.0,16431,43166921173580,7,42.248985290527344,-731.5981292939082,0.03620915687690768,4,-362552.56368477,3.4028234663852886E38,1.57542003E9,,,,0,,1,,1.57542003E9
Raw,1932495462,496825000000,,,-1311853870175377024,0.0,8.9400595588351,,,0,31,0.0,16,496015803973,1000000000,7.0,-851.4008950628477,2.99792458E8,2,-12.762742610496934,3.4028234663852886E38,1.57542003E9,,,,0,,1,,1.57542003E9
Raw,1932495462,496825000000,,,-1311853870175377024,0.0,8.9400595588351,,,0,32,0.0,16431,43166926454165,14,36.13203430175781,-431.79664019983284,0.07396015382859739,4,-217471.52596074814,3.4028234663852886E38,1.57542003E9,,,,0,,1,,1.57542003E9
Raw,1932495463,496825000000,,,-1311853870175377024,0.0,8.9400595588351,,,0,10,0.0,32995,53948928298865,33,42.01982116699219,-872.6572370522549,0.03845322785856417,4,-436299.51651382423,3.4028234663852886E38,1.59806246E9,,,,0,,3,,1.59806246E9
Raw,1932495463,496825000000,,,-1311853870175377024,0.0,8.9400595588351,,,0,6,0.0,32995,53948928414354,33,36.12371063232422,215.7485958684117,0.07438255661739718,4,21340.395897179147,3.4028234663852886E38,1.59975002E9,,,,0,,3,,1.59975002E9
Raw,1932495463,496825000000,,,-1311853870175377024,0.0,8.9400595588351,,,0,9,0.0,32995,53948933904674,33,39.76891326904297,-290.7893718578573,0.05039528044789959,4,-163012.94469156116,3.4028234663852886E38,1.59862502E9,,,,0,,3,,1.59862502E9
Raw,1932495463,496825000000,,,-1311853870175377024,0.0,8.9400595588351,,,0,16,0.0,32995,53948927673174,53,31.002216339111328,414.6841114393819,0.1327869397580534,4,186134.63805865994,3.4028234663852886E38,1.60143744E9,,,,0,,3,,1.60143744E9
Raw,1932495463,496825000000,,,-1311853870175377024,0.0,8.9400595588351,,,0,23,0.0,32995,53948925160133,50,31.50192642211914,-180.27690433527505,0.12498827293577086,4,-107102.34388099892,3.4028234663852886E38,1.60368755E9,,,,0,,3,,1.60368755E9
Raw,1932495463,496825000000,,,-1311853870175377024,0.0,8.9400595588351,,,0,7,0.0,32995,53948933063050,40,33.45005798339844,-222.18994157402722,0.10148438352085815,4,-114618.28235427721,3.4028234663852886E38,1.60481254E9,,,,0,,3,,1.60481254E9
Raw,1932495464,496825000000,,,-1311853870175377024,0.0,8.9400595588351,,,0,8,0.0,32995,53948926308434,51,31.343843460083008,-563.3823587553818,0.12747339658447754,4,-277186.05381420115,3.4028234663852886E38,1.60537498E9,,,,0,,3,,1.60537498E9
Raw,1932495464,496825000000,,,-1311853870175377024,0.0,8.9400595588351,,,0,193,0.0,35,9374966,14,36.35990905761719,-242.52650030925338,0.07260048348542031,4,-118636.59863964064,3.4028234663852886E38,1.57542003E9,,,,0,,4,,1.57542003E9
Raw,1932495464,496825000000,,,-1311853870175377024,0.0,8.9400595588351,,,0,194,0.0,35,12952059,11,38.57212829589844,-118.34043240998591,0.057299295267826705,4,-59961.12160333958,3.4028234663852886E38,1.57542003E9,,,,0,,4,,1.57542003E9
Raw,1932495464,496825000000,,,-1311853870175377024,0.0,8.9400595588351,,,0,3,0.0,16,496002252474,1000000000,28.601642608642578,-116.53506764674438,2.99792458E8,2,-0.23005384390389128,3.4028234663852886E38,1.56109798E9,,,,0,,5,,1.56109798E9
Raw,1932495464,496825000000,,,-1311853870175377024,0.0,8.9400595588351,,,0,6,0.0,16431,43152879288260,23,26.21891975402832,-74.10237519338892,0.23138949181839297,4,-19053.51952264025,3.4028234663852886E38,1.56109798E9,,,,0,,5,,1.56109798E9
Raw,1932495464,496825000000,,,-1311853870175377024,0.0,8.9400595588351,,,0,14,0.0,16431,43152925818831,6,40.01953125,76.98158443490877,0.04757867661840698,4,26130.640597553112,3.4028234663852886E38,1.56109798E9,,,,0,,5,,1.56109798E9
Raw,1932495465,496825000000,,,-1311853870175377024,0.0,8.9400595588351,,,0,16,0.0,16431,43152878648623,22,26.579544067382812,-74.55583375681078,0.22200526684843513,4,-18548.9828347238,3.4028234663852886E38,1.56109798E9,,,,0,,5,,1.56109798E9
Raw,1932495465,496825000000,,,-1311853870175377024,0.0,8.9400595588351,,,0,24,0.0,16431,43152925045902,6,41.223751068115234,-92.11013079809624,0.04141564735409822,4,-43088.32615069706,3.4028234663852886E38,1.56109798E9,,,,0,,5,,1.56109798E9
Raw,1932495465,496825000000,,,-1311853870175377024,0.0,8.9400595588351,,,0,26,0.0,16431,43152917778416,10,33.40381622314453,372.04552686617217,0.10286175244436335,4,133063.5291867799,3.4028234663852886E38,1.56109798E9,,,,0,,5,,1.56109798E9
Raw,1932495466,496825000000,,,-1311853870175377024,0.0,8.9400595588351,,,0,27,0.0,16431,43152914455516,14,30.49694061279297,32.833132126663784,0.14187781096709529,4,6333.38892311376,3.4028234663852886E38,1.56109798E9,,,,0,,5,,1.56109798E9
Raw,1932495466,496825000000,,,-1311853870175377024,0.0,8.9400595588351,,,0,33,0.0,16431,43152926461139,9,33.71397399902344,-168.3647449559876,0.09733000998919628,4,-68747.55049817388,3.4028234663852886E38,1.56109798E9,,,,0,,5,,1.56109798E9
Fix,gps,34.486752,109.464216,362.146820,0.633263,3.000000,1627819150000
Raw,1932496517,497825000000,,,-1311853870175377412,0.0,9.342799864987628,,,0,10,0.0,16431,43167931084956,26,30.917957305908203,-433.0188030082843,0.13468156986986035,4,-222866.2925290941,3.4028234663852886E38,1.57542003E9,,,,0,,1,,1.57542003E9
Raw,1932496517,497825000000,,,-1311853870175377412,0.0,9.342799864987628,,,0,12,0.0,16431,43167922674812,8,40.86436462402344,-561.7196461139165,0.042700333796651446,4,-285728.7158996267,3.4028234663852886E38,1.57542003E9,,,,0,,1,,1.57542003E9
Raw,1932496518,497825000000,,,-1311853870175377412,0.0,9.342799864987628,,,0,15,0.0,16431,43167918883902,17,34.72763442993164,415.75743616019827,0.08897171189350112,4,205417.12741550518,3.4028234663852886E38,1.57542003E9,,,,0,,1,,1.57542003E9
Raw,1932496518,497825000000,,,-1311853870175377412,0.0,9.342799864987628,,,0,18,0.0,16431,43167924208719,9,39.66554260253906,536.6787540697599,0.04922460714481794,4,257365.15994541097,3.4028234663852886E38,1.57542003E9,,,,0,,1,,1.57542003E9
Raw,1932496518,497825000000,,,-1311853870175377412,0.0,9.342799864987628,,,0,23,0.0,16431,43167932556593,8,40.664146423339844,5.7669300440178795,0.045462331639588655,4,-8678.41078925006,3.4028234663852886E38,1.57542003E9,,,,0,,1,,1.57542003E9
Raw,1932496519,497825000000,,,-1311853870175377412,0.0,9.342799864987628,,,0,24,0.0,16431,43167928645847,12,37.52558898925781,389.53677988350455,0.0635633362462367,4,183333.01462797102,3.4028234663852886E38,1.57542003E9,,,,0,,1,,1.57542003E9
