# 
# Header Description:
# 
# Version: v2.0.0.1 Platform: 10 Manufacturer: HUAWEI Model: BLA-AL00
# 
# Raw,ElapsedRealtimeMillis,TimeNanos,LeapSecond,TimeUncertaintyNanos,FullBiasNanos,BiasNanos,BiasUncertaintyNanos,DriftNanosPerSecond,DriftUncertaintyNanosPerSecond,HardwareClockDiscontinuityCount,Svid,TimeOffsetNanos,State,ReceivedSvTimeNanos,ReceivedSvTimeUncertaintyNanos,Cn0DbHz,PseudorangeRateMetersPerSecond,PseudorangeRateUncertaintyMetersPerSecond,AccumulatedDeltaRangeState,AccumulatedDeltaRangeMeters,AccumulatedDeltaRangeUncertaintyMeters,CarrierFrequencyHz,CarrierCycles,CarrierPhase,CarrierPhaseUncertainty,MultipathIndicator,SnrInDb,ConstellationType,AgcDb,CarrierFrequencyHz
# 
# Fix,Provider,Latitude,Longitude,Altitude,Speed,Accuracy,(UTC)TimeInMs
# 
# Nav,Svid,Type,Status,MessageId,Sub-messageId,Data(Bytes)
# 
Raw,2065678134,1932291000000,,,-1311985616708861468,0.0,7.390302988838604,,,0,1,0.0,16431,176348924657437,6,44.18830871582031,511.80377542395627,0.030837760480775925,4,620978.076883957,3.4028234663852886E38,1.57542003E9,,,,0,,1,,1.57542003E9
Raw,2065678135,1932291000000,,,-1311985616708861468,0.0,7.390302988838604,,,0,2,0.0,16,1932015186005,1000000000,7.0,-682.0860675488302,2.99792458E8,2,-10.217997549578417,3.4028234663852886E38,1.57542003E9,,,,0,,1,,1.57542003E9
Raw,2065678135,1932291000000,,,-1311985616708861468,0.0,7.390302988838604,,,0,3,0.0,16431,176348926156904,6,45.12482452392578,-133.9777616841459,0.031107476610254564,1,-19356.452340530646,5.308882682584226E-4,1.57542003E9,,,,0,,1,,1.57542003E9
Raw,2065678136,1932291000000,,,-1311985616708861468,0.0,7.390302988838604,,,0,6,0.0,16431,176348925257108,166,29.654956817626953,-618.8340042811465,0.15440043440548779,4,-553476.1045623374,3.4028234663852886E38,1.57542003E9,,,,1,,1,,1.57542003E9
Raw,2065678136,1932291000000,,,-1311985616708861468,0.0,7.390302988838604,,,0,14,0.0,16431,176348932512064,12,37.2159538269043,-31.860910882968824,0.06650913471957731,4,-258883.68219128315,3.4028234663852886E38,1.57542003E9,,,,0,,1,,1.57542003E9
Raw,2065678136,1932291000000,,,-1311985616708861468,0.0,7.390302988838604,,,0,17,0.0,16431,176348929692259,13,37.027462005615234,-178.81947032944663,0.06741162086080388,4,-145090.52776838446,3.4028234663852886E38,1.57542003E9,,,,0,,1,,1.57542003E9
Raw,2065678137,1932291000000,,,-1311985616708861468,0.0,7.390302988838604,,,0,19,0.0,16431,176348928127266,16,35.10000991821289,-427.00007976355164,0.08344566094230416,4,-549551.0868807908,3.4028234663852886E38,1.57542003E9,,,,0,,1,,1.57542003E9
Raw,2065678137,1932291000000,,,-1311985616708861468,0.0,7.390302988838604,,,0,21,0.0,16,1932015142687,1000000000,40.55708312988281,469.1430713364632,2.99792458E8,2,524295.0280027542,3.4028234663852886E38,1.57542003E9,,,,0,,1,,1.57542003E9
Raw,2065678137,1932291000000,,,-1311985616708861468,0.0,7.390302988838604,,,0,22,0.0,16431,176348922499413,6,44.058677673339844,189.22729824273028,0.030449583684235032,4,378.65409565971015,3.4028234663852886E38,1.57542003E9,,,,0,,1,,1.57542003E9
Raw,2065678137,1932291000000,,,-1311985616708861468,0.0,7.390302988838604,,,0,24,0.0,16431,176348916983250,16,35.237003326416016,-354.11795024043477,0.08375573141590426,4,-538912.5480980467,3.4028234663852886E38,1.57542003E9,,,,0,,1,,1.57542003E9
Raw,2065678138,1932291000000,,,-1311985616708861468,0.0,7.390302988838604,,,0,30,0.0,16431,176348920639634,32,29.267114639282227,493.2674861247215,0.16417476038294132,4,24644.42768066385,3.4028234663852886E38,1.57542003E9,,,,0,,1,,1.57542003E9
Raw,2065678138,1932291000000,,,-1311985616708861468,0.0,7.390302988838604,,,0,10,0.0,32995,14330922695020,33,36.22534942626953,-828.0993330224196,0.07250609105700362,4,-548335.5055428356,3.4028234663852886E38,1.59806246E9,,,,0,,3,,1.59806246E9
Raw,2065678138,1932291000000,,,-1311985616708861468,0.0,7.390302988838604,,,0,18,0.0,16,1932007563500,1000000000,23.925397872924805,381.60425854010305,2.99792458E8,2,2.6635383613172454,3.4028234663852886E38,1.60031245E9,,,,0,,3,,1.60031245E9
Raw,2065678138,1932291000000,,,-1311985616708861468,0.0,7.390302988838604,,,0,9,0.0,32995,14330933482660,47,32.03218460083008,-318.1409522068909,0.11913816405750338,4,-701913.1559325042,3.4028234663852886E38,1.59862502E9,,,,0,,3,,1.59862502E9
Raw,2065678139,1932291000000,,,-1311985616708861468,0.0,7.390302988838604,,,0,16,0.0,32995,14330932143591,56,30.46041488647461,433.3241818187287,0.1420488889226883,4,24083.039157272055,3.4028234663852886E38,1.60143744E9,,,,0,,3,,1.60143744E9
Raw,2065678139,1932291000000,,,-1311985616708861468,0.0,7.390302988838604,,,0,19,0.0,17,179687,56,30.436777114868164,7.165012114503739,0.14261640842090162,4,0.09070887028710128,3.4028234663852886E38,1.60368755E9,,,,0,,3,,1.60368755E9
Raw,2065678139,1932291000000,,,-1311985616708861468,0.0,7.390302988838604,,,0,3,0.0,99,922939557,33,45.443172454833984,-465.5673444928291,0.030528757164170223,4,-1052303.8514311626,3.4028234663852886E38,1.60481254E9,,,,0,,3,,1.60481254E9
Raw,2065678139,1932291000000,,,-1311985616708861468,0.0,7.390302988838604,,,0,193,0.0,35,11529533,10,39.15391159057617,-180.08858172175826,0.053482135025482075,1,-21778.645344539847,0.0010015441803261638,1.57542003E9,,,,0,,4,,1.57542003E9
Raw,2065678140,1932291000000,,,-1311985616708861468,0.0,7.390302988838604,,,0,194,0.0,35,15933139,11,38.49736022949219,-140.43196499648462,0.05831072295251638,1,-114114.01583407047,0.0010801840107887983,1.57542003E9,,,,0,,4,,1.57542003E9
Raw,2065678140,1932291000000,,,-1311985616708861468,0.0,7.390302988838604,,,0,195,0.0,35,8023881,10,39.18464660644531,-126.96490430632764,0.05266996406567606,4,-1269.8224335537961,3.4028234663852886E38,1.57542003E9,,,,0,,4,,1.57542003E9
Raw,2065678140,1932291000000,,,-1311985616708861468,0.0,7.390302988838604,,,0,7,0.0,16431,176334879833965,7,35.68513870239258,-91.23622253039485,0.0802104653018163,4,-196671.65007125316,3.4028234663852886E38,1.56109798E9,,,,0,,5,,1.56109798E9
Raw,2065678141,1932291000000,,,-1311985616708861468,0.0,7.390302988838604,,,0,8,0.0,16431,176334878270212,10,32.78002166748047,-192.64242855122893,0.11037104290177924,4,-405185.1360491399,3.4028234663852886E38,1.56109798E9,,,,0,,5,,1.56109798E9
Raw,2065678141,1932291000000,,,-1311985616708861468,0.0,7.390302988838604,,,0,10,0.0,16431,176334880498223,11,32.330020904541016,-157.40853031725192,0.11646590309258625,4,-288123.02453354665,3.4028234663852886E38,1.56109798E9,,,,0,,5,,1.56109798E9
Raw,2065678141,1932291000000,,,-1311985616708861468,0.0,7.390302988838604,,,0,30,0.0,16431,176334924788236,12,31.582380294799805,-303.7561787717866,0.12377754692163634,4,-243310.18002439785,3.4028234663852886E38,1.56109798E9,,,,0,,5,,1.56109798E9
Raw,2065678141,1932291000000,,,-1311985616708861468,0.0,7.390302988838604,,,0,32,0.0,16431,176334913938469,6,36.81618118286133,-649.9399035459937,0.06979235034458497,1,-497711.00300179305,0.0013228871393948793,1.56109798E9,,,,0,,5,,1.56109798E9
Raw,2065678142,1932291000000,,,-1311985616708861468,0.0,7.390302988838604,,,0,33,0.0,16431,176334910762440,20,27.214244842529297,60.4097908884205,0.20517915081018123,4,16489.768691144138,3.4028234663852886E38,1.56109798E9,,,,0,,5,,1.56109798E9
Raw,2065678142,1932291000000,,,-1311985616708861468,0.0,7.390302988838604,,,0,36,0.0,16431,176334921054907,14,30.28986358642578,-286.97128466588947,0.14282775959172178,4,-284763.81378654216,3.4028234663852886E38,1.56109798E9,,,,0,,5,,1.56109798E9
Fix,gps,34.486337,109.463869,356.698334,0.467231,3.000000,1627952330999
Fix,gps,34.486339,109.463873,356.704376,0.488825,3.000000,1627952331999
Raw,2065679075,1933291000000,,,-1311985616708861850,0.0,7.696944988794529,,,0,1,0.0,16431,176349924655737,6,45.46988296508789,511.8589208386102,0.030837454687251215,4,621489.9260779816,3.4028234663852886E38,1.57542003E9,,,,0,,1,,1.57542003E9
Raw,2065679076,1933291000000,,,-1311985616708861850,0.0,7.696944988794529,,,0,2,0.0,16,1933015188280,1000000000,10.755167007446289,-682.0860675488302,2.99792458E8,2,-10.212663543183451,3.4028234663852886E38,1.57542003E9,,,,0,,1,,1.57542003E9
Raw,2065679076,1933291000000,,,-1311985616708861850,0.0,7.696944988794529,,,0,3,0.0,16431,176349926157358,6,44.47547912597656,-133.84466117081018,0.031107557739148875,1,-19490.35149095887,5.720981280319393E-4,1.57542003E9,,,,0,,1,,1.57542003E9
Raw,2065679076,1933291000000,,,-1311985616708861850,0.0,7.696944988794529,,,0,6,0.0,16,1933005259115,1000000000,24.132061004638672,-619.150016818026,2.99792458E8,2,-524291.0921565696,3.4028234663852886E38,1.57542003E9,,,,0,,1,,1.57542003E9
Raw,2065679077,1933291000000,,,-1311985616708861850,0.0,7.696944988794529,,,0,14,0.0,16431,176349932512207,14,36.292030334472656,-31.763107013669554,0.07372116058732586,4,-258915.5549397502,3.4028234663852886E38,1.57542003E9,,,,0,,1,,1.57542003E9
Raw,2065679077,1933291000000,,,-1311985616708861850,0.0,7.696944988794529,,,0,17,0.0,16431,176349929692799,13,36.72829055786133,-178.7832747606194,0.06971296468138774,4,-145269.41556320412,3.4028234663852886E38,1.57542003E9,,,,0,,1,,1.57542003E9
Raw,2065679077,1933291000000,,,-1311985616708861850,0.0,7.696944988794529,,,0,19,0.0,16431,176349928128603,11,38.15385437011719,-427.029765583183,0.05914352145375795,4,-549978.1119912883,3.4028234663852886E38,1.57542003E9,,,,0,,1,,1.57542003E9
Raw,2065679077,1933291000000,,,-1311985616708861850,0.0,7.696944988794529,,,0,21,0.0,17,141133,10,39.0904541015625,469.333285526317,0.05450872341226759,4,524670.3987966636,3.4028234663852886E38,1.57542003E9,,,,0,,1,,1.57542003E9
Raw,2065679078,1933291000000,,,-1311985616708861850,0.0,7.696944988794529,,,0,22,0.0,16431,176349922498778,6,45.178428649902344,189.3547666301256,0.030449469271691773,4,567.9641376442737,3.4028234663852886E38,1.57542003E9,,,,0,,1,,1.57542003E9
Raw,2065679078,1933291000000,,,-1311985616708861850,0.0,7.696944988794529,,,0,24,0.0,16431,176349916984443,12,37.262939453125,-354.12987910021775,0.06696691802720889,4,-539266.7020672316,3.4028234663852886E38,1.57542003E9,,,,0,,1,,1.57542003E9
Raw,2065679078,1933291000000,,,-1311985616708861850,0.0,7.696944988794529,,,0,30,0.0,16431,176349920637913,33,28.98701286315918,493.07560189449805,0.16943332728936722,4,25137.535945346768,3.4028234663852886E38,1.57542003E9,,,,0,,1,,1.57542003E9
Raw,2065679078,1933291000000,,,-1311985616708861850,0.0,7.696944988794529,,,0,10,0.0,32995,14331922697749,33,39.60118865966797,-828.0591838886357,0.04931325814379109,4,-549163.5811423733,3.4028234663852886E38,1.59806246E9,,,,0,,3,,1.59806246E9
Raw,2065679079,1933291000000,,,-1311985616708861850,0.0,7.696944988794529,,,0,18,0.0,16,1933007562227,1000000000,20.15945816040039,381.60425854010305,2.99792458E8,2,2.6814610658216447,3.4028234663852886E38,1.60031245E9,,,,0,,3,,1.60031245E9
Raw,2065679079,1933291000000,,,-1311985616708861850,0.0,7.696944988794529,,,0,9,0.0,32995,14331933483769,75,27.95378875732422,-318.5077135215329,0.1890800827995487,4,-702231.7193221821,3.4028234663852886E38,1.59862502E9,,,,0,,3,,1.59862502E9
Raw,2065679079,1933291000000,,,-1311985616708861850,0.0,7.696944988794529,,,0,16,0.0,32995,14331932142227,54,30.77897071838379,433.42751982690584,0.13701201608099317,4,24516.409977145064,3.4028234663852886E38,1.60143744E9,,,,0,,3,,1.60143744E9
Raw,2065679079,1933291000000,,,-1311985616708861850,0.0,7.696944988794529,,,0,19,0.0,17,179556,72,28.30599594116211,7.180707085732493,0.18160803674530568,4,7.417000239221287,3.4028234663852886E38,1.60368755E9,,,,0,,3,,1.60368755E9
Raw,2065679080,1933291000000,,,-1311985616708861850,0.0,7.696944988794529,,,0,3,0.0,99,1922941100,33,46.12860870361328,-465.43285511939007,0.030529035914730163,4,-1052769.3301877035,3.4028234663852886E38,1.60481254E9,,,,0,,3,,1.60481254E9
Raw,2065679080,1933291000000,,,-1311985616708861850,0.0,7.696944988794529,,,0,193,0.0,35,11530135,12,37.88193893432617,-180.12049994229187,0.06158967827045869,1,-21958.73355087884,0.0011594946263357997,1.57542003E9,,,,0,,4,,1.57542003E9
Raw,2065679080,1933291000000,,,-1311985616708861850,0.0,7.696944988794529,,,0,194,0.0,35,15933711,17,34.70085906982422,-140.50476512361735,0.08870521803728626,1,-114254.4877998333,0.0016723332228139043,1.57542003E9,,,,0,,4,,1.57542003E9
Raw,2065679080,1933291000000,,,-1311985616708861850,0.0,7.696944988794529,,,0,195,0.0,35,8024286,7,41.93976974487305,-127.00169631814401,0.038746036599728584,4,-1396.8036494150656,3.4028234663852886E38,1.57542003E9,,,,0,,4,,1.57542003E9
Raw,2065679081,1933291000000,,,-1311985616708861850,0.0,7.696944988794529,,,0,7,0.0,16431,176335879834279,6,36.92051696777344,-91.21819291089429,0.07004946653270872,4,-196762.87479123287,3.4028234663852886E38,1.56109798E9,,,,0,,5,,1.56109798E9
Raw,2065679081,1933291000000,,,-1311985616708861850,0.0,7.696944988794529,,,0,8,0.0,16431,176335878270852,15,29.698081970214844,-192.52293545865996,0.1559812745959247,4,-405377.89213592315,3.4028234663852886E38,1.56109798E9,,,,0,,5,,1.56109798E9
Raw,2065679081,1933291000000,,,-1311985616708861850,0.0,7.696944988794529,,,0,10,0.0,16431,176335880498754,11,32.31011199951172,-157.44380565975302,0.11672480827684095,4,-288280.5692904594,3.4028234663852886E38,1.56109798E9,,,,0,,5,,1.56109798E9
Raw,2065679081,1933291000000,,,-1311985616708861850,0.0,7.696944988794529,,,0,30,0.0,16431,176335924789262,14,30.21851921081543,-303.6804475533929,0.14467591740868502,4,-243613.9586273078,3.4028234663852886E38,1.56109798E9,,,,0,,5,,1.56109798E9
Raw,2065679082,1933291000000,,,-1311985616708861850,0.0,7.696944988794529,,,0,32,0.0,16431,176335913940634,7,35.468257904052734,-650.1167914953471,0.08108818008731328,1,-498361.0465805893,0.0015449661295861006,1.56109798E9,,,,0,,5,,1.56109798E9
Raw,2065679082,1933291000000,,,-1311985616708861850,0.0,7.696944988794529,,,0,33,0.0,16431,176335910762207,13,30.91183853149414,60.44297015984546,0.1347170086350778,4,16550.21607215259,3.4028234663852886E38,1.56109798E9,,,,0,,5,,1.56109798E9
Raw,2065679082,1933291000000,,,-1311985616708861850,0.0,7.696944988794529,,,0,36,0.0,16431,176335921055803,16,28.87655258178711,-286.88665792634333,0.16803195253405823,4,-285050.7874141072,3.4028234663852886E38,1.56109798E9,,,,0,,5,,1.56109798E9
Fix,gps,34.486339,109.463877,356.645935,0.405759,3.000000,1627952332999
Raw,2065680130,1934291000000,,,-1311985616708862236,0.0,8.157606243493886,,,0,1,0.0,16431,176350924654014,6,45.49859619140625,511.8532631508274,0.030837144733270386,4,622001.7911475974,3.4028234663852886E38,1.57542003E9,,,,0,,1,,1.57542003E9
Raw,2065680130,1934291000000,,,-1311985616708862236,0.0,8.157606243493886,,,0,2,0.0,16,1934015190555,1000000000,9.093742370605469,-681.900454490607,2.99792458E8,2,-10.225882157973835,3.4028234663852886E38,1.57542003E9,,,,0,,1,,1.57542003E9
Raw,2065680130,1934291000000,,,-1311985616708862236,0.0,8.157606243493886,,,0,3,0.0,16431,176350926157799,6,43.540252685546875,-133.7550243101552,0.03213291671115137,1,-19624.13574084879,6.371354684233665E-4,1.57542003E9,,,,0,,1,,1.57542003E9
Raw,2065680131,1934291000000,,,-1311985616708862236,0.0,8.157606243493886,,,0,6,0.0,16,1934005261241,1000000000,22.91864776611328,-618.9644037598027,2.99792458E8,2,-524291.0863889165,3.4028234663852886E38,1.57542003E9,,,,0,,1,,1.57542003E9
Raw,2065680131,1934291000000,,,-1311985616708862236,0.0,8.157606243493886,,,0,14,0.0,16431,176350932512326,19,33.82233810424805,-31.789733932828,0.09722612339991715,4,-258947.36622321562,3.4028234663852886E38,1.57542003E9,,,,0,,1,,1.57542003E9
Raw,2065680131,1934291000000,,,-1311985616708862236,0.0,8.157606243493886,,,0,17,0.0,16431,176350929693399,20,33.332557678222656,-178.8982519276991,0.10222840620944301,4,-145448.2994888414,3.4028234663852886E38,1.57542003E9,,,,0,,1,,1.57542003E9
Raw,2065680132,1934291000000,,,-1311985616708862236,0.0,8.157606243493886,,,0,19,0.0,16431,176350928129999,13,37.044490814208984,-427.05894016596653,0.06700199483274402,4,-550405.132941688,3.4028234663852886E38,1.57542003E9,,,,0,,1,,1.57542003E9
Raw,2065680132,1934291000000,,,-1311985616708862236,0.0,8.157606243493886,,,0,21,0.0,17,139547,8,40.73503494262695,469.19426318616047,0.04557579143839646,4,524295.0354957528,3.4028234663852886E38,1.57542003E9,,,,0,,1,,1.57542003E9
Raw,2065680132,1934291000000,,,-1311985616708862236,0.0,8.157606243493886,,,0,22,0.0,16431,176350922498160,6,45.24641799926758,189.42318716159514,0.030449359019604633,1,757.3636418639167,5.23508177138865E-4,1.57542003E9,,,,0,,1,,1.57542003E9
Raw,2065680133,1934291000000,,,-1311985616708862236,0.0,8.157606243493886,,,0,24,0.0,16431,176350916985656,12,37.38359069824219,-354.05217109934574,0.06608550459622256,4,-539620.7694648381,3.4028234663852886E38,1.57542003E9,,,,0,,1,,1.57542003E9
Raw,2065680133,1934291000000,,,-1311985616708862236,0.0,8.157606243493886,,,0,30,0.0,16431,176350920636272,29,30.206960678100586,493.0943472455856,0.1477178765042927,4,25630.623689572367,3.4028234663852886E38,1.57542003E9,,,,0,,1,,1.57542003E9
Raw,2065680134,1934291000000,,,-1311985616708862236,0.0,8.157606243493886,,,0,10,0.0,32995,14332922700530,33,39.549415588378906,-828.0404385375482,0.04960568828344872,4,-549991.6051291893,3.4028234663852886E38,1.59806246E9,,,,0,,3,,1.59806246E9
Raw,2065680134,1934291000000,,,-1311985616708862236,0.0,8.157606243493886,,,0,18,0.0,16,1934007561076,1000000000,19.022064208984375,381.60425854010305,2.99792458E8,2,2.675486830939172,3.4028234663852886E38,1.60031245E9,,,,0,,3,,1.60031245E9
Raw,2065680134,1934291000000,,,-1311985616708862236,0.0,8.157606243493886,,,0,9,0.0,32995,14332933484877,125,23.569713592529297,-318.8307470444561,0.31162791538532564,4,-702549.6517321519,3.4028234663852886E38,1.59862502E9,,,,0,,3,,1.59862502E9
Raw,2065680135,1934291000000,,,-1311985616708862236,0.0,8.157606243493886,,,0,16,0.0,32995,14332932140738,51,31.21990203857422,433.498002346995,0.13033815353308575,4,24949.849833079643,3.4028234663852886E38,1.60143744E9,,,,0,,3,,1.60143744E9
Raw,2065680135,1934291000000,,,-1311985616708862236,0.0,8.157606243493886,,,0,19,0.0,17,179528,79,27.47426414489746,7.396909148684941,0.1996198328518607,4,14.83223198557491,3.4028234663852886E38,1.60368755E9,,,,0,,3,,1.60368755E9
Raw,2065680135,1934291000000,,,-1311985616708862236,0.0,8.157606243493886,,,0,3,0.0,99,922942662,33,45.98738479614258,-465.36124787823564,0.030529316745518162,1,-1053234.7260834358,4.718969576060772E-4,1.60481254E9,,,,0,,3,,1.60481254E9
Raw,2065680135,1934291000000,,,-1311985616708862236,0.0,8.157606243493886,,,0,193,0.0,35,11530747,11,38.45161437988281,-180.1383250670533,0.05781162215517191,1,-22138.864643015895,0.0010858880123123527,1.57542003E9,,,,0,,4,,1.57542003E9
Raw,2065680136,1934291000000,,,-1311985616708862236,0.0,8.157606243493886,,,0,194,0.0,35,15934137,16,35.01982116699219,-140.51928425009606,0.08561030465620223,1,-114394.99573078098,0.001612035441212356,1.57542003E9,,,,0,,4,,1.57542003E9
Raw,2065680136,1934291000000,,,-1311985616708862236,0.0,8.157606243493886,,,0,195,0.0,35,8024700,8,40.98609161376953,-127.0605567205589,0.04307511184426269,1,-1523.8207232478205,8.549485937692225E-4,1.57542003E9,,,,0,,4,,1.57542003E9
Raw,2065680136,1934291000000,,,-1311985616708862236,0.0,8.157606243493886,,,0,7,0.0,16431,176336879834588,6,36.77940368652344,-91.25164484197143,0.07113842431716677,1,-196854.12508148543,0.0013285005697980523,1.56109798E9,,,,0,,5,,1.56109798E9
Raw,2065680137,1934291000000,,,-1311985616708862236,0.0,8.157606243493886,,,0,8,0.0,16431,176336878271523,17,28.826435089111328,-192.82054346901714,0.17209988010848976,4,-405570.6955305502,3.4028234663852886E38,1.56109798E9,,,,0,,5,,1.56109798E9
Raw,2065680137,1934291000000,,,-1311985616708862236,0.0,8.157606243493886,,,0,10,0.0,16431,176336880499294,11,32.20708465576172,-157.64231892777013,0.11807367807593439,4,-288438.1257898174,3.4028234663852886E38,1.56109798E9,,,,0,,5,,1.56109798E9
Raw,2065680139,1934291000000,,,-1311985616708862236,0.0,8.157606243493886,,,0,30,0.0,16431,176336924790272,17,28.63695526123047,-303.81514142157107,0.17339802562658635,4,-243917.77392821288,3.4028234663852886E38,1.56109798E9,,,,0,,5,,1.56109798E9
Raw,2065680139,1934291000000,,,-1311985616708862236,0.0,8.157606243493886,,,0,32,0.0,16431,176336913942811,8,34.859561920166016,-650.0864581090418,0.08679297255427354,1,-499011.12538155937,0.0016571193700656295,1.56109798E9,,,,0,,5,,1.56109798E9
Raw,2065680139,1934291000000,,,-1311985616708862236,0.0,8.157606243493886,,,0,33,0.0,16431,176336910762014,13,31.191753387451172,60.56999973561304,0.1305061361093266,4,16610.75426321943,3.4028234663852886E38,1.56109798E9,,,,0,,5,,1.56109798E9
Raw,2065680140,1934291000000,,,-1311985616708862236,0.0,8.157606243493886,,,0,36,0.0,16431,176336921056799,19,27.757556915283203,-286.88369275262585,0.19110968642875226,4,-285337.68324923626,3.4028234663852886E38,1.56109798E9,,,,0,,5,,1.56109798E9
Fix,gps,34.486339,109.463880,356.570282,0.349923,3.000000,1627952333999
Raw,2065681148,1935291000000,,,-1311985616708862621,0.0,8.44786391010327,,,0,1,0.0,16431,176351924652318,6,45.718414306640625,511.8935145319808,0.030836841019973735,1,622513.661640443,4.958197823725641E-4,1.57542003E9,,,,0,,1,,1.57542003E9
Raw,2065681148,1935291000000,,,-1311985616708862621,0.0,8.44786391010327,,,0,2,0.0,16,1935015192830,1000000000,7.0,-681.900454490607,2.99792458E8,2,-10.220549603056934,3.4028234663852886E38,1.57542003E9,,,,0,,1,,1.57542003E9
Raw,2065681149,1935291000000,,,-1311985616708862621,0.0,8.44786391010327,,,0,3,0.0,16431,176351926158252,6,42.720726013183594,-133.61184391030287,0.035202821590507055,1,-19757.822203127937,7.001773919910192E-4,1.57542003E9,,,,0,,1,,1.57542003E9
Raw,2065681149,1935291000000,,,-1311985616708862621,0.0,8.44786391010327,,,0,6,0.0,16,1935005263245,1000000000,20.44214630126953,-618.9644037598027,2.99792458E8,2,-524291.0815485305,3.4028234663852886E38,1.57542003E9,,,,0,,1,,1.57542003E9
Raw,2065681149,1935291000000,,,-1311985616708862621,0.0,8.44786391010327,,,0,14,0.0,16431,176351932512411,13,36.820091247558594,-31.628283206125914,0.06950557010433628,1,-258979.0808406376,0.0013102709781378508,1.57542003E9,,,,0,,1,,1.57542003E9
Raw,2065681150,1935291000000,,,-1311985616708862621,0.0,8.44786391010327,,,0,17,0.0,16431,176351929694000,14,36.24020767211914,-178.85963650445876,0.07364192054009278,1,-145627.1913218449,0.0014007329009473324,1.57542003E9,,,,0,,1,,1.57542003E9
Raw,2065681150,1935291000000,,,-1311985616708862621,0.0,8.44786391010327,,,0,19,0.0,16431,176351928131419,12,37.68882369995117,-426.9637137824418,0.0623163560174855,1,-550832.146801059,0.001185562927275896,1.57542003E9,,,,0,,1,,1.57542003E9
Raw,2065681150,1935291000000,,,-1311985616708862621,0.0,8.44786391010327,,,0,21,0.0,51,15137988,8,40.80939483642578,469.21856397766123,0.04521021631971936,4,524764.2503778226,3.4028234663852886E38,1.57542003E9,,,,0,,1,,1.57542003E9
Raw,2065681151,1935291000000,,,-1311985616708862621,0.0,8.44786391010327,,,0,22,0.0,16431,176351922497516,6,45.57286071777344,189.53913567868574,0.030449242526833314,1,946.8451260194074,5.041982512921095E-4,1.57542003E9,,,,0,,1,,1.57542003E9
Raw,2065681151,1935291000000,,,-1311985616708862621,0.0,8.44786391010327,,,0,24,0.0,16431,176351916986825,12,37.793907165527344,-353.9953556443222,0.06317744978078904,1,-539974.7666444445,0.0011713058920577168,1.57542003E9,,,,0,,1,,1.57542003E9
Raw,2065681151,1935291000000,,,-1311985616708862621,0.0,8.44786391010327,,,0,30,0.0,16431,176351920634624,26,31.074413299560547,493.07723785241114,0.13403064986829544,4,26123.714924809155,3.4028234663852886E38,1.57542003E9,,,,0,,1,,1.57542003E9
Raw,2065681152,1935291000000,,,-1311985616708862621,0.0,8.44786391010327,,,0,10,0.0,32995,14333922703303,33,40.02861022949219,-827.9570046839804,0.04696966489132379,1,-550819.5985434494,8.927663438953459E-4,1.59806246E9,,,,0,,3,,1.59806246E9
Raw,2065681152,1935291000000,,,-1311985616708862621,0.0,8.44786391010327,,,0,18,0.0,16,1935007559681,1000000000,22.231178283691406,381.60425854010305,2.99792458E8,2,2.6695125961256765,3.4028234663852886E38,1.60031245E9,,,,0,,3,,1.60031245E9
Raw,2065681153,1935291000000,,,-1311985616708862621,0.0,8.44786391010327,,,0,9,0.0,32995,14333933485751,72,20.503429412841797,-318.73777010306185,4.20242546848467,4,-702866.8400202794,3.4028234663852886E38,1.59862502E9,,,,0,,3,,1.59862502E9
Raw,2065681153,1935291000000,,,-1311985616708862621,0.0,8.44786391010327,,,0,16,0.0,32995,14333932139277,55,30.590980529785156,433.65239587504334,0.13996142166978853,1,25383.414684199044,0.0024895842652767897,1.60143744E9,,,,0,,3,,1.60143744E9
Raw,2065681153,1935291000000,,,-1311985616708862621,0.0,8.44786391010327,,,0,19,0.0,99,1933179626,102,25.295093536376953,7.461894807583043,0.25586818442278414,4,22.3126474821333,3.4028234663852886E38,1.60368755E9,,,,0,,3,,1.60368755E9
Raw,2065681154,1935291000000,,,-1311985616708862621,0.0,8.44786391010327,,,0,3,0.0,99,1922944224,33,45.823909759521484,-465.2482645348625,0.03052959757630616,1,-1053700.0180719367,4.808627418242395E-4,1.60481254E9,,,,0,,3,,1.60481254E9
Raw,2065681154,1935291000000,,,-1311985616708862621,0.0,8.44786391010327,,,0,193,0.0,35,11531346,11,38.47419738769531,-180.15654214006474,0.057666996379580365,1,-22319.005060037245,0.0010830683168023825,1.57542003E9,,,,0,,4,,1.57542003E9
Raw,2065681155,1935291000000,,,-1311985616708862621,0.0,8.44786391010327,,,0,194,0.0,35,15934641,19,33.76775360107422,-140.46757264293683,0.09844047733178701,1,-114535.49339068959,0.0018619931070134044,1.57542003E9,,,,0,,4,,1.57542003E9
Raw,2065681155,1935291000000,,,-1311985616708862621,0.0,8.44786391010327,,,0,195,0.0,35,8025147,6,42.84510803222656,-127.04887495858571,0.0350538772614645,1,-1650.867800413493,6.902226014062762E-4,1.57542003E9,,,,0,,4,,1.57542003E9
Raw,2065681155,1935291000000,,,-1311985616708862621,0.0,8.44786391010327,,,0,7,0.0,16431,176337879834889,7,36.25642395019531,-91.2576859573901,0.07533189781543037,1,-196945.36994580302,0.0014109470648691058,1.56109798E9,,,,0,,5,,1.56109798E9
Raw,2065681156,1935291000000,,,-1311985616708862621,0.0,8.44786391010327,,,0,8,0.0,16431,176337878272146,23,26.220937728881836,-192.46625633346252,0.23115376037471835,4,-405763.4517850614,3.4028234663852886E38,1.56109798E9,,,,0,,5,,1.56109798E9
Raw,2065681156,1935291000000,,,-1311985616708862621,0.0,8.44786391010327,,,0,10,0.0,16431,176337880499805,10,33.25542068481445,-157.50997674909206,0.10506858318330309,1,-288595.6822714503,0.0019932459108531475,1.56109798E9,,,,0,,5,,1.56109798E9
Raw,2065681157,1935291000000,,,-1311985616708862621,0.0,8.44786391010327,,,0,30,0.0,16431,176337924791281,17,28.567264556884766,-303.7676304771783,0.17478806729942853,1,-244221.5707959695,0.003223980776965618,1.56109798E9,,,,0,,5,,1.56109798E9
Raw,2065681157,1935291000000,,,-1311985616708862621,0.0,8.44786391010327,,,0,32,0.0,16431,176337913944977,8,34.81635665893555,-650.1086117057816,0.08721364459332803,1,-499661.2158422762,0.0016653828788548708,1.56109798E9,,,,0,,5,,1.56109798E9
Raw,2065681157,1935291000000,,,-1311985616708862621,0.0,8.44786391010327,,,0,33,0.0,16431,176337910761815,12,31.446266174316406,60.66114900527623,0.12679341163646873,4,16671.347720119604,3.4028234663852886E38,1.56109798E9,,,,0,,5,,1.56109798E9
Raw,2065681158,1935291000000,,,-1311985616708862621,0.0,8.44786391010327,,,0,36,0.0,16431,176337921057727,22,26.5981502532959,-286.84078293986363,0.21837322194062736,1,-285624.5325006967,0.004044344183057547,1.56109798E9,,,,0,,5,,1.56109798E9
Fix,gps,34.486339,109.463883,356.653259,0.232710,3.000000,1627952334999
Raw,2065682134,1936291000000,,,-1311985616708863004,0.0,8.106324282170476,,,0,1,0.0,16431,176352924650604,6,46.06830596923828,511.8674755351974,0.030836531065992906,1,623025.5497826036,4.7624361468479037E-4,1.57542003E9,,,,0,,1,,1.57542003E9
Raw,2065682134,1936291000000,,,-1311985616708863004,0.0,8.106324282170476,,,0,2,0.0,16,1936015195104,1000000000,7.0,-681.900454490607,2.99792458E8,2,-10.215217048286075,3.4028234663852886E38,1.57542003E9,,,,0,,1,,1.57542003E9
Raw,2065682135,1936291000000,,,-1311985616708863004,0.0,8.106324282170476,,,0,3,0.0,16431,176352926158695,6,42.88299560546875,-133.5284867422622,0.03457185305625844,1,-19891.39328077483,6.872182711958885E-4,1.57542003E9,,,,0,,1,,1.57542003E9
Raw,2065682135,1936291000000,,,-1311985616708863004,0.0,8.106324282170476,,,0,6,0.0,16,1936005265370,1000000000,25.015199661254883,-618.9644037598027,2.99792458E8,2,-524291.0767081446,3.4028234663852886E38,1.57542003E9,,,,0,,1,,1.57542003E9
Raw,2065682135,1936291000000,,,-1311985616708863004,0.0,8.106324282170476,,,0,14,0.0,16431,176352932512525,12,37.29772186279297,-31.574959072742445,0.06590711255877321,1,-259010.69478724856,0.0012401656713336706,1.57542003E9,,,,0,,1,,1.57542003E9
Raw,2065682136,1936291000000,,,-1311985616708863004,0.0,8.106324282170476,,,0,17,0.0,16431,176352929694609,14,36.47338104248047,-178.9306643438523,0.07173758824461746,1,-145806.05831920975,0.0013636304065585136,1.57542003E9,,,,0,,1,,1.57542003E9
Raw,2065682136,1936291000000,,,-1311985616708863004,0.0,8.106324282170476,,,0,19,0.0,16431,176352928132855,11,38.39802932739258,-427.02922026387864,0.05754533632176298,1,-551259.1467115048,0.0010926076211035252,1.57542003E9,,,,0,,1,,1.57542003E9
Raw,2065682136,1936291000000,,,-1311985616708863004,0.0,8.106324282170476,,,0,21,0.0,39,915136435,8,40.81399917602539,469.1406855645066,0.04518741702018994,4,525233.429465829,3.4028234663852886E38,1.57542003E9,,,,0,,1,,1.57542003E9
Raw,2065682137,1936291000000,,,-1311985616708863004,0.0,8.106324282170476,,,0,22,0.0,16431,176352922496882,6,46.002288818359375,189.58833370467642,0.030449128114290056,1,1136.4133669903435,4.7987716970965266E-4,1.57542003E9,,,,0,,1,,1.57542003E9
Raw,2065682137,1936291000000,,,-1311985616708863004,0.0,8.106324282170476,,,0,24,0.0,16431,176352916988025,12,37.73478698730469,-353.9034693415367,0.06358829482249162,1,-540328.6618609024,0.0011793056037276983,1.57542003E9,,,,0,,1,,1.57542003E9
Raw,2065682137,1936291000000,,,-1311985616708863004,0.0,8.106324282170476,,,0,30,0.0,16431,176352920632985,25,31.35442543029785,493.0487449187581,0.12989618827961674,1,26616.797955944265,0.0023177587427198887,1.57542003E9,,,,0,,1,,1.57542003E9
Raw,2065682137,1936291000000,,,-1311985616708863004,0.0,8.106324282170476,,,0,10,0.0,32995,14334922706037,33,40.32375717163086,-827.9311701819361,0.0454171782093345,1,-551647.5241602617,8.629396907053888E-4,1.59806246E9,,,,0,,3,,1.59806246E9
Raw,2065682138,1936291000000,,,-1311985616708863004,0.0,8.106324282170476,,,0,18,0.0,16,1936007558408,1000000000,26.532909393310547,381.60425854010305,2.99792458E8,2,2.663538361365004,3.4028234663852886E38,1.60031245E9,,,,0,,3,,1.60031245E9
Raw,2065682138,1936291000000,,,-1311985616708863004,0.0,8.106324282170476,,,0,9,0.0,32995,14334933486806,81,18.84100341796875,-318.6054279243838,4.202425734753861,4,-703185.5461030165,3.4028234663852886E38,1.59862502E9,,,,0,,3,,1.59862502E9
Raw,2065682138,1936291000000,,,-1311985616708863004,0.0,8.106324282170476,,,0,16,0.0,32995,14334932137772,61,29.685258865356445,433.7132671423931,0.15510370126593576,1,25817.071634448374,0.002763203578069806,1.60143744E9,,,,0,,3,,1.60143744E9
Raw,2065682138,1936291000000,,,-1311985616708863004,0.0,8.106324282170476,,,0,19,0.0,99,933179597,113,24.437923431396484,7.570745653102769,0.2821607360438976,4,29.846087560577875,3.4028234663852886E38,1.60368755E9,,,,0,,3,,1.60368755E9
Raw,2065682139,1936291000000,,,-1311985616708863004,0.0,8.106324282170476,,,0,3,0.0,99,922945750,33,46.115787506103516,-465.18238314640394,0.030529872166409983,1,-1054165.2210165483,4.649722541216761E-4,1.60481254E9,,,,0,,3,,1.60481254E9
Raw,2065682139,1936291000000,,,-1311985616708863004,0.0,8.106324282170476,,,0,193,0.0,35,11531947,11,38.057952880859375,-180.15398595582553,0.06039606837279571,1,-22499.159099884888,0.0011362349614501,1.57542003E9,,,,0,,4,,1.57542003E9
Raw,2065682139,1936291000000,,,-1311985616708863004,0.0,8.106324282170476,,,0,194,0.0,35,15935101,21,32.85417938232422,-140.5348940151835,0.10904060392329079,1,-114675.98789983941,0.002068505622446537,1.57542003E9,,,,0,,4,,1.57542003E9
Raw,2065682139,1936291000000,,,-1311985616708863004,0.0,8.106324282170476,,,0,195,0.0,35,8025562,6,43.11738586425781,-127.12182845677279,0.03401670675454156,1,-1777.9512706795354,6.689216243103147E-4,1.57542003E9,,,,0,,4,,1.57542003E9
Raw,2065682140,1936291000000,,,-1311985616708863004,0.0,8.106324282170476,,,0,7,0.0,16431,176338879835192,7,35.9924430847168,-91.2291589412805,0.07754647532366277,1,-197036.5978308133,0.001454486628063023,1.56109798E9,,,,0,,5,,1.56109798E9
Raw,2065682140,1936291000000,,,-1311985616708863004,0.0,8.106324282170476,,,0,8,0.0,16431,176338878272758,26,24.906055450439453,-192.7151264309921,0.2683965492906202,4,-405956.1884348964,3.4028234663852886E38,1.56109798E9,,,,0,,5,,1.56109798E9
Raw,2065682140,1936291000000,,,-1311985616708863004,0.0,8.106324282170476,,,0,10,0.0,16431,176338880500335,10,33.248291015625,-157.5750912822789,0.10515195040300573,1,-288753.2353785797,0.0019948824774473906,1.56109798E9,,,,0,,5,,1.56109798E9
Raw,2065682141,1936291000000,,,-1311985616708863004,0.0,8.106324282170476,,,0,30,0.0,16431,176338924792300,17,28.817428588867188,-303.8186178321364,0.16985043797798427,1,-244525.3436102432,0.0031324499286711216,1.56109798E9,,,,0,,5,,1.56109798E9
Raw,2065682141,1936291000000,,,-1311985616708863004,0.0,8.106324282170476,,,0,32,0.0,16431,176338913947156,9,34.05830383300781,-650.136014000826,0.09493877951417207,1,-500311.32656954136,0.0018172584241256118,1.56109798E9,,,,0,,5,,1.56109798E9
Raw,2065682141,1936291000000,,,-1311985616708863004,0.0,8.106324282170476,,,0,33,0.0,16431,176338910761615,13,30.84353256225586,60.640980711628856,0.13576522723322343,1,16732.02232566473,0.0024807273875921965,1.56109798E9,,,,0,,5,,1.56109798E9
Raw,2065682142,1936291000000,,,-1311985616708863004,0.0,8.106324282170476,,,0,36,0.0,16431,176338921058648,20,27.13855743408203,-286.6892523381632,0.20521245110095376,1,-285911.26601413294,0.0038003860972821712,1.56109798E9,,,,0,,5,,1.56109798E9
Fix,gps,34.486339,109.463886,356.681702,0.151456,3.000000,1627952335999
Raw,2065683109,1937291000000,,,-1311985616708863391,0.0,8.482829932054893,,,0,1,0.0,16431,176353924648907,6,46.06089782714844,511.94511537115636,0.030836227352696255,1,623537.4467251061,4.766500787809491E-4,1.57542003E9,,,,0,,1,,1.57542003E9
Raw,2065683110,1937291000000,,,-1311985616708863391,0.0,8.482829932054893,,,0,2,0.0,16,1937015197379,1000000000,7.0,-681.900454490607,2.99792458E8,2,-10.209884493378702,3.4028234663852886E38,1.57542003E9,,,,0,,1,,1.57542003E9
Raw,2065683110,1937291000000,,,-1311985616708863391,0.0,8.482829932054893,,,0,3,0.0,16431,176353926159126,6,43.88435363769531,-133.42213243668277,0.03110787601404194,1,-20024.86936563354,6.123881903477013E-4,1.57542003E9,,,,0,,1,,1.57542003E9
Raw,2065683110,1937291000000,,,-1311985616708863391,0.0,8.482829932054893,,,0,6,0.0,16,1937005267434,1000000000,23.776941299438477,-618.7787225366665,2.99792458E8,2,-524291.0903020354,3.4028234663852886E38,1.57542003E9,,,,0,,1,,1.57542003E9
Raw,2065683111,1937291000000,,,-1311985616708863391,0.0,8.482829932054893,,,0,14,0.0,16431,176353932512644,15,35.419944763183594,-31.408157400366278,0.08126963422046585,1,-259042.20860341788,0.0015394601505249739,1.57542003E9,,,,0,,1,,1.57542003E9
Raw,2065683111,1937291000000,,,-1311985616708863391,0.0,8.482829932054893,,,0,17,0.0,16431,176353929695233,18,34.22568893432617,-178.7042886676278,0.09240983794162527,1,-145984.88783213485,0.0017663686303421855,1.57542003E9,,,,0,,1,,1.57542003E9
Raw,2065683111,1937291000000,,,-1311985616708863391,0.0,8.482829932054893,,,0,19,0.0,16431,176353928134299,11,38.50633239746094,-426.9816752370293,0.05685065248228749,1,-551686.1357186523,0.0010790688684210181,1.57542003E9,,,,0,,1,,1.57542003E9
Raw,2065683111,1937291000000,,,-1311985616708863391,0.0,8.482829932054893,,,0,21,0.0,39,1915134867,8,40.65580749511719,469.15615899976797,0.04596760655381299,4,525702.5663755379,3.4028234663852886E38,1.57542003E9,,,,0,,1,,1.57542003E9
Raw,2065683112,1937291000000,,,-1311985616708863391,0.0,8.482829932054893,,,0,22,0.0,16431,176353922496259,6,45.85144805908203,189.73979614146378,0.030449015781974856,1,1326.0656327637282,4.882834036834538E-4,1.57542003E9,,,,0,,1,,1.57542003E9
Raw,2065683112,1937291000000,,,-1311985616708863391,0.0,8.482829932054893,,,0,24,0.0,16431,176353916989186,12,37.7479133605957,-353.80057440529436,0.0634970893034617,1,-540682.4928009195,0.0011775249149650335,1.57542003E9,,,,0,,1,,1.57542003E9
Raw,2065683112,1937291000000,,,-1311985616708863391,0.0,8.482829932054893,,,0,30,0.0,16431,176353920631339,31,29.58550453186035,493.05378912232345,0.15839783392779838,1,27109.867152476567,0.0028412812389433384,1.57542003E9,,,,0,,1,,1.57542003E9
Raw,2065683113,1937291000000,,,-1311985616708863391,0.0,8.482829932054893,,,0,10,0.0,32995,14335922708798,33,40.526145935058594,-827.860823991673,0.04438286801599303,1,-552475.4141815044,8.430648595094681E-4,1.59806246E9,,,,0,,3,,1.59806246E9
Raw,2065683113,1937291000000,,,-1311985616708863391,0.0,8.482829932054893,,,0,18,0.0,16,1937007557135,1000000000,31.051639556884766,381.60425854010305,2.99792458E8,2,2.681461065781547,3.4028234663852886E38,1.60031245E9,,,,0,,3,,1.60031245E9
Raw,2065683113,1937291000000,,,-1311985616708863391,0.0,8.482829932054893,,,0,9,0.0,32995,14335933488006,64,22.092288970947266,-318.379427155181,4.202426001023053,4,-703503.4942414243,3.4028234663852886E38,1.59862502E9,,,,0,,3,,1.59862502E9
Raw,2065683114,1937291000000,,,-1311985616708863391,0.0,8.482829932054893,,,0,16,0.0,32995,14335932136432,64,29.38591957092285,433.7942470590913,0.16046538091680274,1,26250.81109228135,0.0028600909281522036,1.60143744E9,,,,0,,3,,1.60143744E9
Raw,2065683114,1937291000000,,,-1311985616708863391,0.0,8.482829932054893,,,0,19,0.0,99,1933179520,98,25.658313751220703,7.607336365410305,0.24548616558283698,4,37.39460641105103,3.4028234663852886E38,1.60368755E9,,,,0,,3,,1.60368755E9
Raw,2065683114,1937291000000,,,-1311985616708863391,0.0,8.482829932054893,,,0,3,0.0,99,1922947320,33,46.3603630065918,-465.066673206509,0.03053015507742604,1,-1054630.3445049073,4.520622896961868E-4,1.60481254E9,,,,0,,3,,1.60481254E9
Raw,2065683115,1937291000000,,,-1311985616708863391,0.0,8.482829932054893,,,0,193,0.0,35,11532539,11,38.256961822509766,-180.2436739401653,0.05907513603653805,1,-22679.357913615928,0.0011104976292699575,1.57542003E9,,,,0,,4,,1.57542003E9
Raw,2065683115,1937291000000,,,-1311985616708863391,0.0,8.482829932054893,,,0,194,0.0,35,15935580,18,34.01518249511719,-140.5516540631786,0.09575647555970346,1,-114816.49412588576,0.0018096999265253544,1.57542003E9,,,,0,,4,,1.57542003E9
Raw,2065683115,1937291000000,,,-1311985616708863391,0.0,8.482829932054893,,,0,195,0.0,35,8025993,7,41.771202087402344,-127.12045663789775,0.03947734493441529,1,-1905.078713456772,7.810599054209888E-4,1.57542003E9,,,,0,,4,,1.57542003E9
Raw,2065683115,1937291000000,,,-1311985616708863391,0.0,8.482829932054893,,,0,7,0.0,16431,176339879835495,7,35.948707580566406,-91.30466010309266,0.07791998443215786,1,-197127.85850444916,0.0014618287095800042,1.56109798E9,,,,0,,5,,1.56109798E9
Raw,2065683116,1937291000000,,,-1311985616708863391,0.0,8.482829932054893,,,0,8,0.0,16431,176339878273456,24,25.52840232849121,-192.73923976898197,0.2500659956780896,4,-406148.9181198885,3.4028234663852886E38,1.56109798E9,,,,0,,5,,1.56109798E9
Raw,2065683116,1937291000000,,,-1311985616708863391,0.0,8.482829932054893,,,0,10,0.0,16431,176339880500867,11,31.94976234436035,-157.49659938490686,0.1215133684555591,1,-288910.78415723844,0.002316561061888933,1.56109798E9,,,,0,,5,,1.56109798E9
Raw,2065683116,1937291000000,,,-1311985616708863391,0.0,8.482829932054893,,,0,30,0.0,16431,176339924793338,18,28.065452575683594,-303.63654934939154,0.18513269195978255,1,-244829.07700067208,0.0034157258924096823,1.56109798E9,,,,0,,5,,1.56109798E9
Raw,2065683117,1937291000000,,,-1311985616708863391,0.0,8.482829932054893,,,0,32,0.0,16431,176339913949301,9,34.152915954589844,-650.2198568438721,0.09393783201844491,1,-500961.479596429,0.0017975711962208152,1.56109798E9,,,,0,,5,,1.56109798E9
Raw,2065683117,1937291000000,,,-1311985616708863391,0.0,8.482829932054893,,,0,33,0.0,16431,176339910761411,14,30.38038444519043,60.790866834802046,0.14309491080000336,1,16792.76859360901,0.0026165940798819065,1.56109798E9,,,,0,,5,,1.56109798E9
Raw,2065683117,1937291000000,,,-1311985616708863391,0.0,8.482829932054893,,,0,36,0.0,16431,176339921059656,20,27.103946685791016,-286.6429342797487,0.20603119558142702,1,-286197.935519377,0.0038155601359903812,1.56109798E9,,,,0,,5,,1.56109798E9
Fix,gps,34.486339,109.463886,356.599182,0.000000,3.000000,1627952336999
Raw,2065684175,1938291000000,,,-1311985616708863776,0.0,8.145947456635316,,,0,1,0.0,16431,176354924647185,6,45.101016998291016,511.8710541931323,0.030835917398715426,1,624049.3272213466,5.323454970493913E-4,1.57542003E9,,,,0,,1,,1.57542003E9
Raw,2065684175,1938291000000,,,-1311985616708863776,0.0,8.145947456635316,,,0,2,0.0,16,1938015199653,1000000000,7.0,-681.900454490607,2.99792458E8,2,-10.225882157961083,3.4028234663852886E38,1.57542003E9,,,,0,,1,,1.57542003E9
Raw,2065684176,1938291000000,,,-1311985616708863776,0.0,8.145947456635316,,,0,3,0.0,16431,176354926159583,6,44.95185089111328,-133.34680168715323,0.03110795714293625,1,-20158.26934397304,5.415668128989637E-4,1.57542003E9,,,,0,,1,,1.57542003E9
Raw,2065684177,1938291000000,,,-1311985616708863776,0.0,8.145947456635316,,,0,6,0.0,16,1938005269498,1000000000,24.803037643432617,-618.7787225366665,2.99792458E8,2,-524291.0854631014,3.4028234663852886E38,1.57542003E9,,,,0,,1,,1.57542003E9
Raw,2065684177,1938291000000,,,-1311985616708863776,0.0,8.145947456635316,,,0,14,0.0,16431,176354932512734,20,33.455360412597656,-31.40201190742451,0.10132487163327458,1,-259073.65748434726,0.0019301795400679111,1.57542003E9,,,,0,,1,,1.57542003E9
Raw,2065684177,1938291000000,,,-1311985616708863776,0.0,8.145947456635316,,,0,17,0.0,16431,176354929695810,18,34.10383605957031,-178.84873011837146,0.09369080909686467,1,-146163.74446872677,0.00179132295306772,1.57542003E9,,,,0,,1,,1.57542003E9
Raw,2065684177,1938291000000,,,-1311985616708863776,0.0,8.145947456635316,,,0,19,0.0,16431,176354928135790,166,34.095985412597656,-426.9852538949642,0.09349336217039256,1,-552113.1207065871,0.0017929428722709417,1.57542003E9,,,,1,,1,,1.57542003E9
Raw,2065684178,1938291000000,,,-1311985616708863776,0.0,8.145947456635316,,,0,21,0.0,39,2915133278,7,41.42913818359375,469.0656359952434,0.04228348521676986,1,526171.6451184823,7.707416662015021E-4,1.57542003E9,,,,0,,1,,1.57542003E9
Raw,2065684178,1938291000000,,,-1311985616708863776,0.0,8.145947456635316,,,0,22,0.0,16431,176354922495630,6,45.29022979736328,189.7366605554637,0.030448903449659656,1,1515.7701220150539,5.208742222748697E-4,1.57542003E9,,,,0,,1,,1.57542003E9
Raw,2065684178,1938291000000,,,-1311985616708863776,0.0,8.145947456635316,,,0,24,0.0,16431,176354916990348,13,36.97309112548828,-353.75752826270605,0.06913670822532555,1,-541036.2557193785,0.0012873931555077434,1.57542003E9,,,,0,,1,,1.57542003E9
Raw,2065684179,1938291000000,,,-1311985616708863776,0.0,8.145947456635316,,,0,30,0.0,16431,176354920629656,40,27.338600158691406,493.0115609586917,0.20406496401982055,1,27602.893559049407,0.0036800988018512726,1.57542003E9,,,,0,,1,,1.57542003E9
Raw,2065684179,1938291000000,,,-1311985616708863776,0.0,8.145947456635316,,,0,10,0.0,32995,14336922711606,33,37.926483154296875,-827.8248329175849,0.05969900891287655,1,-553303.2575346929,0.0011372191365808249,1.59806246E9,,,,0,,3,,1.59806246E9
Raw,2065684179,1938291000000,,,-1311985616708863776,0.0,8.145947456635316,,,0,18,0.0,17,555692,45,32.4395637512207,381.528765898905,0.1127244964352474,4,307.9372117140459,3.4028234663852886E38,1.60031245E9,,,,0,,3,,1.60031245E9
Raw,2065684179,1938291000000,,,-1311985616708863776,0.0,8.145947456635316,,,0,9,0.0,16,1938003489104,1000000000,31.37750244140625,-317.4050438056504,2.99792458E8,2,-524288.9532714093,3.4028234663852886E38,1.59862502E9,,,,0,,3,,1.59862502E9
Raw,2065684180,1938291000000,,,-1311985616708863776,0.0,8.145947456635316,,,0,16,0.0,32995,14336932134988,57,30.380455017089844,433.8753973880721,0.14334082704025608,1,26684.62508598442,0.0025506634265184402,1.60143744E9,,,,0,,3,,1.60143744E9
Raw,2065684180,1938291000000,,,-1311985616708863776,0.0,8.145947456635316,,,0,19,0.0,99,933179504,62,29.669294357299805,7.59498040984402,0.15557238496859782,1,44.97022375048017,0.002764402888715267,1.60368755E9,,,,0,,3,,1.60368755E9
Raw,2065684180,1938291000000,,,-1311985616708863776,0.0,8.145947456635316,,,0,3,0.0,99,922948878,33,46.467628479003906,-465.0320113482253,0.03053043382798598,1,-1055095.4121448807,4.465139645617455E-4,1.60481254E9,,,,0,,3,,1.60481254E9
Raw,2065684181,1938291000000,,,-1311985616708863776,0.0,8.145947456635316,,,0,193,0.0,35,11533153,10,38.83464050292969,-180.27627380982938,0.05540757331484658,1,-22859.602300785875,0.0010390433017164469,1.57542003E9,,,,0,,4,,1.57542003E9
Raw,2065684181,1938291000000,,,-1311985616708863776,0.0,8.145947456635316,,,0,194,0.0,35,15935970,12,37.5587272644043,-140.53502182439547,0.06463853124185473,1,-114957.03350225503,0.0012034536339342594,1.57542003E9,,,,0,,4,,1.57542003E9
Raw,2065684181,1938291000000,,,-1311985616708863776,0.0,8.145947456635316,,,0,195,0.0,35,8026403,15,35.454647064208984,-127.20049076642744,0.0801476091307779,1,-2032.263047011971,0.001533321919851005,1.57542003E9,,,,0,,4,,1.57542003E9
Raw,2065684182,1938291000000,,,-1311985616708863776,0.0,8.145947456635316,,,0,7,0.0,16431,176340879835802,7,35.905582427978516,-91.25149147091707,0.07829011525028473,1,-197219.12778715053,0.0014691046671941876,1.56109798E9,,,,0,,5,,1.56109798E9
Raw,2065684182,1938291000000,,,-1311985616708863776,0.0,8.145947456635316,,,0,8,0.0,16431,176340878274069,13,30.687101364135742,-192.77661118255924,0.13954861289279802,4,-406341.6719047861,3.4028234663852886E38,1.56109798E9,,,,0,,5,,1.56109798E9
Raw,2065684182,1938291000000,,,-1311985616708863776,0.0,8.145947456635316,,,0,10,0.0,16431,176340880501364,12,31.858415603637695,-157.5922688403664,0.12275914215203593,1,-289068.3674468916,0.00234105228446424,1.56109798E9,,,,0,,5,,1.56109798E9
Raw,2065684182,1938291000000,,,-1311985616708863776,0.0,8.145947456635316,,,0,30,0.0,16431,176340924794386,22,26.487316131591797,-303.7084974151112,0.2218472693668787,1,-245132.8422899875,0.004096281249076128,1.56109798E9,,,,0,,5,,1.56109798E9
Raw,2065684183,1938291000000,,,-1311985616708863776,0.0,8.145947456635316,,,0,32,0.0,16431,176340913951492,9,33.62715148925781,-650.2443280476555,0.09964343161389216,1,-501611.67913523386,0.0019097401527687907,1.56109798E9,,,,0,,5,,1.56109798E9
Raw,2065684183,1938291000000,,,-1311985616708863776,0.0,8.145947456635316,,,0,33,0.0,16431,176340910761205,14,30.226606369018555,60.83884215266497,0.14561624705876552,1,16853.560681898845,0.0026633318047970533,1.56109798E9,,,,0,,5,,1.56109798E9
Raw,2065684183,1938291000000,,,-1311985616708863776,0.0,8.145947456635316,,,0,36,0.0,16431,176340921060663,17,28.49782371520996,-286.5457651962022,0.175513118308113,1,-286484.52563890535,0.00324985827319324,1.56109798E9,,,,0,,5,,1.56109798E9
Fix,gps,34.486339,109.463886,356.586914,0.000000,3.000000,1627952337999
Raw,2065685124,1939291000000,,,-1311985616708864161,0.0,7.964979385282775,,,0,1,0.0,16431,176355924645486,6,44.48199462890625,511.8663167316756,0.030835611605190716,1,624561.2107157094,5.716692539863288E-4,1.57542003E9,,,,0,,1,,1.57542003E9
Raw,2065685125,1939291000000,,,-1311985616708864161,0.0,7.964979385282775,,,0,2,0.0,16,1939015201928,1000000000,7.0,-681.900454490607,2.99792458E8,2,-10.220549603064281,3.4028234663852886E38,1.57542003E9,,,,0,,1,,1.57542003E9
Raw,2065685125,1939291000000,,,-1311985616708864161,0.0,7.964979385282775,,,0,3,0.0,16431,176355926160019,6,45.023826599121094,-133.24703381629683,0.031108036191602503,1,-20291.549953049976,5.370974540710449E-4,1.57542003E9,,,,0,,1,,1.57542003E9
Raw,2065685125,1939291000000,,,-1311985616708864161,0.0,7.964979385282775,,,0,6,0.0,16,1939005271562,1000000000,27.19686508178711,-618.7787225366665,2.99792458E8,2,-524291.0806241673,3.4028234663852886E38,1.57542003E9,,,,0,,1,,1.57542003E9
Raw,2065685126,1939291000000,,,-1311985616708864161,0.0,7.964979385282775,,,0,14,0.0,16431,176355932512821,18,33.988853454589844,-31.260192675679562,0.09542279033717471,1,-259105.0191592073,0.0018151942640542984,1.57542003E9,,,,0,,1,,1.57542003E9
Raw,2065685126,1939291000000,,,-1311985616708864161,0.0,7.964979385282775,,,0,17,0.0,16431,176355929696379,14,36.47490692138672,-178.8193510408488,0.07172559781008392,1,-146342.62245677022,0.0013633908238261938,1.57542003E9,,,,0,,1,,1.57542003E9
Raw,2065685126,1939291000000,,,-1311985616708864161,0.0,7.964979385282775,,,0,19,0.0,16431,176355928137275,166,31.76145362854004,-426.92986990311465,0.12187177510834402,1,-552540.1067099742,0.002345811342820525,1.57542003E9,,,,1,,1,,1.57542003E9
Raw,2065685127,1939291000000,,,-1311985616708864161,0.0,7.964979385282775,,,0,21,0.0,39,3915131726,7,41.627315521240234,468.9942673312846,0.04139079278924626,1,526640.6729189411,7.533553871326149E-4,1.57542003E9,,,,0,,1,,1.57542003E9
Raw,2065685127,1939291000000,,,-1311985616708864161,0.0,7.964979385282775,,,0,22,0.0,16431,176355922495002,6,44.714820861816406,189.80802921942245,0.030448791117344456,1,1705.554626643719,5.565488827414811E-4,1.57542003E9,,,,0,,1,,1.57542003E9
Raw,2065685128,1939291000000,,,-1311985616708864161,0.0,7.964979385282775,,,0,24,0.0,16431,176355916991511,13,36.77229690551758,-353.6067133925926,0.07068233847563155,1,-541389.9343011911,0.0013175008352845907,1.57542003E9,,,,0,,1,,1.57542003E9
Raw,2065685128,1939291000000,,,-1311985616708864161,0.0,7.964979385282775,,,0,30,0.0,16431,176355920628030,54,24.791336059570312,493.0801689436721,0.2723449053562058,4,28095.917467490955,3.4028234663852886E38,1.57542003E9,,,,0,,1,,1.57542003E9
Raw,2065685129,1939291000000,,,-1311985616708864161,0.0,7.964979385282775,,,0,10,0.0,32995,14337922714345,33,37.407859802246094,-827.7521691202783,0.0633426032468693,1,-554131.0733184167,0.0012071890523657203,1.59806246E9,,,,0,,3,,1.59806246E9
Raw,2065685129,1939291000000,,,-1311985616708864161,0.0,7.964979385282775,,,0,18,0.0,17,554480,43,32.75275421142578,381.5134969583828,0.10878025090030685,4,2.6695976896077127,3.4028234663852886E38,1.60031245E9,,,,0,,3,,1.60031245E9
Raw,2065685129,1939291000000,,,-1311985616708864161,0.0,7.964979385282775,,,0,9,0.0,16,1939003490040,1000000000,32.592750549316406,-317.31380506953883,2.99792458E8,2,-524288.9480296326,3.4028234663852886E38,1.59862502E9,,,,0,,3,,1.59862502E9
Raw,2065685130,1939291000000,,,-1311985616708864161,0.0,7.964979385282775,,,0,16,0.0,32995,14337932133556,57,30.382610321044922,434.05180818303415,0.1433055796560201,1,27118.564356207156,0.002550030592828989,1.60143744E9,,,,0,,3,,1.60143744E9
Raw,2065685130,1939291000000,,,-1311985616708864161,0.0,7.964979385282775,,,0,19,0.0,99,1933179463,54,30.822124481201172,7.65379820918826,0.13653037671797807,1,52.582220924893164,0.0024208049289882183,1.60368755E9,,,,0,,3,,1.60368755E9
Raw,2065685130,1939291000000,,,-1311985616708864161,0.0,7.964979385282775,,,0,3,0.0,99,1922950411,33,46.31668472290039,-464.9715149878973,0.030530710498317862,1,-1055560.3961243303,4.543413233477622E-4,1.60481254E9,,,,0,,3,,1.60481254E9
Raw,2065685131,1939291000000,,,-1311985616708864161,0.0,7.964979385282775,,,0,193,0.0,35,11533751,10,38.80945587158203,-180.25960748858972,0.055562541984348734,1,-23039.84737968306,0.0010420604376122355,1.57542003E9,,,,0,,4,,1.57542003E9
Raw,2065685131,1939291000000,,,-1311985616708864161,0.0,7.964979385282775,,,0,194,0.0,35,15936443,11,38.33650207519531,-140.4995590283835,0.05934769167731757,1,-115097.55634742793,0.0011003748513758183,1.57542003E9,,,,0,,4,,1.57542003E9
Raw,2065685131,1939291000000,,,-1311985616708864161,0.0,7.964979385282775,,,0,195,0.0,35,8026838,166,31.38987159729004,-127.22025859121067,0.1271147403043255,1,-2159.4873298399643,0.002308319555595517,1.57542003E9,,,,1,,4,,1.57542003E9
Raw,2065685132,1939291000000,,,-1311985616708864161,0.0,7.964979385282775,,,0,7,0.0,16431,176341879836105,7,35.454288482666016,-91.27251182597752,0.08227514989701112,1,-197310.40418542124,0.0015474532265216112,1.56109798E9,,,,0,,5,,1.56109798E9
Raw,2065685132,1939291000000,,,-1311985616708864161,0.0,7.964979385282775,,,0,8,0.0,16431,176341878274724,11,31.926008224487305,-192.69160953599135,0.12143560120979197,4,-406534.40445828764,3.4028234663852886E38,1.56109798E9,,,,0,,5,,1.56109798E9
Raw,2065685132,1939291000000,,,-1311985616708864161,0.0,7.964979385282775,,,0,10,0.0,16431,176341880501908,12,31.510761260986328,-157.49946231125477,0.12762174180783903,1,-289225.9564762118,0.0024366541765630245,1.56109798E9,,,,0,,5,,1.56109798E9
Raw,2065685133,1939291000000,,,-1311985616708864161,0.0,7.964979385282775,,,0,30,0.0,16431,176341924795417,25,25.409847259521484,-303.59817250334686,0.2510330188146265,1,-245436.5843085033,0.004637280013412237,1.56109798E9,,,,0,,5,,1.56109798E9
Raw,2065685133,1939291000000,,,-1311985616708864161,0.0,7.964979385282775,,,0,32,0.0,16431,176341913953662,9,34.122650146484375,-650.1298791586519,0.09425776277304587,1,-502261.86296692403,0.0018038456328213215,1.56109798E9,,,,0,,5,,1.56109798E9
Raw,2065685133,1939291000000,,,-1311985616708864161,0.0,7.964979385282775,,,0,33,0.0,16431,176341910761012,15,29.685131072998047,60.87844170683741,0.1548583175640662,1,16914.414456840408,0.0028346478939056396,1.56109798E9,,,,0,,5,,1.56109798E9
Raw,2065685134,1939291000000,,,-1311985616708864161,0.0,7.964979385282775,,,0,36,0.0,16431,176341921061622,16,29.245586395263672,-286.41734250002423,0.16105133955653328,1,-286771.055133849,0.0029817847535014153,1.56109798E9,,,,0,,5,,1.56109798E9
Fix,gps,34.486339,109.463886,356.614624,0.000000,3.000000,1627952338999
Raw,2065686104,1940291000000,,,-1311985616708864546,0.0,8.053574236226266,,,0,1,0.0,16431,176356924643785,7,41.54110336303711,511.1783282643062,0.039889991453617185,1,625072.922096599,8.020274108275771E-4,1.57542003E9,,,,0,,1,,1.57542003E9
Raw,2065686105,1940291000000,,,-1311985616708864546,0.0,8.053574236226266,,,0,2,0.0,16,1940015204202,1000000000,7.0,-681.7147732674707,2.99792458E8,2,-10.212434718326774,3.4028234663852886E38,1.57542003E9,,,,0,,1,,1.57542003E9
Raw,2065686105,1940291000000,,,-1311985616708864546,0.0,8.053574236226266,,,0,3,0.0,16431,176356926160475,6,44.795677185058594,-133.91557824222002,0.031108119400724873,1,-20425.025154581363,5.513923242688179E-4,1.57542003E9,,,,0,,1,,1.57542003E9
Raw,2065686105,1940291000000,,,-1311985616708864546,0.0,8.053574236226266,,,0,6,0.0,16,1940005273626,1000000000,30.88687515258789,-618.5930413135302,2.99792458E8,2,-524291.0748623222,3.4028234663852886E38,1.57542003E9,,,,0,,1,,1.57542003E9
Raw,2065686105,1940291000000,,,-1311985616708864546,0.0,8.053574236226266,,,0,14,0.0,16431,176356932512920,10,39.36278533935547,-31.38769940583846,0.05243751938233507,1,-259136.31009347775,9.777469094842672E-4,1.57542003E9,,,,0,,1,,1.57542003E9
Raw,2065686106,1940291000000,,,-1311985616708864546,0.0,8.053574236226266,,,0,17,0.0,16431,176356929696994,8,40.96590042114258,-178.77028934468422,0.04347280984463078,1,-146521.4068587534,8.129628258757293E-4,1.57542003E9,,,,0,,1,,1.57542003E9
Raw,2065686106,1940291000000,,,-1311985616708864546,0.0,8.053574236226266,,,0,19,0.0,16431,176356928138545,166,28.581560134887695,-426.53751266362406,0.17510416211348823,4,-552966.9813197159,3.4028234663852886E38,1.57542003E9,,,,1,,1,,1.57542003E9
Raw,2065686106,1940291000000,,,-1311985616708864546,0.0,8.053574236226266,,,0,21,0.0,39,4915130147,7,41.97739028930664,468.4058337194183,0.03986299841432031,1,527109.3982668254,7.627371232956648E-4,1.57542003E9,,,,0,,1,,1.57542003E9
Raw,2065686106,1940291000000,,,-1311985616708864546,0.0,8.053574236226266,,,0,22,0.0,16431,176356922494371,8,40.88292694091797,189.0808288858235,0.04257775843848799,1,1895.180974143074,8.207661448977888E-4,1.57542003E9,,,,0,,1,,1.57542003E9
Raw,2065686107,1940291000000,,,-1311985616708864546,0.0,8.053574236226266,,,0,24,0.0,16431,176356916992741,18,34.22266387939453,-352.5363197630372,0.09375403970895374,1,-541743.1546425486,0.0017669834196567535,1.57542003E9,,,,0,,1,,1.57542003E9
Raw,2065686107,1940291000000,,,-1311985616708864546,0.0,8.053574236226266,,,0,30,0.0,16,1940020626522,1000000000,32.72732162475586,493.09220005082466,2.99792458E8,2,9.854643906604906,3.4028234663852886E38,1.57542003E9,,,,0,,1,,1.57542003E9
Raw,2065686107,1940291000000,,,-1311985616708864546,0.0,8.053574236226266,,,0,10,0.0,32995,14338922717023,33,38.65555953979492,-827.2745375745676,0.054932786223058666,1,-554958.5924818391,0.0010456596501171589,1.59806246E9,,,,0,,3,,1.59806246E9
Raw,2065686107,1940291000000,,,-1311985616708864546,0.0,8.053574236226266,,,0,2,0.0,16,1940009977575,1000000000,27.79444122314453,44.292614708875874,2.99792458E8,2,0.43674602918144956,3.4028234663852886E38,1.59975002E9,,,,0,,3,,1.59975002E9
Raw,2065686108,1940291000000,,,-1311985616708864546,0.0,8.053574236226266,,,0,18,0.0,17,553191,64,29.3847599029541,381.30198123320224,0.15966209669126585,4,384.17534934837096,3.4028234663852886E38,1.60031245E9,,,,0,,3,,1.60031245E9
Raw,2065686108,1940291000000,,,-1311985616708864546,0.0,8.053574236226266,,,0,9,0.0,17,491180,42,32.9018440246582,-317.1455058992292,0.10801998579103533,4,-524545.6785611142,3.4028234663852886E38,1.59862502E9,,,,0,,3,,1.59862502E9
Raw,2065686108,1940291000000,,,-1311985616708864546,0.0,8.053574236226266,,,0,16,0.0,32995,14338932132041,74,28.080650329589844,434.0790741482524,0.18613058568071872,4,27552.746143990924,3.4028234663852886E38,1.60143744E9,,,,0,,3,,1.60143744E9
Raw,2065686109,1940291000000,,,-1311985616708864546,0.0,8.053574236226266,,,0,19,0.0,99,933179416,55,30.558013916015625,8.01472609838099,0.14067241033679245,1,60.42098801380988,0.0024955447297543287,1.60368755E9,,,,0,,3,,1.60368755E9
Raw,2065686109,1940291000000,,,-1311985616708864546,0.0,8.053574236226266,,,0,3,0.0,99,922951967,33,45.603355407714844,-465.75346878790015,0.030530989248877802,1,-1056025.666229062,4.932291340082884E-4,1.60481254E9,,,,0,,3,,1.60481254E9
Raw,2065686109,1940291000000,,,-1311985616708864546,0.0,8.053574236226266,,,0,193,0.0,35,11534345,10,39.21921157836914,-181.0225603190811,0.05309795850749913,1,-23220.41169425306,9.940428426489234E-4,1.57542003E9,,,,0,,4,,1.57542003E9
Raw,2065686110,1940291000000,,,-1311985616708864546,0.0,8.053574236226266,,,0,194,0.0,35,15936895,15,35.954891204833984,-141.27479858445133,0.07716579358881936,1,-115238.23971840674,0.0014475088100880384,1.57542003E9,,,,0,,4,,1.57542003E9
Raw,2065686110,1940291000000,,,-1311985616708864546,0.0,8.053574236226266,,,0,195,0.0,35,8027261,10,38.92525100708008,-127.64719248284365,0.054223474219870504,1,-2286.9144317955715,0.0010838817106559873,1.57542003E9,,,,0,,4,,1.57542003E9
Raw,2065686110,1940291000000,,,-1311985616708864546,0.0,8.053574236226266,,,0,7,0.0,16431,176342879836393,9,33.8206901550293,-91.76486699290604,0.09856157988848452,1,-197401.72413860096,0.0017608448397368193,1.56109798E9,,,,0,,5,,1.56109798E9
Raw,2065686110,1940291000000,,,-1311985616708864546,0.0,8.053574236226266,,,0,8,0.0,16431,176342878275347,10,32.83573532104492,-192.9527152354126,0.10968727193870259,1,-406727.08775716345,0.0020919200032949448,1.56109798E9,,,,0,,5,,1.56109798E9
Raw,2065686111,1940291000000,,,-1311985616708864546,0.0,8.053574236226266,,,0,10,0.0,16431,176342880502423,9,33.76243591308594,-157.68853473881506,0.09932061350274496,1,-289383.51176644186,0.0018802261911332607,1.56109798E9,,,,0,,5,,1.56109798E9
Raw,2065686111,1940291000000,,,-1311985616708864546,0.0,8.053574236226266,,,0,30,0.0,16431,176342924796371,14,30.042030334472656,-303.0801873291132,0.147629242147144,1,-245740.02860448422,0.0027205334044992924,1.56109798E9,,,,0,,5,,1.56109798E9
Raw,2065686111,1940291000000,,,-1311985616708864546,0.0,8.053574236226266,,,0,32,0.0,16431,176342913955818,8,35.328582763671875,-650.8755351424579,0.08236479940545272,1,-502912.3306424474,0.0015700110234320164,1.56109798E9,,,,0,,5,,1.56109798E9
