# 
# Header Description:
# 
# Version: v2.0.0.1 Platform: 10 Manufacturer: HUAWEI Model: BLA-AL00
# 
# Raw,ElapsedRealtimeMillis,TimeNanos,LeapSecond,TimeUncertaintyNanos,FullBiasNanos,BiasNanos,BiasUncertaintyNanos,DriftNanosPerSecond,DriftUncertaintyNanosPerSecond,HardwareClockDiscontinuityCount,Svid,TimeOffsetNanos,State,ReceivedSvTimeNanos,ReceivedSvTimeUncertaintyNanos,Cn0DbHz,PseudorangeRateMetersPerSecond,PseudorangeRateUncertaintyMetersPerSecond,AccumulatedDeltaRangeState,AccumulatedDeltaRangeMeters,AccumulatedDeltaRangeUncertaintyMeters,CarrierFrequencyHz,CarrierCycles,CarrierPhase,CarrierPhaseUncertainty,MultipathIndicator,SnrInDb,ConstellationType,AgcDb,CarrierFrequencyHz
# 
# Fix,Provider,Latitude,Longitude,Altitude,Speed,Accuracy,(UTC)TimeInMs
# 
# Nav,Svid,Type,Status,MessageId,Sub-messageId,Data(Bytes)
# 
Fix,gps,34.486390,109.464170,359.781250,0.617577,3.000000,1627820268999
Raw,1933615507,1616824000000,,,-1311853870175810988,0.0,12.14832229979592,,,0,10,0.0,16431,44286931545412,6,42.65604019165039,-346.04851966918113,0.03642669880643218,1,-660749.8508362074,7.054114248603582E-4,1.57542003E9,,,,0,,1,,1.57542003E9
Raw,1933615507,1616824000000,,,-1311853870175810988,0.0,12.14832229979592,,,0,12,0.0,16431,44286923619532,14,36.37313461303711,-475.70118353812586,0.07145733159956258,4,-818932.848702391,3.4028234663852886E38,1.57542003E9,,,,0,,1,,1.57542003E9
Raw,1933615507,1616824000000,,,-1311853870175810988,0.0,12.14832229979592,,,0,15,0.0,16431,44286916332736,57,24.26352882385254,416.3974706112401,0.28840225231288197,4,770029.269349059,3.4028234663852886E38,1.57542003E9,,,,0,,1,,1.57542003E9
Raw,1933615508,1616824000000,,,-1311853870175810988,0.0,12.14832229979592,,,0,18,0.0,16431,44286921146172,8,41.327789306640625,563.7901212652207,0.04023187277469939,1,875671.2223414903,7.797873113304377E-4,1.57542003E9,,,,0,,1,,1.57542003E9
Raw,1933615508,1616824000000,,,-1311853870175810988,0.0,12.14832229979592,,,0,23,0.0,16431,44286931335584,18,33.970882415771484,113.3349805976764,0.09540403500099248,4,57560.97229553448,3.4028234663852886E38,1.57542003E9,,,,0,,1,,1.57542003E9
Raw,1933615508,1616824000000,,,-1311853870175810988,0.0,12.14832229979592,,,0,24,0.0,16431,44286926052963,20,33.38470458984375,460.4495909862769,0.10097215648445979,4,542664.4627065965,3.4028234663852886E38,1.57542003E9,,,,0,,1,,1.57542003E9
Raw,1933615508,1616824000000,,,-1311853870175810988,0.0,12.14832229979592,,,0,25,0.0,16431,44286922866626,8,40.818389892578125,-705.2087648574266,0.042958906144416664,1,-922341.1963040743,8.268870296888053E-4,1.57542003E9,,,,0,,1,,1.57542003E9
Raw,1933615508,1616824000000,,,-1311853870175810988,0.0,12.14832229979592,,,0,31,0.0,16,1616017951744,1000000000,23.153366088867188,-830.236575706052,2.99792458E8,2,-14.108391458558893,3.4028234663852886E38,1.57542003E9,,,,0,,1,,1.57542003E9
Raw,1933615508,1616824000000,,,-1311853870175810988,0.0,12.14832229979592,,,0,32,0.0,16431,44286927007679,7,42.513633728027344,-399.51898607973135,0.03617829461342059,4,-683231.1035158028,3.4028234663852886E38,1.57542003E9,,,,0,,1,,1.57542003E9
Raw,1933615509,1616824000000,,,-1311853870175810988,0.0,12.14832229979592,,,0,10,0.0,32995,55068930395653,33,40.175682067871094,-779.0949635497054,0.047572889423946135,4,-1364706.6535223525,3.4028234663852886E38,1.59806246E9,,,,0,,3,,1.59806246E9
Raw,1933615509,1616824000000,,,-1311853870175810988,0.0,12.14832229979592,,,0,9,0.0,32995,55068933645465,38,33.788108825683594,-104.98512809476722,0.09780497598059729,1,-385215.4959495657,0.001828097039833665,1.59862502E9,,,,0,,3,,1.59862502E9
Raw,1933615509,1616824000000,,,-1311853870175810988,0.0,12.14832229979592,,,0,16,0.0,99,924889118,55,30.622905731201172,535.8401552270161,0.1381517979973949,4,541364.1941902359,3.4028234663852886E38,1.60143744E9,,,,0,,3,,1.60143744E9
Raw,1933615509,1616824000000,,,-1311853870175810988,0.0,12.14832229979592,,,0,23,0.0,32961,55068924507389,33,36.11604309082031,-6.499479725675755,0.0737441429469245,4,-8210.811034600705,3.4028234663852886E38,1.60368755E9,,,,0,,3,,1.60368755E9
Raw,1933615509,1616824000000,,,-1311853870175810988,0.0,12.14832229979592,,,0,7,0.0,32995,55068932806153,61,29.77806854248047,-172.19627767705367,0.15359864794415357,4,-337528.3623162125,3.4028234663852886E38,1.60481254E9,,,,0,,3,,1.60481254E9
Raw,1933615509,1616824000000,,,-1311853870175810988,0.0,12.14832229979592,,,0,8,0.0,32961,55068927413507,166,21.037965774536133,-561.5042109062358,4.201333498529982,4,-564723.6642303738,3.4028234663852886E38,1.60537498E9,,,,1,,3,,1.60537498E9
Raw,1933615510,1616824000000,,,-1311853870175810988,0.0,12.14832229979592,,,0,193,0.0,35,9305311,23,32.10337448120117,-254.60709518867657,0.11743409947774852,4,-397527.7569082243,3.4028234663852886E38,1.57542003E9,,,,0,,4,,1.57542003E9
Raw,1933615510,1616824000000,,,-1311853870175810988,0.0,12.14832229979592,,,0,194,0.0,35,12367141,19,33.7252082824707,-103.54413887421106,0.09826804306749937,1,-61459.26676587861,0.0018711354350671172,1.57542003E9,,,,0,,4,,1.57542003E9
Raw,1933615510,1616824000000,,,-1311853870175810988,0.0,12.14832229979592,,,0,6,0.0,16431,44272878573546,13,30.86486053466797,-78.69116045409294,0.1368421862622357,4,-104563.99824825476,3.4028234663852886E38,1.56109798E9,,,,0,,5,,1.56109798E9
Raw,1933615510,1616824000000,,,-1311853870175810988,0.0,12.14832229979592,,,0,14,0.0,16431,44272924435164,17,28.827842712402344,129.7351348931158,0.16958371945713901,4,141127.2522917808,3.4028234663852886E38,1.56109798E9,,,,0,,5,,1.56109798E9
Raw,1933615510,1616824000000,,,-1311853870175810988,0.0,12.14832229979592,,,0,16,0.0,16431,44272877932058,14,30.12022590637207,-77.15084643461518,0.14867664529589042,4,-103510.80681930705,3.4028234663852886E38,1.56109798E9,,,,0,,5,,1.56109798E9
Raw,1933615510,1616824000000,,,-1311853870175810988,0.0,12.14832229979592,,,0,24,0.0,16431,44272924171692,13,31.15675926208496,24.142097192733004,0.12983974753191307,4,-80859.85095302972,3.4028234663852886E38,1.56109798E9,,,,0,,5,,1.56109798E9
Raw,1933615511,1616824000000,,,-1311853870175810988,0.0,12.14832229979592,,,0,25,0.0,16431,44272922845597,8,35.405704498291016,-583.3823191499887,0.07966042804021295,1,-678550.659846501,0.001556132803671062,1.56109798E9,,,,0,,5,,1.56109798E9
Raw,1933615511,1616824000000,,,-1311853870175810988,0.0,12.14832229979592,,,0,26,0.0,16431,44272915275958,19,27.789308547973633,430.07268138399604,0.19297075830150734,4,583427.4837383251,3.4028234663852886E38,1.56109798E9,,,,0,,5,,1.56109798E9
Raw,1933615511,1616824000000,,,-1311853870175810988,0.0,12.14832229979592,,,0,27,0.0,16431,44272913167118,7,35.41465759277344,119.43142888450933,0.08143549496408625,4,83869.42565820614,3.4028234663852886E38,1.56109798E9,,,,0,,5,,1.56109798E9
Raw,1933615511,1616824000000,,,-1311853870175810988,0.0,12.14832229979592,,,0,33,0.0,16431,44272925994916,12,31.20047378540039,-115.35478365674533,0.1295196337172429,4,-228789.87101692648,3.4028234663852886E38,1.56109798E9,,,,0,,5,,1.56109798E9
Fix,gps,34.486390,109.464164,359.764404,0.569418,3.000000,1627820269999
Raw,1933616544,1617824000000,,,-1311853870175811375,0.0,12.087124007412513,,,0,10,0.0,16431,44287931546566,6,42.748504638671875,-345.9278677730904,0.036063191434445974,1,-661095.8399680564,6.979419267736375E-4,1.57542003E9,,,,0,,1,,1.57542003E9
Raw,1933616544,1617824000000,,,-1311853870175811375,0.0,12.087124007412513,,,0,12,0.0,16431,44287923621107,14,36.102333068847656,-475.67395165536414,0.07369990065656029,4,-819408.5307669638,3.4028234663852886E38,1.57542003E9,,,,0,,1,,1.57542003E9
Raw,1933616545,1617824000000,,,-1311853870175811375,0.0,12.087124007412513,,,0,15,0.0,16431,44287916331497,63,22.22849464416504,416.18070618775505,4.202937770409278,4,770444.8199348522,3.4028234663852886E38,1.57542003E9,,,,0,,1,,1.57542003E9
Raw,1933616545,1617824000000,,,-1311853870175811375,0.0,12.087124007412513,,,0,18,0.0,16431,44287921144304,8,41.370872497558594,563.7864403599162,0.04003349390605673,1,876235.0178112419,8.17901105619967E-4,1.57542003E9,,,,0,,1,,1.57542003E9
Raw,1933616545,1617824000000,,,-1311853870175811375,0.0,12.087124007412513,,,0,23,0.0,16431,44287931335183,23,31.940811157226562,113.64310304587087,0.11998618150722645,4,57674.55908858609,3.4028234663852886E38,1.57542003E9,,,,0,,1,,1.57542003E9
Raw,1933616545,1617824000000,,,-1311853870175811375,0.0,12.087124007412513,,,0,24,0.0,16431,44287926051410,20,33.10091018676758,460.6966887960673,0.10428927150592104,4,543125.152499983,3.4028234663852886E38,1.57542003E9,,,,0,,1,,1.57542003E9
Raw,1933616546,1617824000000,,,-1311853870175811375,0.0,12.087124007412513,,,0,25,0.0,16431,44287922868986,10,39.30667495727539,-705.2093101767309,0.051028060860787816,1,-923046.4196813445,9.84083628281951E-4,1.57542003E9,,,,0,,1,,1.57542003E9
Raw,1933616546,1617824000000,,,-1311853870175811375,0.0,12.087124007412513,,,0,31,0.0,16,1617017954452,1000000000,16.508869171142578,-830.236575706052,2.99792458E8,2,-14.101898894851637,3.4028234663852886E38,1.57542003E9,,,,0,,1,,1.57542003E9
Raw,1933616546,1617824000000,,,-1311853870175811375,0.0,12.087124007412513,,,0,32,0.0,16431,44287927009007,8,40.56343460083008,-399.41394394872805,0.04496831908007712,4,-683630.5650564136,3.4028234663852886E38,1.57542003E9,,,,0,,1,,1.57542003E9
Raw,1933616546,1617824000000,,,-1311853870175811375,0.0,12.087124007412513,,,0,10,0.0,32995,55069930398238,33,42.37958526611328,-778.9616329797882,0.037331248533893524,4,-1365485.6994019637,3.4028234663852886E38,1.59806246E9,,,,0,,3,,1.59806246E9
Raw,1933616546,1617824000000,,,-1311853870175811375,0.0,12.087124007412513,,,0,9,0.0,32995,55069933645862,166,30.995512008666992,-105.0994321333306,0.13396275954535364,1,-385320.305654833,0.0023771291598677635,1.59862502E9,,,,1,,3,,1.59862502E9
Raw,1933616546,1617824000000,,,-1311853870175811375,0.0,12.087124007412513,,,0,16,0.0,99,1924887332,67,28.966604232788086,535.3995713115457,0.16699004118738825,4,541899.4996451355,3.4028234663852886E38,1.60143744E9,,,,0,,3,,1.60143744E9
Raw,1933616547,1617824000000,,,-1311853870175811375,0.0,12.087124007412513,,,0,23,0.0,32961,55069924507421,36,34.25189971923828,-6.251914347184957,0.0912035053691519,4,-8217.232421743467,3.4028234663852886E38,1.60368755E9,,,,0,,3,,1.60368755E9
Raw,1933616547,1617824000000,,,-1311853870175811375,0.0,12.087124007412513,,,0,7,0.0,32995,55069932806887,46,32.180049896240234,-172.73605858223368,0.11704656963213406,4,-337701.2031058766,3.4028234663852886E38,1.60481254E9,,,,0,,3,,1.60481254E9
Raw,1933616547,1617824000000,,,-1311853870175811375,0.0,12.087124007412513,,,0,8,0.0,32961,55069927415438,166,19.870906829833984,-561.5136176642361,4.201333764799173,4,-565285.4374086637,3.4028234663852886E38,1.60537498E9,,,,1,,3,,1.60537498E9
Raw,1933616547,1617824000000,,,-1311853870175811375,0.0,12.087124007412513,,,0,193,0.0,35,9306157,28,30.358993530273438,-254.57543258656688,0.1431811986599012,4,-397782.3568901219,3.4028234663852886E38,1.57542003E9,,,,0,,4,,1.57542003E9
Raw,1933616547,1617824000000,,,-1311853870175811375,0.0,12.087124007412513,,,0,194,0.0,35,12367484,22,32.519630432128906,-103.74648641858698,0.1125681464943139,1,-61562.88818067152,0.0020267858635634184,1.57542003E9,,,,0,,4,,1.57542003E9
Raw,1933616547,1617824000000,,,-1311853870175811375,0.0,12.087124007412513,,,0,6,0.0,16431,44273878573831,11,32.46961212158203,-78.67905266141321,0.11432175378552795,4,-104642.6910672631,3.4028234663852886E38,1.56109798E9,,,,0,,5,,1.56109798E9
Raw,1933616548,1617824000000,,,-1311853870175811375,0.0,12.087124007412513,,,0,14,0.0,16431,44273924434736,14,30.103057861328125,129.5339631934899,0.1465366065194772,4,141256.797858306,3.4028234663852886E38,1.56109798E9,,,,0,,5,,1.56109798E9
Raw,1933616548,1617824000000,,,-1311853870175811375,0.0,12.087124007412513,,,0,16,0.0,16431,44273877932329,11,32.33612823486328,-77.10341217574955,0.11592508540174151,4,-103587.92888685418,3.4028234663852886E38,1.56109798E9,,,,0,,5,,1.56109798E9
Raw,1933616548,1617824000000,,,-1311853870175811375,0.0,12.087124007412513,,,0,24,0.0,16431,44273924171610,19,27.854745864868164,24.737758415535694,0.18954563783920964,4,-80836.11939191258,3.4028234663852886E38,1.56109798E9,,,,0,,5,,1.56109798E9
Raw,1933616548,1617824000000,,,-1311853870175811375,0.0,12.087124007412513,,,0,25,0.0,16431,44273922847521,6,37.2059326171875,-583.3117003000734,0.0648448940257888,1,-679134.0163677778,0.0012648392003029585,1.56109798E9,,,,0,,5,,1.56109798E9
Raw,1933616548,1617824000000,,,-1311853870175811375,0.0,12.087124007412513,,,0,26,0.0,16431,44273915274464,21,26.747703552246094,429.31008641929816,0.217205964372019,4,583857.426042638,3.4028234663852886E38,1.56109798E9,,,,0,,5,,1.56109798E9
Raw,1933616548,1617824000000,,,-1311853870175811375,0.0,12.087124007412513,,,0,27,0.0,16431,44273913166720,10,33.43491744995117,119.56116375526341,0.1016759725251154,4,83988.91535679203,3.4028234663852886E38,1.56109798E9,,,,0,,5,,1.56109798E9
Raw,1933616548,1617824000000,,,-1311853870175811375,0.0,12.087124007412513,,,0,33,0.0,16431,44273925995319,12,31.648822784423828,-115.22750272286089,0.12305803764050172,4,-228905.21381677123,3.4028234663852886E38,1.56109798E9,,,,0,,5,,1.56109798E9
Fix,gps,34.486391,109.464159,359.730103,0.536315,3.000000,1627820270999
Raw,1933617496,1618824000000,,,-1311853870175811765,0.0,11.99297652005384,,,0,10,0.0,16431,44288931547696,7,42.16123580932617,-345.82548407369586,0.03844071736701582,1,-661441.7216827052,7.467627874575555E-4,1.57542003E9,,,,0,,1,,1.57542003E9
Raw,1933617496,1618824000000,,,-1311853870175811765,0.0,11.99297652005384,,,0,12,0.0,16431,44288923622719,16,35.20258331298828,-475.4547332950094,0.08167293219476945,4,-819884.0808465782,3.4028234663852886E38,1.57542003E9,,,,0,,1,,1.57542003E9
Raw,1933617496,1618824000000,,,-1311853870175811765,0.0,11.99297652005384,,,0,15,0.0,16431,44288916330031,64,22.15683364868164,415.49534206953786,4.2029375041400865,4,770860.4185490791,3.4028234663852886E38,1.57542003E9,,,,0,,1,,1.57542003E9
Raw,1933617497,1618824000000,,,-1311853870175811765,0.0,11.99297652005384,,,0,18,0.0,16431,44288921142425,9,40.270606994628906,563.8412108675484,0.04541170304908254,1,876798.8516252652,9.283553226850927E-4,1.57542003E9,,,,0,,1,,1.57542003E9
Raw,1933617497,1618824000000,,,-1311853870175811765,0.0,11.99297652005384,,,0,23,0.0,16431,44288931334772,22,32.343299865722656,113.81049051046853,0.11464533742060096,4,57788.23194143573,3.4028234663852886E38,1.57542003E9,,,,0,,1,,1.57542003E9
Raw,1933617497,1618824000000,,,-1311853870175811765,0.0,11.99297652005384,,,0,24,0.0,16431,44288926049915,22,32.276119232177734,460.8324051379411,0.11456903465538754,4,543585.8531166133,3.4028234663852886E38,1.57542003E9,,,,0,,1,,1.57542003E9
Raw,1933617497,1618824000000,,,-1311853870175811765,0.0,11.99297652005384,,,0,25,0.0,16431,44288922871330,9,39.730186462402344,-705.0668455084656,0.04862467353298533,1,-923751.5528537463,9.372520726174116E-4,1.57542003E9,,,,0,,1,,1.57542003E9
Raw,1933617497,1618824000000,,,-1311853870175811765,0.0,11.99297652005384,,,0,31,0.0,16,1618017957221,1000000000,21.00658416748047,-830.0509626478288,2.99792458E8,2,-14.092255158553112,3.4028234663852886E38,1.57542003E9,,,,0,,1,,1.57542003E9
Raw,1933617497,1618824000000,,,-1311853870175811765,0.0,11.99297652005384,,,0,32,0.0,16431,44288927010339,11,38.64692687988281,-399.3562082673784,0.05575916098005326,4,-684029.9807367374,3.4028234663852886E38,1.57542003E9,,,,0,,1,,1.57542003E9
Raw,1933617498,1618824000000,,,-1311853870175811765,0.0,11.99297652005384,,,0,10,0.0,32995,55070930400842,33,43.768577575683594,-778.8479339048281,0.032091214379247515,1,-1366264.6064817396,6.118122837506235E-4,1.59806246E9,,,,0,,3,,1.59806246E9
Raw,1933617498,1618824000000,,,-1311853870175811765,0.0,11.99297652005384,,,0,9,0.0,32995,55070933646182,166,27.363868713378906,-104.30693833364808,0.20222679129754173,4,-385424.9003434493,3.4028234663852886E38,1.59862502E9,,,,1,,3,,1.59862502E9
Raw,1933617498,1618824000000,,,-1311853870175811765,0.0,11.99297652005384,,,0,16,0.0,99,924885524,77,27.717220306396484,535.4942182933096,0.19268709840334752,4,542434.8904800412,3.4028234663852886E38,1.60143744E9,,,,0,,3,,1.60143744E9
Raw,1933617498,1618824000000,,,-1311853870175811765,0.0,11.99297652005384,,,0,23,0.0,32961,55070924507432,38,33.83742904663086,-6.123608276912922,0.09562138554953553,4,-8223.478020237426,3.4028234663852886E38,1.60368755E9,,,,0,,3,,1.60368755E9
Raw,1933617498,1618824000000,,,-1311853870175811765,0.0,11.99297652005384,,,0,7,0.0,32995,55070932807383,52,31.14421272277832,-172.70241919764567,0.1315796835643217,4,-337873.9880681271,3.4028234663852886E38,1.60481254E9,,,,0,,3,,1.60481254E9
Raw,1933617499,1618824000000,,,-1311853870175811765,0.0,11.99297652005384,,,0,8,0.0,32961,55070927417284,166,21.409164428710938,-561.5374753838021,4.2013342973375565,4,-565846.9032215069,3.4028234663852886E38,1.60537498E9,,,,1,,3,,1.60537498E9
Raw,1933617499,1618824000000,,,-1311853870175811765,0.0,11.99297652005384,,,0,193,0.0,35,9306989,29,30.17763328552246,-254.59063336217605,0.1461670748070314,4,-398036.92103476357,3.4028234663852886E38,1.57542003E9,,,,0,,4,,1.57542003E9
Raw,1933617499,1618824000000,,,-1311853870175811765,0.0,11.99297652005384,,,0,194,0.0,35,12367843,30,29.919757843017578,-103.66975828834,0.1510718032414905,1,-61666.432416703436,0.002734019188210368,1.57542003E9,,,,0,,4,,1.57542003E9
Raw,1933617500,1618824000000,,,-1311853870175811765,0.0,11.99297652005384,,,0,6,0.0,16431,44274878574092,10,32.87376022338867,-78.6285424608464,0.10927623551601856,4,-104721.35772516871,3.4028234663852886E38,1.56109798E9,,,,0,,5,,1.56109798E9
Raw,1933617500,1618824000000,,,-1311853870175811765,0.0,11.99297652005384,,,0,14,0.0,16431,44274924434317,14,30.410619735717773,129.66714891296692,0.14146630857332598,4,141386.37080833546,3.4028234663852886E38,1.56109798E9,,,,0,,5,,1.56109798E9
Raw,1933617500,1618824000000,,,-1311853870175811765,0.0,11.99297652005384,,,0,16,0.0,16431,44274877932595,10,33.002349853515625,-77.070650414417,0.10760407331378041,4,-103665.03597958271,3.4028234663852886E38,1.56109798E9,,,,0,,5,,1.56109798E9
Raw,1933617500,1618824000000,,,-1311853870175811765,0.0,11.99297652005384,,,0,24,0.0,16431,44274924171538,20,27.28594970703125,23.977719635077023,0.20232268149016108,4,-80812.11394027738,3.4028234663852886E38,1.56109798E9,,,,0,,5,,1.56109798E9
Raw,1933617500,1618824000000,,,-1311853870175811765,0.0,11.99297652005384,,,0,25,0.0,16431,44274922849454,6,36.734642028808594,-583.1453779122421,0.0684323430044623,1,-679717.2660690394,0.0013353643007576466,1.56109798E9,,,,0,,5,,1.56109798E9
Raw,1933617500,1618824000000,,,-1311853870175811765,0.0,11.99297652005384,,,0,26,0.0,16431,44274915273028,64,22.118152618408203,428.9920630174838,4.202747387937295,4,584286.7799306518,3.4028234663852886E38,1.56109798E9,,,,0,,5,,1.56109798E9
Raw,1933617501,1618824000000,,,-1311853870175811765,0.0,11.99297652005384,,,0,27,0.0,16431,44274913166320,9,34.36518096923828,119.66609511828301,0.09158977875701857,4,84108.49723892343,3.4028234663852886E38,1.56109798E9,,,,0,,5,,1.56109798E9
Raw,1933617501,1618824000000,,,-1311853870175811765,0.0,11.99297652005384,,,0,33,0.0,16431,44274925995691,10,32.93711471557617,-115.27307096723189,0.10624382882765898,4,-229020.50466002937,3.4028234663852886E38,1.56109798E9,,,,0,,5,,1.56109798E9
Fix,gps,34.486391,109.464156,359.710907,0.371589,3.000000,1627820271999
Raw,1933618539,1619824000000,,,-1311853870175812154,0.0,12.200440099113077,,,0,10,0.0,16431,44289931548860,7,42.00353240966797,-345.74075508678015,0.039107189153551714,1,-661787.5180156855,7.60445196647197E-4,1.57542003E9,,,,0,,1,,1.57542003E9
Raw,1933618539,1619824000000,,,-1311853870175812154,0.0,12.200440099113077,,,0,12,0.0,16431,44289923624307,15,35.95802307128906,-475.39996278737726,0.07492428960858799,4,-820359.5444008221,3.4028234663852886E38,1.57542003E9,,,,0,,1,,1.57542003E9
Raw,1933618539,1619824000000,,,-1311853870175812154,0.0,12.200440099113077,,,0,15,0.0,16431,44289916328637,60,22.91089630126953,415.19862020305027,4.202937237870895,4,771276.015108015,3.4028234663852886E38,1.57542003E9,,,,0,,1,,1.57542003E9
Raw,1933618539,1619824000000,,,-1311853870175812154,0.0,12.200440099113077,,,0,18,0.0,16431,44289921140530,9,40.181976318359375,563.8631940520056,0.045875011442439495,1,877362.7121011708,9.378766408190131E-4,1.57542003E9,,,,0,,1,,1.57542003E9
Raw,1933618539,1619824000000,,,-1311853870175812154,0.0,12.200440099113077,,,0,23,0.0,16431,44289931334433,21,32.80455017089844,113.89672764608537,0.10882146437861678,4,57902.017324383625,3.4028234663852886E38,1.57542003E9,,,,0,,1,,1.57542003E9
Raw,1933618540,1619824000000,,,-1311853870175812154,0.0,12.200440099113077,,,0,24,0.0,16431,44289926048356,28,30.509777069091797,460.8228279676582,0.14015990871029027,4,544046.6323117121,3.4028234663852886E38,1.57542003E9,,,,0,,1,,1.57542003E9
Raw,1933618540,1619824000000,,,-1311853870175812154,0.0,12.200440099113077,,,0,25,0.0,16431,44289922873697,9,39.964691162109375,-704.9991577498113,0.04734364829181639,1,-924456.6304738643,9.12286399397999E-4,1.57542003E9,,,,0,,1,,1.57542003E9
Raw,1933618540,1619824000000,,,-1311853870175812154,0.0,12.200440099113077,,,0,31,0.0,16,1619017960051,1000000000,22.114582061767578,-830.0509626478288,2.99792458E8,2,-14.085764046336314,3.4028234663852886E38,1.57542003E9,,,,0,,1,,1.57542003E9
Raw,1933618540,1619824000000,,,-1311853870175812154,0.0,12.200440099113077,,,0,32,0.0,16431,44289927011681,14,36.544883728027344,-399.4156480715542,0.07068114858518165,1,-684429.3909218817,0.001352451043203473,1.57542003E9,,,,0,,1,,1.57542003E9
Raw,1933618540,1619824000000,,,-1311853870175812154,0.0,12.200440099113077,,,0,10,0.0,32995,55071930403436,33,43.087196350097656,-778.7105816050412,0.03455784480050743,1,-1367043.4008586672,6.617398466914892E-4,1.59806246E9,,,,0,,3,,1.59806246E9
Raw,1933618540,1619824000000,,,-1311853870175812154,0.0,12.200440099113077,,,0,9,0.0,32995,55071933646440,89,26.52940559387207,-104.34878306964396,0.22237128713591692,4,-385529.32282309304,3.4028234663852886E38,1.59862502E9,,,,0,,3,,1.59862502E9
Raw,1933618541,1619824000000,,,-1311853870175812154,0.0,12.200440099113077,,,0,16,0.0,99,1924883839,93,26.083194732666016,535.6773092497501,0.23238788479406336,4,542970.4486706218,3.4028234663852886E38,1.60143744E9,,,,0,,3,,1.60143744E9
Raw,1933618541,1619824000000,,,-1311853870175812154,0.0,12.200440099113077,,,0,23,0.0,32961,55071924507431,43,32.727203369140625,-6.010950314491922,0.10854862166636509,1,-8229.58195921675,0.0020619691349565983,1.60368755E9,,,,0,,3,,1.60368755E9
Raw,1933618541,1619824000000,,,-1311853870175812154,0.0,12.200440099113077,,,0,7,0.0,32995,55071932808025,52,31.10360336303711,-172.61561118088207,0.1321856373561578,4,-338046.640959493,3.4028234663852886E38,1.60481254E9,,,,0,,3,,1.60481254E9
Raw,1933618541,1619824000000,,,-1311853870175812154,0.0,12.200440099113077,,,0,8,0.0,32961,55071927418907,71,20.75581932067871,-562.0439747701876,4.201334563606748,4,-566408.3451696682,3.4028234663852886E38,1.60537498E9,,,,0,,3,,1.60537498E9
Raw,1933618541,1619824000000,,,-1311853870175812154,0.0,12.200440099113077,,,0,193,0.0,35,9307833,29,30.053760528564453,-254.574853184806,0.1482426597972567,4,-398291.4683653443,3.4028234663852886E38,1.57542003E9,,,,0,,4,,1.57542003E9
Raw,1933618542,1619824000000,,,-1311853870175812154,0.0,12.200440099113077,,,0,194,0.0,35,12368176,24,31.722768783569336,-103.48264560202978,0.12317029506749128,1,-61769.94597392628,0.0022215237841010094,1.57542003E9,,,,0,,4,,1.57542003E9
Raw,1933618542,1619824000000,,,-1311853870175812154,0.0,12.200440099113077,,,0,6,0.0,16431,44275878574357,10,32.91486740112305,-78.67257699467388,0.10877611540692506,4,-104800.04305980545,3.4028234663852886E38,1.56109798E9,,,,0,,5,,1.56109798E9
Raw,1933618542,1619824000000,,,-1311853870175812154,0.0,12.200440099113077,,,0,14,0.0,16431,44275924433881,14,30.100982666015625,129.62380454888404,0.14657125479803212,4,141516.00511683387,3.4028234663852886E38,1.56109798E9,,,,0,,5,,1.56109798E9
Raw,1933618542,1619824000000,,,-1311853870175812154,0.0,12.200440099113077,,,0,16,0.0,16431,44275877932844,10,32.97515106201172,-77.12642635451658,0.10793152617304363,4,-103742.15299069349,3.4028234663852886E38,1.56109798E9,,,,0,,5,,1.56109798E9
Raw,1933618542,1619824000000,,,-1311853870175812154,0.0,12.200440099113077,,,0,24,0.0,16431,44275924171475,19,27.881458282470703,24.598109810240544,0.18896586995818343,4,-80787.60709741231,3.4028234663852886E38,1.56109798E9,,,,0,,5,,1.56109798E9
Raw,1933618542,1619824000000,,,-1311853870175812154,0.0,12.200440099113077,,,0,25,0.0,16431,44275922851405,7,36.16183853149414,-583.0805530799357,0.07306273512292316,1,-680300.443663282,0.0014263956109061837,1.56109798E9,,,,0,,5,,1.56109798E9
Raw,1933618543,1619824000000,,,-1311853870175812154,0.0,12.200440099113077,,,0,26,0.0,16431,44275915271562,67,21.480745315551758,429.0313600898546,4.202747121668104,4,584716.038687715,3.4028234663852886E38,1.56109798E9,,,,0,,5,,1.56109798E9
Raw,1933618543,1619824000000,,,-1311853870175812154,0.0,12.200440099113077,,,0,27,0.0,16431,44275913165916,9,34.1823844909668,119.66760326698414,0.0934872795835473,1,84228.12227451491,0.001791483024135232,1.56109798E9,,,,0,,5,,1.56109798E9
Raw,1933618543,1619824000000,,,-1311853870175812154,0.0,12.200440099113077,,,0,33,0.0,16431,44275925996088,10,32.99996566772461,-115.12253727738477,0.10548566890918343,1,-229135.6895315374,0.002052738331258297,1.56109798E9,,,,0,,5,,1.56109798E9
Fix,gps,34.486391,109.464154,359.706635,0.256319,3.000000,1627820272999
Raw,1933619483,1620824000000,,,-1311853870175812541,0.0,12.54558154462312,,,0,10,0.0,16431,44290931550009,8,41.26392364501953,-345.5848619306448,0.04239863416076178,1,-662133.2169683634,8.28034186270088E-4,1.57542003E9,,,,0,,1,,1.57542003E9
Raw,1933619483,1620824000000,,,-1311853870175812541,0.0,12.54558154462312,,,0,12,0.0,16431,44290923625870,16,34.96628952026367,-475.3365012533318,0.08390789593798254,1,-820834.9121934586,0.0016220014076679945,1.57542003E9,,,,0,,1,,1.57542003E9
Raw,1933619483,1620824000000,,,-1311853870175812541,0.0,12.54558154462312,,,0,15,0.0,16431,44290916327171,74,20.20301055908203,415.852662543723,4.202936971601703,4,771691.5909616661,3.4028234663852886E38,1.57542003E9,,,,0,,1,,1.57542003E9
Raw,1933619483,1620824000000,,,-1311853870175812541,0.0,12.54558154462312,,,0,18,0.0,16431,44290921138667,9,39.527015686035156,563.8687494924188,0.04945156834699474,1,877926.589093255,0.0010113319149240851,1.57542003E9,,,,0,,1,,1.57542003E9
Raw,1933619483,1620824000000,,,-1311853870175812541,0.0,12.54558154462312,,,0,23,0.0,16431,44290931334073,26,30.928817749023438,114.17362204349081,0.13456055884319745,4,58015.962893728145,3.4028234663852886E38,1.57542003E9,,,,0,,1,,1.57542003E9
Raw,1933619483,1620824000000,,,-1311853870175812541,0.0,12.54558154462312,,,0,24,0.0,16431,44290926046782,34,28.691625595092773,461.04623847016524,0.17254145427908363,4,544507.5070985912,3.4028234663852886E38,1.57542003E9,,,,0,,1,,1.57542003E9
Raw,1933619484,1620824000000,,,-1311853870175812541,0.0,12.54558154462312,,,0,25,0.0,16431,44290922876040,10,39.469852447509766,-705.0661638593351,0.050089249777190564,1,-925161.6871888641,9.657687041908503E-4,1.57542003E9,,,,0,,1,,1.57542003E9
Raw,1933619484,1620824000000,,,-1311853870175812541,0.0,12.54558154462312,,,0,31,0.0,16,1620017962758,1000000000,22.359899520874023,-830.0509626478288,2.99792458E8,2,-14.105237382794105,3.4028234663852886E38,1.57542003E9,,,,0,,1,,1.57542003E9
Raw,1933619484,1620824000000,,,-1311853870175812541,0.0,12.54558154462312,,,0,32,0.0,16431,44290927013021,11,37.913185119628906,-399.3079475089421,0.06056342272016266,1,-684828.754687323,0.001155331265181303,1.57542003E9,,,,0,,1,,1.57542003E9
Raw,1933619484,1620824000000,,,-1311853870175812541,0.0,12.54558154462312,,,0,10,0.0,32995,55072930406062,33,41.49378204345703,-778.6504601517349,0.04113984239709015,1,-1367822.0922460945,7.949831779114902E-4,1.59806246E9,,,,0,,3,,1.59806246E9
Raw,1933619484,1620824000000,,,-1311853870175812541,0.0,12.54558154462312,,,0,9,0.0,32995,55072933646837,49,31.542329788208008,-104.16657825707301,0.12593907861435777,4,-385633.5728442293,3.4028234663852886E38,1.59862502E9,,,,0,,3,,1.59862502E9
Raw,1933619484,1620824000000,,,-1311853870175812541,0.0,12.54558154462312,,,0,16,0.0,99,924882032,133,23.02057456970215,535.6872272445983,0.3302600022155011,4,543506.1582720443,3.4028234663852886E38,1.60143744E9,,,,0,,3,,1.60143744E9
Raw,1933619485,1620824000000,,,-1311853870175812541,0.0,12.54558154462312,,,0,23,0.0,32961,55072924507435,44,32.63335037231445,-5.803903651422914,0.10971904950253575,1,-8235.52089430997,0.0020843700040131807,1.60368755E9,,,,0,,3,,1.60368755E9
Raw,1933619485,1620824000000,,,-1311853870175812541,0.0,12.54558154462312,,,0,7,0.0,32995,55072932808646,62,29.667531967163086,-172.68168002285154,0.1555367714642234,4,-338219.3075565169,3.4028234663852886E38,1.60481254E9,,,,0,,3,,1.60481254E9
Raw,1933619485,1620824000000,,,-1311853870175812541,0.0,12.54558154462312,,,0,8,0.0,32961,55072927421033,91,16.9124755859375,-561.4945996534964,4.20133482987594,4,-566970.085142189,3.4028234663852886E38,1.60537498E9,,,,0,,3,,1.60537498E9
Raw,1933619485,1620824000000,,,-1311853870175812541,0.0,12.54558154462312,,,0,193,0.0,35,9308691,27,30.60158348083496,-254.48392119080313,0.13928415766008123,1,-398546.02691707335,0.0025276115629822016,1.57542003E9,,,,0,,4,,1.57542003E9
Raw,1933619485,1620824000000,,,-1311853870175812541,0.0,12.54558154462312,,,0,194,0.0,35,12368482,14,36.124244689941406,-103.44781333146346,0.07508929329824798,1,-61873.463528341876,0.0014195592375472188,1.57542003E9,,,,0,,4,,1.57542003E9
Raw,1933619485,1620824000000,,,-1311853870175812541,0.0,12.54558154462312,,,0,6,0.0,16431,44276878574601,11,32.34416198730469,-78.65475186991245,0.11593640184238385,1,-104878.71352514115,0.002087120432406664,1.56109798E9,,,,0,,5,,1.56109798E9
Raw,1933619486,1620824000000,,,-1311853870175812541,0.0,12.54558154462312,,,0,14,0.0,16431,44276924433434,18,28.143882751464844,129.7810098795955,0.18341157783085404,4,141645.70579604676,3.4028234663852886E38,1.56109798E9,,,,0,,5,,1.56109798E9
Raw,1933619486,1620824000000,,,-1311853870175812541,0.0,12.54558154462312,,,0,16,0.0,16431,44276877933107,12,31.751155853271484,-77.08481167510223,0.12377665658402698,1,-103819.25993352463,0.002234590006992221,1.56109798E9,,,,0,,5,,1.56109798E9
Raw,1933619486,1620824000000,,,-1311853870175812541,0.0,12.54558154462312,,,0,24,0.0,16431,44276924171364,18,28.148969650268555,24.795264040303806,0.18325749117804901,4,-80763.00620178165,3.4028234663852886E38,1.56109798E9,,,,0,,5,,1.56109798E9
Raw,1933619486,1620824000000,,,-1311853870175812541,0.0,12.54558154462312,,,0,25,0.0,16431,44276922853363,6,36.76484298706055,-582.9765334226281,0.06819729387559112,1,-680883.5250116317,0.0013307292247191072,1.56109798E9,,,,0,,5,,1.56109798E9
Raw,1933619486,1620824000000,,,-1311853870175812541,0.0,12.54558154462312,,,0,26,0.0,16431,44276915270126,21,26.628969192504883,430.0571057013651,0.2201569758968761,4,585145.951202922,3.4028234663852886E38,1.56109798E9,,,,0,,5,,1.56109798E9
Raw,1933619486,1620824000000,,,-1311853870175812541,0.0,12.54558154462312,,,0,27,0.0,16431,44276913165520,9,33.516448974609375,119.86003281651193,0.10074796614605791,1,84347.87040001633,0.0019342356827110052,1.56109798E9,,,,0,,5,,1.56109798E9
Raw,1933619487,1620824000000,,,-1311853870175812541,0.0,12.54558154462312,,,0,33,0.0,16431,44276925996460,11,32.1234245300293,-115.10323808637872,0.11657201136543266,1,-229250.85381216177,0.0022707046009600163,1.56109798E9,,,,0,,5,,1.56109798E9
Fix,gps,34.486392,109.464151,359.667297,0.325173,3.000000,1627820273999
Raw,1933620543,1621824000000,,,-1311853870175812920,0.0,11.862972298514244,,,0,10,0.0,16431,44291931551195,11,38.02756118774414,-345.5269899194691,0.060603978846405865,4,-662478.8627532308,3.4028234663852886E38,1.57542003E9,,,,0,,1,,1.57542003E9
Raw,1933620543,1621824000000,,,-1311853870175812920,0.0,11.862972298514244,,,0,12,0.0,16431,44291923627432,19,33.66487503051758,-474.2113030336877,0.09736544043350148,4,-821309.4776541434,3.4028234663852886E38,1.57542003E9,,,,0,,1,,1.57542003E9
Raw,1933620544,1621824000000,,,-1311853870175812920,0.0,11.862972298514244,,,0,15,0.0,16431,44291916325918,77,19.529991149902344,415.4136805037092,4.202936705332512,4,772107.0205532768,3.4028234663852886E38,1.57542003E9,,,,0,,1,,1.57542003E9
Raw,1933620544,1621824000000,,,-1311853870175812920,0.0,11.862972298514244,,,0,18,0.0,16431,44291921136762,8,41.35919952392578,563.9230769281162,0.04008569930943176,1,878490.4609099651,8.190010557882488E-4,1.57542003E9,,,,0,,1,,1.57542003E9
Raw,1933620544,1621824000000,,,-1311853870175812920,0.0,11.862972298514244,,,0,23,0.0,16431,44291931333667,19,33.85743713378906,114.47188614113605,0.0966311032867605,4,58130.099282123236,3.4028234663852886E38,1.57542003E9,,,,0,,1,,1.57542003E9
Raw,1933620546,1621824000000,,,-1311853870175812920,0.0,11.862972298514244,,,0,24,0.0,16431,44291926045259,38,27.805212020874023,462.03422071984846,0.1909624062821571,4,544969.4947218027,3.4028234663852886E38,1.57542003E9,,,,0,,1,,1.57542003E9
Raw,1933620546,1621824000000,,,-1311853870175812920,0.0,11.862972298514244,,,0,25,0.0,16431,44291922878392,11,38.044883728027344,-704.495214547665,0.05892735247475256,1,-925866.431384441,0.001137945568189025,1.57542003E9,,,,0,,1,,1.57542003E9
Raw,1933620546,1621824000000,,,-1311853870175812920,0.0,11.862972298514244,,,0,31,0.0,16,1621017965527,1000000000,22.460100173950195,-830.0509626478288,2.99792458E8,2,-14.098746270574585,3.4028234663852886E38,1.57542003E9,,,,0,,1,,1.57542003E9
Raw,1933620547,1621824000000,,,-1311853870175812920,0.0,11.862972298514244,,,0,32,0.0,16431,44291927014329,7,42.04271697998047,-399.8615488502421,0.03812485553849876,1,-685228.3594159619,7.570220623165369E-4,1.57542003E9,,,,0,,1,,1.57542003E9
Raw,1933620547,1621824000000,,,-1311853870175812920,0.0,11.862972298514244,,,0,10,0.0,32995,55073930408633,33,38.589595794677734,-778.6885643381274,0.056731359724001534,1,-1368600.5933041768,0.0010536308400332928,1.59806246E9,,,,0,,3,,1.59806246E9
Raw,1933620548,1621824000000,,,-1311853870175812920,0.0,11.862972298514244,,,0,9,0.0,32995,55073933647228,49,31.56083869934082,-104.02006629709558,0.12567628756408838,4,-385737.18090671144,3.4028234663852886E38,1.59862502E9,,,,0,,3,,1.59862502E9
Raw,1933620548,1621824000000,,,-1311853870175812920,0.0,11.862972298514244,,,0,16,0.0,99,1924880162,118,24.03327178955078,536.1838427185921,0.29401087999711906,4,544042.1757215913,3.4028234663852886E38,1.60143744E9,,,,0,,3,,1.60143744E9
Raw,1933620548,1621824000000,,,-1311853870175812920,0.0,11.862972298514244,,,0,23,0.0,32961,55073924507449,33,38.55374526977539,-6.468753858582058,0.05589676390571677,1,-8241.634967165022,0.001054277759976685,1.60368755E9,,,,0,,3,,1.60368755E9
Raw,1933620549,1621824000000,,,-1311853870175812920,0.0,11.862972298514244,,,0,7,0.0,32995,55073932809095,39,33.61460494995117,-172.54158408531453,0.09957834543837424,1,-338391.7329247872,0.001860405202023685,1.60481254E9,,,,0,,3,,1.60481254E9
Raw,1933620549,1621824000000,,,-1311853870175812920,0.0,11.862972298514244,,,0,8,0.0,32961,55073927422648,70,20.860010147094727,-561.4662089672129,4.201335096145131,4,-567531.7449664448,3.4028234663852886E38,1.60537498E9,,,,0,,3,,1.60537498E9
Raw,1933620550,1621824000000,,,-1311853870175812920,0.0,11.862972298514244,,,0,193,0.0,35,9309590,38,27.745391845703125,-254.1750318873369,0.19286177099302693,4,-398800.1901583942,3.4028234663852886E38,1.57542003E9,,,,0,,4,,1.57542003E9
Raw,1933620550,1621824000000,,,-1311853870175812920,0.0,11.862972298514244,,,0,194,0.0,35,12368842,166,31.96805763244629,-102.78541226832851,0.11980269707148805,4,-61975.72511878526,3.4028234663852886E38,1.57542003E9,,,,1,,4,,1.57542003E9
Raw,1933620550,1621824000000,,,-1311853870175812920,0.0,11.862972298514244,,,0,6,0.0,16431,44277878574881,12,31.780330657958984,-79.05546783186526,0.1234878793248414,1,-104957.40907590187,0.0022270968183875084,1.56109798E9,,,,0,,5,,1.56109798E9
Raw,1933620551,1621824000000,,,-1311853870175812920,0.0,11.862972298514244,,,0,14,0.0,16431,44277924432966,20,27.150373458862305,129.98806080297157,0.20554071108870398,4,141775.78021440693,3.4028234663852886E38,1.56109798E9,,,,0,,5,,1.56109798E9
Raw,1933620551,1621824000000,,,-1311853870175812920,0.0,11.862972298514244,,,0,16,0.0,16431,44277877933336,9,34.37841033935547,-77.36882078530681,0.09231141819168587,1,-103896.38707489136,0.0017515051877126098,1.56109798E9,,,,0,,5,,1.56109798E9
Raw,1933620552,1621824000000,,,-1311853870175812920,0.0,11.862972298514244,,,0,24,0.0,16431,44277924171230,24,25.654146194458008,25.511771003168718,0.2439825101743106,4,-80737.6011339653,3.4028234663852886E38,1.56109798E9,,,,0,,5,,1.56109798E9
Raw,1933620552,1621824000000,,,-1311853870175812920,0.0,11.862972298514244,,,0,25,0.0,16431,44277922855290,6,42.40821838378906,-583.1336535471983,0.03585774395085797,1,-681466.5495000914,7.324866601265967E-4,1.56109798E9,,,,0,,5,,1.56109798E9
Raw,1933620552,1621824000000,,,-1311853870175812920,0.0,11.862972298514244,,,0,26,0.0,16431,44277915268776,166,31.253999710083008,430.9783545011767,0.1303987048114345,4,585576.1698244123,3.4028234663852886E38,1.56109798E9,,,,1,,5,,1.56109798E9
Raw,1933620553,1621824000000,,,-1311853870175812920,0.0,11.862972298514244,,,0,27,0.0,16431,44277913165121,12,31.34196662902832,118.98637164662034,0.12873403143020967,1,84467.23320229401,0.002342379419133067,1.56109798E9,,,,0,,5,,1.56109798E9
Raw,1933620553,1621824000000,,,-1311853870175812920,0.0,11.862972298514244,,,0,33,0.0,16431,44277925996806,166,29.381362915039062,-114.75110666619918,0.15944405550700713,4,-229365.8533445351,3.4028234663852886E38,1.56109798E9,,,,1,,5,,1.56109798E9
Fix,gps,34.486392,109.464148,359.642517,0.373174,3.000000,1627820274999
Raw,1933621512,1622824000000,,,-1311853870175813307,0.0,12.062683500063427,,,0,10,0.0,16431,44292931552322,10,38.845314025878906,-345.52259328257765,0.055345528432751284,4,-662824.4551705269,3.4028234663852886E38,1.57542003E9,,,,0,,1,,1.57542003E9
Raw,1933621512,1622824000000,,,-1311853870175813307,0.0,12.062683500063427,,,0,12,0.0,16431,44292923629017,21,33.02992630004883,-474.0600450916395,0.1047003578540785,4,-821783.5641758849,3.4028234663852886E38,1.57542003E9,,,,0,,1,,1.57542003E9
Raw,1933621512,1622824000000,,,-1311853870175813307,0.0,12.062683500063427,,,0,15,0.0,16431,44292916324653,78,19.355998992919922,415.6234921060636,4.20293643906332,4,772522.1214760689,3.4028234663852886E38,1.57542003E9,,,,0,,1,,1.57542003E9
Raw,1933621513,1622824000000,,,-1311853870175813307,0.0,12.062683500063427,,,0,18,0.0,16431,44292921134899,7,42.341339111328125,564.0401842487286,0.035821485575785184,1,879054.300596087,7.314381655305624E-4,1.57542003E9,,,,0,,1,,1.57542003E9
Raw,1933621513,1622824000000,,,-1311853870175813307,0.0,12.062683500063427,,,0,23,0.0,16431,44292931333271,15,35.65184783935547,114.07139171515064,0.07897572513496576,4,58244.573773186305,3.4028234663852886E38,1.57542003E9,,,,0,,1,,1.57542003E9
Raw,1933621513,1622824000000,,,-1311853870175813307,0.0,12.062683500063427,,,0,24,0.0,16431,44292926043664,43,26.749000549316406,462.134389059569,0.21551357403213267,4,545431.4884200378,3.4028234663852886E38,1.57542003E9,,,,0,,1,,1.57542003E9
Raw,1933621513,1622824000000,,,-1311853870175813307,0.0,12.062683500063427,,,0,25,0.0,16431,44292922880751,13,36.87434387207031,-704.0019050719538,0.06735430641731532,1,-926570.8456116803,0.0013021124759688973,1.57542003E9,,,,0,,1,,1.57542003E9
Raw,1933621513,1622824000000,,,-1311853870175813307,0.0,12.062683500063427,,,0,31,0.0,16,1622017968357,1000000000,16.32137680053711,-830.0509626478288,2.99792458E8,2,-14.092255158563287,3.4028234663852886E38,1.57542003E9,,,,0,,1,,1.57542003E9
Raw,1933621513,1622824000000,,,-1311853870175813307,0.0,12.062683500063427,,,0,32,0.0,16431,44292927015660,8,41.09892654418945,-400.1735396572519,0.0423562848779315,1,-685628.2629158988,8.006069110706449E-4,1.57542003E9,,,,0,,1,,1.57542003E9
Raw,1933621514,1622824000000,,,-1311853870175813307,0.0,12.062683500063427,,,0,10,0.0,32995,55074930411223,33,37.8182258605957,-778.3036370741588,0.061826578802302606,4,-1369378.8623945082,3.4028234663852886E38,1.59806246E9,,,,0,,3,,1.59806246E9
Raw,1933621514,1622824000000,,,-1311853870175813307,0.0,12.062683500063427,,,0,9,0.0,32995,55074933647576,45,32.45002365112305,-102.44762104173094,0.11368623579251375,4,-385840.5842265254,3.4028234663852886E38,1.59862502E9,,,,0,,3,,1.59862502E9
Raw,1933621514,1622824000000,,,-1311853870175813307,0.0,12.062683500063427,,,0,16,0.0,99,924878504,126,23.471759796142578,536.6349240306715,0.31358655827497195,4,544578.4633582989,3.4028234663852886E38,1.60143744E9,,,,0,,3,,1.60143744E9
Raw,1933621514,1622824000000,,,-1311853870175813307,0.0,12.062683500063427,,,0,23,0.0,32961,55074924507510,33,37.807010650634766,-6.712081296619598,0.0608420983918925,1,-8248.024018269918,0.0011489251628518105,1.60368755E9,,,,0,,3,,1.60368755E9
Raw,1933621514,1622824000000,,,-1311853870175813307,0.0,12.062683500063427,,,0,7,0.0,32995,55074932809702,45,32.30510711669922,-172.17134636010724,0.11540684234579579,4,-338563.95331121504,3.4028234663852886E38,1.60481254E9,,,,0,,3,,1.60481254E9
Raw,1933621515,1622824000000,,,-1311853870175813307,0.0,12.062683500063427,,,0,8,0.0,32961,55074927424668,86,26.769824981689453,-562.2352795986501,0.21524848641008587,4,-568093.6928040844,3.4028234663852886E38,1.60537498E9,,,,0,,3,,1.60537498E9
Raw,1933621515,1622824000000,,,-1311853870175813307,0.0,12.062683500063427,,,0,193,0.0,35,9310438,43,26.78827476501465,-253.52816390376222,0.2151337743139864,4,-399054.6506005076,3.4028234663852886E38,1.57542003E9,,,,0,,4,,1.57542003E9
Raw,1933621515,1622824000000,,,-1311853870175813307,0.0,12.062683500063427,,,0,194,0.0,35,12369142,31,29.546451568603516,-101.991614814684,0.15760872853671337,4,-62078.381170426306,3.4028234663852886E38,1.57542003E9,,,,0,,4,,1.57542003E9
Raw,1933621515,1622824000000,,,-1311853870175813307,0.0,12.062683500063427,,,0,6,0.0,16431,44278878575144,11,32.474586486816406,-78.90313629243656,0.1142584399643165,4,-105036.12162260282,3.4028234663852886E38,1.56109798E9,,,,0,,5,,1.56109798E9
Raw,1933621516,1622824000000,,,-1311853870175813307,0.0,12.062683500063427,,,0,14,0.0,16431,44278924432567,23,25.978412628173828,131.14278295057852,0.23511644505117613,4,141905.86337623824,3.4028234663852886E38,1.56109798E9,,,,0,,5,,1.56109798E9
Raw,1933621516,1622824000000,,,-1311853870175813307,0.0,12.062683500063427,,,0,16,0.0,16431,44278877933613,7,35.7451057434082,-77.28359760277152,0.07934132937683569,1,-103973.59976236793,0.001496499520726502,1.56109798E9,,,,0,,5,,1.56109798E9
Raw,1933621516,1622824000000,,,-1311853870175813307,0.0,12.062683500063427,,,0,24,0.0,16431,44278924171110,166,25.411481857299805,26.070280218208012,0.25087367334528765,4,-80710.39661439224,3.4028234663852886E38,1.56109798E9,,,,1,,5,,1.56109798E9
Raw,1933621516,1622824000000,,,-1311853870175813307,0.0,12.062683500063427,,,0,25,0.0,16431,44278922857250,6,42.53324508666992,-582.7243232443593,0.03535298493319233,1,-682049.4781685743,7.220185943879187E-4,1.56109798E9,,,,0,,5,,1.56109798E9
Raw,1933621516,1622824000000,,,-1311853870175813307,0.0,12.062683500063427,,,0,26,0.0,16431,44278915267325,9,34.00642013549805,430.5556638753808,0.09573006498426317,4,586007.1565294394,3.4028234663852886E38,1.56109798E9,,,,0,,5,,1.56109798E9
Raw,1933621516,1622824000000,,,-1311853870175813307,0.0,12.062683500063427,,,0,27,0.0,16431,44278913164731,9,34.05028533935547,118.6458964265716,0.09488343712688369,1,84586.22645893229,0.0018189367838203907,1.56109798E9,,,,0,,5,,1.56109798E9
Raw,1933621516,1622824000000,,,-1311853870175813307,0.0,12.062683500063427,,,0,33,0.0,16431,44278925997212,15,29.695228576660156,-114.68785814750697,0.15382371197834033,4,-229480.60459908348,3.4028234663852886E38,1.56109798E9,,,,0,,5,,1.56109798E9
Fix,gps,34.486392,109.464145,359.540283,0.470486,3.000000,1627820275999
Raw,1933622510,1623824000000,,,-1311853870175813688,0.0,10.683754401744602,,,0,10,0.0,16431,44293931553486,9,39.605045318603516,-345.74896895880215,0.050884512643330965,4,-663170.0390960188,3.4028234663852886E38,1.57542003E9,,,,0,,1,,1.57542003E9
Raw,1933622511,1623824000000,,,-1311853870175813688,0.0,10.683754401744602,,,0,12,0.0,16431,44293923630581,28,30.5413875579834,-474.42844236419455,0.1392197870830157,4,-822258.8244793271,3.4028234663852886E38,1.57542003E9,,,,0,,1,,1.57542003E9
Raw,1933622511,1623824000000,,,-1311853870175813688,0.0,10.683754401744602,,,0,15,0.0,16431,44293916323345,167,21.0780086517334,416.3904155427399,4.202936172794129,4,772937.1444894164,3.4028234663852886E38,1.57542003E9,,,,1,,1,,1.57542003E9
Raw,1933622511,1623824000000,,,-1311853870175813688,0.0,10.683754401744602,,,0,18,0.0,16431,44293921133027,7,42.457740783691406,563.8685790801362,0.03534700219729392,1,879618.1457891135,7.217010133899748E-4,1.57542003E9,,,,0,,1,,1.57542003E9
Raw,1933622511,1623824000000,,,-1311853870175813688,0.0,10.683754401744602,,,0,23,0.0,16431,44293931332888,16,35.3302001953125,114.65840238445713,0.08187810092779751,4,58359.16934413705,3.4028234663852886E38,1.57542003E9,,,,0,,1,,1.57542003E9
Raw,1933622511,1623824000000,,,-1311853870175813688,0.0,10.683754401744602,,,0,24,0.0,16431,44293926042114,45,26.32880401611328,461.4491953536344,0.22614155903780597,4,545894.1815158788,3.4028234663852886E38,1.57542003E9,,,,0,,1,,1.57542003E9
Raw,1933622512,1623824000000,,,-1311853870175813688,0.0,10.683754401744602,,,0,25,0.0,16431,44293922883104,12,37.79777526855469,-704.0875202027391,0.060613760078740475,1,-927275.110732455,0.001170784467831254,1.57542003E9,,,,0,,1,,1.57542003E9
Raw,1933622512,1623824000000,,,-1311853870175813688,0.0,10.683754401744602,,,0,31,0.0,16,1623017971063,1000000000,31.278804779052734,-829.6795320366432,2.99792458E8,2,-14.883998161842857,3.4028234663852886E38,1.57542003E9,,,,0,,1,,1.57542003E9
Raw,1933622512,1623824000000,,,-1311853870175813688,0.0,10.683754401744602,,,0,32,0.0,16431,44293927016991,7,42.221778869628906,-400.0532285857264,0.0373731692897436,1,-686028.2192297343,7.415756699629128E-4,1.57542003E9,,,,0,,1,,1.57542003E9
Raw,1933622512,1623824000000,,,-1311853870175813688,0.0,10.683754401744602,,,0,10,0.0,32995,55075930413830,33,37.29811096191406,-778.1361558828057,0.06552677614178765,4,-1370157.025454685,3.4028234663852886E38,1.59806246E9,,,,0,,3,,1.59806246E9
Raw,1933622512,1623824000000,,,-1311853870175813688,0.0,10.683754401744602,,,0,9,0.0,32995,55075933647915,58,30.18129539489746,-102.51574335170591,0.14688700013377787,4,-385943.71863597364,3.4028234663852886E38,1.59862502E9,,,,0,,3,,1.59862502E9
Raw,1933622512,1623824000000,,,-1311853870175813688,0.0,10.683754401744602,,,0,16,0.0,99,1924876513,130,23.174713134765625,536.5316201049509,0.3244653855009423,4,545116.2479675852,3.4028234663852886E38,1.60143744E9,,,,0,,3,,1.60143744E9
Raw,1933622513,1623824000000,,,-1311853870175813688,0.0,10.683754401744602,,,0,23,0.0,32961,55075924507527,33,36.92059326171875,-6.292525724285419,0.06729197030329173,1,-8254.41673812717,0.0012723677791655064,1.60368755E9,,,,0,,3,,1.60368755E9
Raw,1933622513,1623824000000,,,-1311853870175813688,0.0,10.683754401744602,,,0,7,0.0,32995,55075932810255,48,31.870899200439453,-172.01615189433062,0.12120468757430258,4,-338736.1735584489,3.4028234663852886E38,1.60481254E9,,,,0,,3,,1.60481254E9
Raw,1933622513,1623824000000,,,-1311853870175813688,0.0,10.683754401744602,,,0,8,0.0,32961,55075927426492,57,30.38687515258789,-561.8933984772698,0.14238959699514508,4,-568655.6923336906,3.4028234663852886E38,1.60537498E9,,,,0,,3,,1.60537498E9
Raw,1933622513,1623824000000,,,-1311853870175813688,0.0,10.683754401744602,,,0,193,0.0,35,9311213,43,26.729354858398438,-253.9547058471452,0.21658680529246277,4,-399309.5546438112,3.4028234663852886E38,1.57542003E9,,,,0,,4,,1.57542003E9
Raw,1933622513,1623824000000,,,-1311853870175813688,0.0,10.683754401744602,,,0,194,0.0,35,12369499,32,29.258163452148438,-102.32973834523267,0.16285256742847976,4,-62181.966938015394,3.4028234663852886E38,1.57542003E9,,,,0,,4,,1.57542003E9
Raw,1933622513,1623824000000,,,-1311853870175813688,0.0,10.683754401744602,,,0,6,0.0,16431,44279878575411,12,31.56446647644043,-79.04589066158235,0.126511299427985,4,-105114.889528305,3.4028234663852886E38,1.56109798E9,,,,0,,5,,1.56109798E9
Raw,1933622514,1623824000000,,,-1311853870175813688,0.0,10.683754401744602,,,0,14,0.0,16431,44279924432134,27,24.640369415283203,131.2739322432783,0.274141523442773,4,142037.83036625627,3.4028234663852886E38,1.56109798E9,,,,0,,5,,1.56109798E9
Raw,1933622514,1623824000000,,,-1311853870175813688,0.0,10.683754401744602,,,0,16,0.0,16431,44279877933856,7,35.821224212646484,-77.09933080158095,0.07867723737119958,4,-104050.86382923555,3.4028234663852886E38,1.56109798E9,,,,0,,5,,1.56109798E9
Raw,1933622514,1623824000000,,,-1311853870175813688,0.0,10.683754401744602,,,0,24,0.0,16431,44279924171034,22,26.28876495361328,25.617462830999486,0.22684482589825394,4,-80684.71223078585,3.4028234663852886E38,1.56109798E9,,,,0,,5,,1.56109798E9
Raw,1933622514,1623824000000,,,-1311853870175813688,0.0,10.683754401744602,,,0,25,0.0,16431,44279922859184,6,42.31290817260742,-582.6453882750525,0.03624841078038579,1,-682632.3551627127,7.405685028061271E-4,1.56109798E9,,,,0,,5,,1.56109798E9
Raw,1933622515,1623824000000,,,-1311853870175813688,0.0,10.683754401744602,,,0,26,0.0,16431,44279915265890,9,34.24494171142578,430.9428064990234,0.09321114179004975,4,586438.296245228,3.4028234663852886E38,1.56109798E9,,,,0,,5,,1.56109798E9
Raw,1933622515,1623824000000,,,-1311853870175813688,0.0,10.683754401744602,,,0,27,0.0,16431,44279913164319,6,37.728939056396484,118.90179603075899,0.06294126900785363,1,84705.11034973833,0.0011909264139831066,1.56109798E9,,,,0,,5,,1.56109798E9
Raw,1933622515,1623824000000,,,-1311853870175813688,0.0,10.683754401744602,,,0,33,0.0,16431,44279925997591,14,30.181669235229492,-114.59326228942791,0.14550466362566716,4,-229595.30560760878,3.4028234663852886E38,1.56109798E9,,,,0,,5,,1.56109798E9
Fix,gps,34.486392,109.464138,359.478271,0.747587,3.000000,1627820276999
Raw,1933623500,1624824000000,,,-1311853870175814073,0.0,10.485074676768102,,,0,10,0.0,16431,44294931554653,8,40.8621940612793,-345.37286905107294,0.04430816286592912,4,-663515.5650616698,3.4028234663852886E38,1.57542003E9,,,,0,,1,,1.57542003E9
Raw,1933623500,1624824000000,,,-1311853870175814073,0.0,10.485074676768102,,,0,12,0.0,16431,44294923632166,32,29.1378116607666,-474.44950532232565,0.16352210131071887,4,-822732.8480005483,3.4028234663852886E38,1.57542003E9,,,,0,,1,,1.57542003E9
Raw,1933623501,1624824000000,,,-1311853870175814073,0.0,10.485074676768102,,,0,15,0.0,16,1624016322000,1000000000,23.995113372802734,415.4895821343855,2.99792458E8,2,524294.6446092075,3.4028234663852886E38,1.57542003E9,,,,0,,1,,1.57542003E9
Raw,1933623501,1624824000000,,,-1311853870175814073,0.0,10.485074676768102,,,0,18,0.0,16431,44294921131135,7,42.508033752441406,563.8657843187013,0.035143763915904846,1,880181.9728777909,7.175344508141279E-4,1.57542003E9,,,,0,,1,,1.57542003E9
Raw,1933623501,1624824000000,,,-1311853870175814073,0.0,10.485074676768102,,,0,23,0.0,16431,44294931332523,17,34.51926040649414,113.87365382301942,0.08969115460733784,4,58473.76840187875,3.4028234663852886E38,1.57542003E9,,,,0,,1,,1.57542003E9
Raw,1933623501,1624824000000,,,-1311853870175814073,0.0,10.485074676768102,,,0,24,0.0,16431,44294926040660,40,27.310319900512695,461.4055698092852,0.2020941060310103,4,546356.055567276,3.4028234663852886E38,1.57542003E9,,,,0,,1,,1.57542003E9
Raw,1933623501,1624824000000,,,-1311853870175814073,0.0,10.485074676768102,,,0,25,0.0,16431,44294922885437,11,38.33098602294922,-704.2342792605264,0.05703602576510369,1,-927979.321435583,0.0011010738089680672,1.57542003E9,,,,0,,1,,1.57542003E9
Raw,1933623501,1624824000000,,,-1311853870175814073,0.0,10.485074676768102,,,0,31,0.0,16,17973796,1000000000,24.633628845214844,-830.2393704674869,2.99792458E8,4,-678.5759177967594,3.4028234663852886E38,1.57542003E9,,,,0,,1,,1.57542003E9
Raw,1933623502,1624824000000,,,-1311853870175814073,0.0,10.485074676768102,,,0,32,0.0,16431,44294927018329,7,42.23407745361328,-399.88118034519925,0.03732233267643156,1,-686428.2128191318,7.405264768749475E-4,1.57542003E9,,,,0,,1,,1.57542003E9
Raw,1933623502,1624824000000,,,-1311853870175814073,0.0,10.485074676768102,,,0,10,0.0,32995,55076930416390,33,38.54707717895508,-778.2114781117211,0.05700195578994924,4,-1370935.0756702882,3.4028234663852886E38,1.59806246E9,,,,0,,3,,1.59806246E9
Raw,1933623502,1624824000000,,,-1311853870175814073,0.0,10.485074676768102,,,0,9,0.0,32995,55076933648225,45,32.27240753173828,-103.27677052340374,0.11598431365504458,4,-386046.669599092,3.4028234663852886E38,1.59862502E9,,,,0,,3,,1.59862502E9
Raw,1933623502,1624824000000,,,-1311853870175814073,0.0,10.485074676768102,,,0,16,0.0,99,924874773,117,24.132564544677734,536.5108638889285,0.29067808837700326,4,545652.467226575,3.4028234663852886E38,1.60143744E9,,,,0,,3,,1.60143744E9
Raw,1933623502,1624824000000,,,-1311853870175814073,0.0,10.485074676768102,,,0,23,0.0,32961,55076924507546,33,35.2774772644043,-6.025660089711813,0.08113649130376138,4,-8260.716109169138,3.4028234663852886E38,1.60368755E9,,,,0,,3,,1.60368755E9
Raw,1933623502,1624824000000,,,-1311853870175814073,0.0,10.485074676768102,,,0,7,0.0,32995,55076932810932,45,32.400001525878906,-172.12628935258408,0.11417814316122932,4,-338908.2684207964,3.4028234663852886E38,1.60481254E9,,,,0,,3,,1.60481254E9
Raw,1933623503,1624824000000,,,-1311853870175814073,0.0,10.485074676768102,,,0,8,0.0,32961,55076927428377,41,33.09305953979492,-562.1362018975383,0.10463024584756941,4,-569217.7448105195,3.4028234663852886E38,1.60537498E9,,,,0,,3,,1.60537498E9
Raw,1933623503,1624824000000,,,-1311853870175814073,0.0,10.485074676768102,,,0,193,0.0,35,9312066,41,27.100601196289062,-254.0565612684636,0.20759489469265568,4,-399563.625268143,3.4028234663852886E38,1.57542003E9,,,,0,,4,,1.57542003E9
Raw,1933623503,1624824000000,,,-1311853870175814073,0.0,10.485074676768102,,,0,194,0.0,35,12369862,34,28.70638084411621,-102.81388816075332,0.1733878075463593,4,-62284.74055713124,3.4028234663852886E38,1.57542003E9,,,,0,,4,,1.57542003E9
Raw,1933623503,1624824000000,,,-1311853870175814073,0.0,10.485074676768102,,,0,6,0.0,16431,44280878575661,11,32.1159553527832,-78.40859132767645,0.1189340687221539,4,-105193.69991562121,3.4028234663852886E38,1.56109798E9,,,,0,,5,,1.56109798E9
Raw,1933623503,1624824000000,,,-1311853870175814073,0.0,10.485074676768102,,,0,14,0.0,16431,44280924431634,25,25.252939224243164,130.6254538636329,0.25552792567958815,4,142168.95642907353,3.4028234663852886E38,1.56109798E9,,,,0,,5,,1.56109798E9
Raw,1933623503,1624824000000,,,-1311853870175814073,0.0,10.485074676768102,,,0,16,0.0,16431,44280877934115,8,35.09661102294922,-76.8776073806718,0.08524176313231263,4,-104128.1856792817,3.4028234663852886E38,1.56109798E9,,,,0,,5,,1.56109798E9
Raw,1933623504,1624824000000,,,-1311853870175814073,0.0,10.485074676768102,,,0,24,0.0,16431,44280924170969,20,27.401763916015625,25.588465050959172,0.19965275038067032,4,-80659.17868299791,3.4028234663852886E38,1.56109798E9,,,,0,,5,,1.56109798E9
Raw,1933623504,1624824000000,,,-1311853870175814073,0.0,10.485074676768102,,,0,25,0.0,16431,44280922861126,6,41.84003448486328,-582.6547268681397,0.038248104890553414,1,-683215.19053936,7.820040918886662E-4,1.56109798E9,,,,0,,5,,1.56109798E9
Raw,1933623504,1624824000000,,,-1311853870175814073,0.0,10.485074676768102,,,0,26,0.0,16431,44280915264435,10,33.262306213378906,430.6375981008616,0.10404652553323063,4,586869.273952284,3.4028234663852886E38,1.56109798E9,,,,0,,5,,1.56109798E9
Raw,1933623504,1624824000000,,,-1311853870175814073,0.0,10.485074676768102,,,0,27,0.0,16431,44280913163933,7,36.061920166015625,119.20864890744798,0.0757570964307418,1,84823.96650610058,0.0014428987633436918,1.56109798E9,,,,0,,5,,1.56109798E9
Raw,1933623504,1624824000000,,,-1311853870175814073,0.0,10.485074676768102,,,0,33,0.0,16431,44280925997968,12,31.401412963867188,-114.60868460100448,0.12658295080325793,4,-229709.9680459296,3.4028234663852886E38,1.56109798E9,,,,0,,5,,1.56109798E9
Fix,gps,34.486391,109.464130,359.391144,0.938748,4.000000,1627820277999
Raw,1933624539,1625824000000,,,-1311853870175814458,0.0,10.384364548948522,,,0,10,0.0,16431,44295931555803,8,41.249916076660156,-345.2768587710482,0.04246477293167769,4,-663860.9676328667,3.4028234663852886E38,1.57542003E9,,,,0,,1,,1.57542003E9
Raw,1933624539,1625824000000,,,-1311853870175814458,0.0,10.384364548948522,,,0,12,0.0,16431,44295923633780,27,30.589574813842773,-473.58575362666807,0.13845376390247616,4,-823206.7409553111,3.4028234663852886E38,1.57542003E9,,,,0,,1,,1.57542003E9
Raw,1933624539,1625824000000,,,-1311853870175814458,0.0,10.384364548948522,,,0,15,0.0,16,1625016320614,1000000000,26.65768051147461,415.4895821343855,2.99792458E8,2,524294.6413600222,3.4028234663852886E38,1.57542003E9,,,,0,,1,,1.57542003E9
Raw,1933624540,1625824000000,,,-1311853870175814458,0.0,10.384364548948522,,,0,18,0.0,16431,44295921129246,6,42.6635627746582,563.9196005175509,0.034523354619285004,1,880745.804951266,7.048005936667323E-4,1.57542003E9,,,,0,,1,,1.57542003E9
Raw,1933624540,1625824000000,,,-1311853870175814458,0.0,10.384364548948522,,,0,23,0.0,16431,44295931332134,19,33.62889862060547,114.74967520302522,0.09915271413562649,4,58588.46983362863,3.4028234663852886E38,1.57542003E9,,,,0,,1,,1.57542003E9
Raw,1933624540,1625824000000,,,-1311853870175814458,0.0,10.384364548948522,,,0,24,0.0,16431,44295926039057,42,26.985504150390625,462.1058279610029,0.20975297320679875,4,546817.935228419,3.4028234663852886E38,1.57542003E9,,,,0,,1,,1.57542003E9
Raw,1933624541,1625824000000,,,-1311853870175814458,0.0,10.384364548948522,,,0,25,0.0,16431,44295922887785,11,38.544471740722656,-704.3328457247903,0.055664265136446234,1,-928683.5033226791,0.0010743410093709826,1.57542003E9,,,,0,,1,,1.57542003E9
Raw,1933624541,1625824000000,,,-1311853870175814458,0.0,10.384364548948522,,,0,31,0.0,17,976485,55,24.568317413330078,-830.899956639812,0.27885462126841365,4,-1509.1775681729755,3.4028234663852886E38,1.57542003E9,,,,0,,1,,1.57542003E9
Raw,1933624541,1625824000000,,,-1311853870175814458,0.0,10.384364548948522,,,0,32,0.0,16431,44295927019662,8,41.36810302734375,-399.78227305637006,0.0411030306813536,1,-686828.159640253,8.181620505638421E-4,1.57542003E9,,,,0,,1,,1.57542003E9
Raw,1933624541,1625824000000,,,-1311853870175814458,0.0,10.384364548948522,,,0,10,0.0,32995,55077930419035,33,38.193153381347656,-777.831799546057,0.05929513263517247,4,-1371713.0704929135,3.4028234663852886E38,1.59806246E9,,,,0,,3,,1.59806246E9
Raw,1933624541,1625824000000,,,-1311853870175814458,0.0,10.384364548948522,,,0,9,0.0,32995,55077933648597,53,30.890600204467773,-102.53167690013032,0.13556127335338197,4,-386149.2881520903,3.4028234663852886E38,1.59862502E9,,,,0,,3,,1.59862502E9
Raw,1933624541,1625824000000,,,-1311853870175814458,0.0,10.384364548948522,,,0,16,0.0,99,1924873039,94,26.000993728637695,536.8673323017006,0.2345873182420244,4,546188.4284471585,3.4028234663852886E38,1.60143744E9,,,,0,,3,,1.60143744E9
Raw,1933624542,1625824000000,,,-1311853870175814458,0.0,10.384364548948522,,,0,23,0.0,32961,55077924507573,39,33.55300521850586,-5.897865788826003,0.0987774326728249,4,-8266.898192265315,3.4028234663852886E38,1.60368755E9,,,,0,,3,,1.60368755E9
Raw,1933624542,1625824000000,,,-1311853870175814458,0.0,10.384364548948522,,,0,7,0.0,32995,55077932811466,37,34.08414077758789,-171.8776067085654,0.09445998590314203,4,-339080.2852719568,3.4028234663852886E38,1.60481254E9,,,,0,,3,,1.60481254E9
Raw,1933624542,1625824000000,,,-1311853870175814458,0.0,10.384364548948522,,,0,8,0.0,32961,55077927430284,42,32.977882385253906,-561.9711405605983,0.10600942040903005,4,-569779.7279244999,3.4028234663852886E38,1.60537498E9,,,,0,,3,,1.60537498E9
