# 
# Header Description:
# 
# Version: v2.0.0.1 Platform: 10 Manufacturer: HUAWEI Model: BLA-AL00
# 
# Raw,ElapsedRealtimeMillis,TimeNanos,LeapSecond,TimeUncertaintyNanos,FullBiasNanos,BiasNanos,BiasUncertaintyNanos,DriftNanosPerSecond,DriftUncertaintyNanosPerSecond,HardwareClockDiscontinuityCount,Svid,TimeOffsetNanos,State,ReceivedSvTimeNanos,ReceivedSvTimeUncertaintyNanos,Cn0DbHz,PseudorangeRateMetersPerSecond,PseudorangeRateUncertaintyMetersPerSecond,AccumulatedDeltaRangeState,AccumulatedDeltaRangeMeters,AccumulatedDeltaRangeUncertaintyMeters,CarrierFrequencyHz,CarrierCycles,CarrierPhase,CarrierPhaseUncertainty,MultipathIndicator,SnrInDb,ConstellationType,AgcDb,CarrierFrequencyHz
# 
# Fix,Provider,Latitude,Longitude,Altitude,Speed,Accuracy,(UTC)TimeInMs
# 
# Nav,Svid,Type,Status,MessageId,Sub-messageId,Data(Bytes)
# 
Raw,1933388435,1389824000000,,,-1311853870175722915,0.0,10.197247382098679,,,0,10,0.0,16431,44059931275962,6,43.64240646362305,-365.825853457781,0.03269080683367841,4,-579976.2338608777,3.4028234663852886E38,1.57542003E9,,,,0,,1,,1.57542003E9
Raw,1933388436,1389824000000,,,-1311853870175722915,0.0,10.197247382098679,,,0,12,0.0,16431,44059923251696,42,26.932483673095703,-496.17717360298684,0.21052923110938981,4,-708636.8686236164,3.4028234663852886E38,1.57542003E9,,,,0,,1,,1.57542003E9
Raw,1933388436,1389824000000,,,-1311853870175722915,0.0,10.197247382098679,,,0,15,0.0,16431,44059916647624,37,27.92702865600586,415.269204970509,0.19022515681613317,4,675777.6659717092,3.4028234663852886E38,1.57542003E9,,,,0,,1,,1.57542003E9
Raw,1933388436,1389824000000,,,-1311853870175722915,0.0,10.197247382098679,,,0,18,0.0,16431,44059921571801,17,34.64314270019531,559.9220351095339,0.0866941866841957,4,748084.9801592749,3.4028234663852886E38,1.57542003E9,,,,0,,1,,1.57542003E9
Raw,1933388436,1389824000000,,,-1311853870175722915,0.0,10.197247382098679,,,0,23,0.0,16431,44059931413046,15,35.912742614746094,90.89521903227,0.07671350208326422,4,34340.37682829831,3.4028234663852886E38,1.57542003E9,,,,0,,1,,1.57542003E9
Raw,1933388437,1389824000000,,,-1311853870175722915,0.0,10.197247382098679,,,0,24,0.0,16431,44059926396885,14,36.37537384033203,447.4751496020865,0.07193865476791267,4,680636.351175917,3.4028234663852886E38,1.57542003E9,,,,0,,1,,1.57542003E9
Raw,1933388437,1389824000000,,,-1311853870175722915,0.0,10.197247382098679,,,0,25,0.0,16431,44059922329528,11,38.495635986328125,-713.4130256266844,0.05587475925330598,4,-761327.2496088983,3.4028234663852886E38,1.57542003E9,,,,0,,1,,1.57542003E9
Raw,1933388438,1389824000000,,,-1311853870175722915,0.0,10.197247382098679,,,0,31,0.0,16,1389017320626,1000000000,21.432830810546875,-836.7343960421258,2.99792458E8,2,-14.212266662623463,3.4028234663852886E38,1.57542003E9,,,,0,,1,,1.57542003E9
Raw,1933388438,1389824000000,,,-1311853870175722915,0.0,10.197247382098679,,,0,32,0.0,16431,44059926702605,6,43.59152603149414,-406.6534326211947,0.03204831383598153,4,-591769.8963177335,3.4028234663852886E38,1.57542003E9,,,,0,,1,,1.57542003E9
Raw,1933388438,1389824000000,,,-1311853870175722915,0.0,10.197247382098679,,,0,10,0.0,32995,54841929797197,33,39.46226119995117,-801.5825683634557,0.05137754333519853,4,-1185304.8373702813,3.4028234663852886E38,1.59806246E9,,,,0,,3,,1.59806246E9
Raw,1933388439,1389824000000,,,-1311853870175722915,0.0,10.197247382098679,,,0,9,0.0,32995,54841933551543,41,33.208396911621094,-143.36205934559302,0.1043691106588352,4,-357058.340310581,3.4028234663852886E38,1.59862502E9,,,,0,,3,,1.59862502E9
Raw,1933388439,1389824000000,,,-1311853870175722915,0.0,10.197247382098679,,,0,16,0.0,32995,54841925286233,40,33.423118591308594,512.9962524127764,0.10039348696384887,4,601855.9361472868,3.4028234663852886E38,1.60143744E9,,,,0,,3,,1.60143744E9
Raw,1933388439,1389824000000,,,-1311853870175722915,0.0,10.197247382098679,,,0,23,0.0,65,1924489376,48,31.730606079101562,-41.506263120152425,0.12164400677768022,4,-2788.3526308771907,3.4028234663852886E38,1.60368755E9,,,,0,,3,,1.60368755E9
Raw,1933388440,1389824000000,,,-1311853870175722915,0.0,10.197247382098679,,,0,7,0.0,32995,54841932671010,33,37.01795959472656,-184.57531558701885,0.06801930956284138,4,-296980.51134318317,3.4028234663852886E38,1.60481254E9,,,,0,,3,,1.60481254E9
Raw,1933388440,1389824000000,,,-1311853870175722915,0.0,10.197247382098679,,,0,8,0.0,16,6987707,1000000000,14.908791542053223,-563.6003842297582,2.99792458E8,4,-524291.941075627,3.4028234663852886E38,1.60537498E9,,,,0,,3,,1.60537498E9
Raw,1933388440,1389824000000,,,-1311853870175722915,0.0,10.197247382098679,,,0,193,0.0,35,9113247,65,21.936084747314453,-253.26750127627577,4.201639175561921,4,-339951.0003156207,3.4028234663852886E38,1.57542003E9,,,,0,,4,,1.57542003E9
Raw,1933388441,1389824000000,,,-1311853870175722915,0.0,10.197247382098679,,,0,194,0.0,35,12287392,16,34.92289352416992,-107.11936300161148,0.08588288109926234,4,-37564.96523499333,3.4028234663852886E38,1.57542003E9,,,,0,,4,,1.57542003E9
Raw,1933388441,1389824000000,,,-1311853870175722915,0.0,10.197247382098679,,,0,6,0.0,16431,44045878514289,7,36.496482849121094,-78.17634494831589,0.0731380976250538,4,-86802.50193743876,3.4028234663852886E38,1.56109798E9,,,,0,,5,,1.56109798E9
Raw,1933388441,1389824000000,,,-1311853870175722915,0.0,10.197247382098679,,,0,14,0.0,16431,44045924528832,166,24.945785522460938,117.18098984215055,0.2647144457747945,4,113024.06593440978,3.4028234663852886E38,1.56109798E9,,,,1,,5,,1.56109798E9
Raw,1933388442,1389824000000,,,-1311853870175722915,0.0,10.197247382098679,,,0,16,0.0,16431,44045877873805,7,36.462013244628906,-77.03629529824201,0.0733004719064469,4,-86046.73307430194,3.4028234663852886E38,1.56109798E9,,,,0,,5,,1.56109798E9
Raw,1933388442,1389824000000,,,-1311853870175722915,0.0,10.197247382098679,,,0,24,0.0,16431,44045924181124,166,27.386775970458984,0.4458585084537643,0.1999980682385064,4,-83685.61454524903,3.4028234663852886E38,1.56109798E9,,,,1,,5,,1.56109798E9
Raw,1933388442,1389824000000,,,-1311853870175722915,0.0,10.197247382098679,,,0,25,0.0,16431,44045922397705,6,39.617103576660156,-599.7350817896331,0.04916990130731569,4,-544288.8487889633,3.4028234663852886E38,1.56109798E9,,,,0,,5,,1.56109798E9
Raw,1933388443,1389824000000,,,-1311853870175722915,0.0,10.197247382098679,,,0,26,0.0,16431,44045915597360,7,36.084564208984375,418.99274742808257,0.07600376155309585,4,487083.5744325963,3.4028234663852886E38,1.56109798E9,,,,0,,5,,1.56109798E9
Raw,1933388443,1389824000000,,,-1311853870175722915,0.0,10.197247382098679,,,0,27,0.0,16431,44045913251306,6,41.071868896484375,102.45615017647577,0.04360613998186058,4,58657.73308513136,3.4028234663852886E38,1.56109798E9,,,,0,,5,,1.56109798E9
Raw,1933388443,1389824000000,,,-1311853870175722915,0.0,10.197247382098679,,,0,33,0.0,16431,44045925903037,7,35.858394622802734,-127.4570208960605,0.07619101536207762,4,-201248.67942592088,3.4028234663852886E38,1.56109798E9,,,,0,,5,,1.56109798E9
Fix,gps,34.486441,109.464204,359.599792,0.000000,4.000000,1627820041999
Fix,gps,34.486441,109.464204,359.689270,0.000000,4.000000,1627820042999
Raw,1933389537,1390824000000,,,-1311853870175723304,0.0,10.418113794372612,,,0,10,0.0,16431,44060931277177,6,43.713401794433594,-365.7436806551045,0.032441412452110616,4,-580342.0340998749,3.4028234663852886E38,1.57542003E9,,,,0,,1,,1.57542003E9
Raw,1933389538,1390824000000,,,-1311853870175723304,0.0,10.418113794372612,,,0,12,0.0,16431,44060923253296,63,23.422475814819336,-496.23037631761895,0.31507353857537534,4,-709132.7487293702,3.4028234663852886E38,1.57542003E9,,,,0,,1,,1.57542003E9
Raw,1933389538,1390824000000,,,-1311853870175723304,0.0,10.418113794372612,,,0,15,0.0,16431,44060916646198,49,25.646625518798828,415.10281441776465,0.24643711271693192,4,676192.7443471019,3.4028234663852886E38,1.57542003E9,,,,0,,1,,1.57542003E9
Raw,1933389538,1390824000000,,,-1311853870175723304,0.0,10.418113794372612,,,0,18,0.0,16431,44060921569880,19,33.56205749511719,559.9591509046872,0.0981469488317141,4,748644.9123574652,3.4028234663852886E38,1.57542003E9,,,,0,,1,,1.57542003E9
Raw,1933389539,1390824000000,,,-1311853870175723304,0.0,10.418113794372612,,,0,23,0.0,16431,44060931412725,13,36.93649673461914,90.97731514941933,0.06841243522193524,4,34431.263998733055,3.4028234663852886E38,1.57542003E9,,,,0,,1,,1.57542003E9
Raw,1933389539,1390824000000,,,-1311853870175723304,0.0,10.418113794372612,,,0,24,0.0,16431,44060926395402,16,35.247718811035156,447.32368716529913,0.08175173123365398,4,681083.8846102752,3.4028234663852886E38,1.57542003E9,,,,0,,1,,1.57542003E9
Raw,1933389540,1390824000000,,,-1311853870175723304,0.0,10.418113794372612,,,0,25,0.0,16431,44060922331932,10,38.86432647705078,-713.4269312689457,0.05357051559480752,1,-762040.7371457011,0.0010354983387514949,1.57542003E9,,,,0,,1,,1.57542003E9
Raw,1933389540,1390824000000,,,-1311853870175723304,0.0,10.418113794372612,,,0,31,0.0,16,1390017323356,1000000000,18.380496978759766,-836.7343960421258,2.99792458E8,2,-14.205723285418895,3.4028234663852886E38,1.57542003E9,,,,0,,1,,1.57542003E9
Raw,1933389540,1390824000000,,,-1311853870175723304,0.0,10.418113794372612,,,0,32,0.0,16431,44060926703952,6,43.92650604248047,-406.5970943205625,0.031205875557913376,4,-592176.5217497749,3.4028234663852886E38,1.57542003E9,,,,0,,1,,1.57542003E9
Raw,1933389541,1390824000000,,,-1311853870175723304,0.0,10.418113794372612,,,0,10,0.0,32995,54842929799880,33,39.58927917480469,-801.4383314074512,0.05065775946396009,4,-1186106.3562783166,3.4028234663852886E38,1.59806246E9,,,,0,,3,,1.59806246E9
Raw,1933389541,1390824000000,,,-1311853870175723304,0.0,10.418113794372612,,,0,9,0.0,32995,54842933552014,33,37.710365295410156,-143.242498088111,0.06314065886733308,4,-357201.6810092982,3.4028234663852886E38,1.59862502E9,,,,0,,3,,1.59862502E9
Raw,1933389541,1390824000000,,,-1311853870175723304,0.0,10.418113794372612,,,0,16,0.0,32995,54842925284419,33,35.199344635009766,512.9716448791669,0.08200206587830455,4,602368.9088565506,3.4028234663852886E38,1.60143744E9,,,,0,,3,,1.60143744E9
Raw,1933389542,1390824000000,,,-1311853870175723304,0.0,10.418113794372612,,,0,23,0.0,65,924489449,68,28.789836883544922,-40.81685171022315,0.17033360006793874,4,-2829.873170767424,3.4028234663852886E38,1.60368755E9,,,,0,,3,,1.60368755E9
Raw,1933389542,1390824000000,,,-1311853870175723304,0.0,10.418113794372612,,,0,7,0.0,32995,54842932671713,33,36.328163146972656,-184.55638278242043,0.07345314400417163,4,-297165.03917952586,3.4028234663852886E38,1.60481254E9,,,,0,,3,,1.60481254E9
Raw,1933389542,1390824000000,,,-1311853870175723304,0.0,10.418113794372612,,,0,8,0.0,17,989607,98,15.561331748962402,-563.1441905492004,4.201257345541189,4,-524855.1756872218,3.4028234663852886E38,1.60537498E9,,,,0,,3,,1.60537498E9
Raw,1933389543,1390824000000,,,-1311853870175723304,0.0,10.418113794372612,,,0,193,0.0,35,9114092,23,32.170894622802734,-252.69351862597512,0.11650335551856505,4,-340202.85241607495,3.4028234663852886E38,1.57542003E9,,,,0,,4,,1.57542003E9
Raw,1933389543,1390824000000,,,-1311853870175723304,0.0,10.418113794372612,,,0,194,0.0,35,12287755,14,36.353702545166016,-107.22720841466378,0.07317511736359628,4,-37672.204794655656,3.4028234663852886E38,1.57542003E9,,,,0,,4,,1.57542003E9
Raw,1933389543,1390824000000,,,-1311853870175723304,0.0,10.418113794372612,,,0,6,0.0,16431,44046878514559,8,35.296573638916016,-78.16577938679382,0.08347962690605565,4,-86880.67966895524,3.4028234663852886E38,1.56109798E9,,,,0,,5,,1.56109798E9
Raw,1933389544,1390824000000,,,-1311853870175723304,0.0,10.418113794372612,,,0,14,0.0,16431,44046924528484,31,23.482267379760742,118.97114530916878,0.3131454833591123,4,113142.25352822506,3.4028234663852886E38,1.56109798E9,,,,0,,5,,1.56109798E9
Raw,1933389544,1390824000000,,,-1311853870175723304,0.0,10.418113794372612,,,0,16,0.0,16431,44046877874051,7,36.284645080566406,-77.00256218689856,0.07474642178860957,4,-86123.78032329695,3.4028234663852886E38,1.56109798E9,,,,0,,5,,1.56109798E9
Raw,1933389544,1390824000000,,,-1311853870175723304,0.0,10.418113794372612,,,0,24,0.0,16431,44046924181137,20,27.40528678894043,0.8748163122119821,0.19957390141631237,4,-83685.1766071698,3.4028234663852886E38,1.56109798E9,,,,0,,5,,1.56109798E9
Raw,1933389545,1390824000000,,,-1311853870175723304,0.0,10.418113794372612,,,0,25,0.0,16431,44046922399724,7,36.0604362487793,-599.6903656066752,0.07383342633522766,4,-544888.5698346535,3.4028234663852886E38,1.56109798E9,,,,0,,5,,1.56109798E9
Raw,1933389545,1390824000000,,,-1311853870175723304,0.0,10.418113794372612,,,0,26,0.0,16431,44046915595924,6,38.661521911621094,418.909006832406,0.05721202137982878,4,487502.46773789474,3.4028234663852886E38,1.56109798E9,,,,0,,5,,1.56109798E9
Raw,1933389545,1390824000000,,,-1311853870175723304,0.0,10.418113794372612,,,0,27,0.0,16431,44046913250968,6,39.807518005371094,102.57176638961528,0.05006530219177244,4,58760.19213757921,3.4028234663852886E38,1.56109798E9,,,,0,,5,,1.56109798E9
Raw,1933389546,1390824000000,,,-1311853870175723304,0.0,10.418113794372612,,,0,33,0.0,16431,44046925903472,8,35.119667053222656,-127.40675779330348,0.08286030972916691,4,-201376.1403857483,3.4028234663852886E38,1.56109798E9,,,,0,,5,,1.56109798E9
Fix,gps,34.486441,109.464204,359.731384,0.000000,4.000000,1627820043999
Raw,1933390559,1391824000000,,,-1311853870175723695,0.0,10.697177116928705,,,0,10,0.0,16431,44061931278411,6,42.91908264160156,-365.64552318031883,0.03535401672630972,1,-580707.7361851678,6.843690061941743E-4,1.57542003E9,,,,0,,1,,1.57542003E9
Raw,1933390560,1391824000000,,,-1311853870175723695,0.0,10.697177116928705,,,0,12,0.0,16431,44061923254970,67,21.47308349609375,-496.16449492916036,4.200585548370821,4,-709629.0299426591,3.4028234663852886E38,1.57542003E9,,,,0,,1,,1.57542003E9
Raw,1933390560,1391824000000,,,-1311853870175723695,0.0,10.697177116928705,,,0,15,0.0,16431,44061916644870,62,22.439979553222656,415.40045651057835,4.202993953208702,4,676607.7813290901,3.4028234663852886E38,1.57542003E9,,,,0,,1,,1.57542003E9
Raw,1933390560,1391824000000,,,-1311853870175723695,0.0,10.697177116928705,,,0,18,0.0,16431,44061921568078,24,31.703142166137695,560.0503555583423,0.12150121992369306,1,749204.8144498987,0.0023616121616214514,1.57542003E9,,,,0,,1,,1.57542003E9
Raw,1933390561,1391824000000,,,-1311853870175723695,0.0,10.697177116928705,,,0,23,0.0,16431,44061931412426,14,36.30048370361328,91.01434573843136,0.07345380135623836,4,34522.2166690773,3.4028234663852886E38,1.57542003E9,,,,0,,1,,1.57542003E9
Raw,1933390561,1391824000000,,,-1311853870175723695,0.0,10.697177116928705,,,0,24,0.0,16431,44061926393890,20,33.34110641479492,447.4762061582387,0.10153610631132343,4,681531.3374910756,3.4028234663852886E38,1.57542003E9,,,,0,,1,,1.57542003E9
Raw,1933390561,1391824000000,,,-1311853870175723695,0.0,10.697177116928705,,,0,25,0.0,16431,44061922334290,11,37.97964859008789,-713.3994608089884,0.05926982042014747,1,-762754.2391025533,0.0011465244460850954,1.57542003E9,,,,0,,1,,1.57542003E9
Raw,1933390562,1391824000000,,,-1311853870175723695,0.0,10.697177116928705,,,0,31,0.0,16,1391017326208,1000000000,21.92105484008789,-836.7343960421258,2.99792458E8,2,-14.19917990804176,3.4028234663852886E38,1.57542003E9,,,,0,,1,,1.57542003E9
Raw,1933390562,1391824000000,,,-1311853870175723695,0.0,10.697177116928705,,,0,32,0.0,16431,44061926705298,6,44.396148681640625,-406.5280432636473,0.03120611686436825,4,-592583.0638499083,3.4028234663852886E38,1.57542003E9,,,,0,,1,,1.57542003E9
Raw,1933390562,1391824000000,,,-1311853870175723695,0.0,10.697177116928705,,,0,10,0.0,32995,54843929802564,33,37.83808135986328,-801.266146837098,0.06158021739324521,1,-1186907.824093072,0.0011488524032756686,1.59806246E9,,,,0,,3,,1.59806246E9
Raw,1933390563,1391824000000,,,-1311853870175723695,0.0,10.697177116928705,,,0,9,0.0,32995,54843933552523,33,37.29541778564453,-143.13319565004235,0.06611109972226362,4,-357344.8923978455,3.4028234663852886E38,1.59862502E9,,,,0,,3,,1.59862502E9
Raw,1933390563,1391824000000,,,-1311853870175723695,0.0,10.697177116928705,,,0,16,0.0,32995,54843925282750,35,34.55237579345703,513.062270131061,0.0882694019379604,1,602881.9520096927,0.0016735292738303542,1.60143744E9,,,,0,,3,,1.60143744E9
Raw,1933390563,1391824000000,,,-1311853870175723695,0.0,10.697177116928705,,,0,23,0.0,65,1924489754,90,26.349416732788086,-41.31100046642618,0.2253289054650902,4,-2871.233953002391,3.4028234663852886E38,1.60368755E9,,,,0,,3,,1.60368755E9
Raw,1933390564,1391824000000,,,-1311853870175723695,0.0,10.697177116928705,,,0,7,0.0,32995,54843932672348,41,33.10886001586914,-184.57800810108415,0.10538577635777807,4,-297349.5367229919,3.4028234663852886E38,1.60481254E9,,,,0,,3,,1.60481254E9
Raw,1933390565,1391824000000,,,-1311853870175723695,0.0,10.697177116928705,,,0,8,0.0,17,991492,166,22.00389862060547,-563.2367925835729,4.20125761181038,4,-525418.4945193417,3.4028234663852886E38,1.60537498E9,,,,1,,3,,1.60537498E9
Raw,1933390565,1391824000000,,,-1311853870175723695,0.0,10.697177116928705,,,0,193,0.0,35,9114938,22,32.44367599487305,-253.0946180155638,0.11295222316135001,4,-340455.9214668748,3.4028234663852886E38,1.57542003E9,,,,0,,4,,1.57542003E9
Raw,1933390566,1391824000000,,,-1311853870175723695,0.0,10.697177116928705,,,0,194,0.0,35,12288062,12,37.48789978027344,-107.19101284583655,0.06448813491362682,4,-37779.438275970664,3.4028234663852886E38,1.57542003E9,,,,0,,4,,1.57542003E9
Raw,1933390566,1391824000000,,,-1311853870175723695,0.0,10.697177116928705,,,0,6,0.0,16431,44047878514813,8,34.771297454833984,-78.16979259604938,0.08847620989069915,4,-86958.86676165971,3.4028234663852886E38,1.56109798E9,,,,0,,5,,1.56109798E9
Raw,1933390566,1391824000000,,,-1311853870175723695,0.0,10.697177116928705,,,0,14,0.0,16431,44047924528128,28,24.510269165039062,118.47498994833796,0.27828375676348105,4,113261.2556674283,3.4028234663852886E38,1.56109798E9,,,,0,,5,,1.56109798E9
Raw,1933390567,1391824000000,,,-1311853870175723695,0.0,10.697177116928705,,,0,16,0.0,16431,44047877874335,8,34.921546936035156,-77.0647371082103,0.08690081989777748,1,-86200.82744074556,0.0016453360440209508,1.56109798E9,,,,0,,5,,1.56109798E9
Raw,1933390567,1391824000000,,,-1311853870175723695,0.0,10.697177116928705,,,0,24,0.0,16431,44047924181116,19,27.861129760742188,0.7619383448714352,0.18940864234013943,4,-83684.62138246023,3.4028234663852886E38,1.56109798E9,,,,0,,5,,1.56109798E9
Raw,1933390567,1391824000000,,,-1311853870175723695,0.0,10.697177116928705,,,0,25,0.0,16431,44047922401685,6,37.887786865234375,-599.5398574786705,0.05990762666402685,4,-545488.2564923064,3.4028234663852886E38,1.56109798E9,,,,0,,5,,1.56109798E9
Raw,1933390568,1391824000000,,,-1311853870175723695,0.0,10.697177116928705,,,0,26,0.0,16431,44047915594551,6,38.26742935180664,418.9345345923416,0.05973713949320267,4,487921.3667789988,3.4028234663852886E38,1.56109798E9,,,,0,,5,,1.56109798E9
Raw,1933390568,1391824000000,,,-1311853870175723695,0.0,10.697177116928705,,,0,27,0.0,16431,44047913250621,6,39.91950607299805,102.68961500365702,0.04945443074080427,1,58862.83228304,9.755181963555515E-4,1.56109798E9,,,,0,,5,,1.56109798E9
Raw,1933390568,1391824000000,,,-1311853870175723695,0.0,10.697177116928705,,,0,33,0.0,16431,44047925903877,8,34.94853210449219,-127.39616666993902,0.0844880132973227,4,-201503.57058599632,3.4028234663852886E38,1.56109798E9,,,,0,,5,,1.56109798E9
Fix,gps,34.486441,109.464204,359.772491,0.000000,3.000000,1627820044999
Raw,1933391564,1392824000000,,,-1311853870175724084,0.0,10.349602118363599,,,0,10,0.0,16431,44062931279622,6,43.14973449707031,-365.6872741895593,0.03448094709006906,1,-581073.4174045321,6.664349930360913E-4,1.57542003E9,,,,0,,1,,1.57542003E9
Raw,1933391564,1392824000000,,,-1311853870175724084,0.0,10.349602118363599,,,0,12,0.0,16431,44062923256591,166,24.36476707458496,-495.53120880451,0.282742301241967,4,-710125.2237504823,3.4028234663852886E38,1.57542003E9,,,,1,,1,,1.57542003E9
Raw,1933391565,1392824000000,,,-1311853870175724084,0.0,10.349602118363599,,,0,15,0.0,16431,44062916643499,60,22.81212615966797,415.2008014802677,4.202993686939511,4,677022.8230592533,3.4028234663852886E38,1.57542003E9,,,,0,,1,,1.57542003E9
Raw,1933391565,1392824000000,,,-1311853870175724084,0.0,10.349602118363599,,,0,18,0.0,16431,44062921566169,17,34.44614028930664,560.113374020453,0.08867543749238999,1,749764.7185429314,0.0017221014713868499,1.57542003E9,,,,0,,1,,1.57542003E9
Raw,1933391565,1392824000000,,,-1311853870175724084,0.0,10.349602118363599,,,0,23,0.0,16431,44062931412114,11,38.12763977050781,91.2372620453188,0.05990850035981174,4,34613.2715952096,3.4028234663852886E38,1.57542003E9,,,,0,,1,,1.57542003E9
Raw,1933391565,1392824000000,,,-1311853870175724084,0.0,10.349602118363599,,,0,24,0.0,16431,44062926392444,21,33.00115966796875,447.5090957287832,0.10554259226979684,1,681978.9652242529,0.0019174825865775347,1.57542003E9,,,,0,,1,,1.57542003E9
Raw,1933391565,1392824000000,,,-1311853870175724084,0.0,10.349602118363599,,,0,25,0.0,16431,44062922336683,10,38.76371765136719,-713.5665330108632,0.05419060245607818,1,-763467.6738593511,0.0010475622257217765,1.57542003E9,,,,0,,1,,1.57542003E9
Raw,1933391565,1392824000000,,,-1311853870175724084,0.0,10.349602118363599,,,0,31,0.0,16,1392017328999,1000000000,18.65488052368164,-836.7343960421258,2.99792458E8,2,-14.218810040018898,3.4028234663852886E38,1.57542003E9,,,,0,,1,,1.57542003E9
Raw,1933391565,1392824000000,,,-1311853870175724084,0.0,10.349602118363599,,,0,32,0.0,16431,44062926706669,6,44.878501892089844,-406.57112348869214,0.0312063644115073,1,-592989.6917615621,5.461593973450363E-4,1.57542003E9,,,,0,,1,,1.57542003E9
Raw,1933391566,1392824000000,,,-1311853870175724084,0.0,10.349602118363599,,,0,10,0.0,32995,54844929805228,33,36.92560577392578,-801.1459720953985,0.06820654672999868,1,-1187709.1851635394,0.0012761096004396677,1.59806246E9,,,,0,,3,,1.59806246E9
Raw,1933391566,1392824000000,,,-1311853870175724084,0.0,10.349602118363599,,,0,9,0.0,32995,54844933552951,33,35.69118881225586,-143.0623041404749,0.07902729814901077,4,-357487.94395187136,3.4028234663852886E38,1.59862502E9,,,,0,,3,,1.59862502E9
Raw,1933391566,1392824000000,,,-1311853870175724084,0.0,10.349602118363599,,,0,16,0.0,32995,54844925281096,34,34.709571838378906,513.0960117630186,0.08670304845572813,1,603395.1192825348,0.001643514260649681,1.60143744E9,,,,0,,3,,1.60143744E9
Raw,1933391566,1392824000000,,,-1311853870175724084,0.0,10.349602118363599,,,0,23,0.0,65,924489679,71,28.459321975708008,-41.11544811181949,0.17690875163397846,4,-2912.454673705345,3.4028234663852886E38,1.60368755E9,,,,0,,3,,1.60368755E9
Raw,1933391566,1392824000000,,,-1311853870175724084,0.0,10.349602118363599,,,0,7,0.0,32995,54844932672901,33,36.62232208251953,-184.5255722417238,0.0710833315572455,1,-297534.0156662527,0.001315896399319172,1.60481254E9,,,,0,,3,,1.60481254E9
Raw,1933391566,1392824000000,,,-1311853870175724084,0.0,10.349602118363599,,,0,8,0.0,17,993139,59,22.980499267578125,-563.0124959371963,4.201257878079572,4,-525981.9167460492,3.4028234663852886E38,1.60537498E9,,,,0,,3,,1.60537498E9
Raw,1933391566,1392824000000,,,-1311853870175724084,0.0,10.349602118363599,,,0,193,0.0,35,9115763,20,33.05339050292969,-253.1704855637836,0.10540657863837061,4,-340708.9588722635,3.4028234663852886E38,1.57542003E9,,,,0,,4,,1.57542003E9
Raw,1933391567,1392824000000,,,-1311853870175724084,0.0,10.349602118363599,,,0,194,0.0,35,12288446,11,38.46669006347656,-107.27986580999152,0.05785125882061293,4,-37886.631484246864,3.4028234663852886E38,1.57542003E9,,,,0,,4,,1.57542003E9
Raw,1933391567,1392824000000,,,-1311853870175724084,0.0,10.349602118363599,,,0,6,0.0,16431,44048878515065,8,34.869163513183594,-78.30578159757539,0.08752228387002337,1,-87037.12654707987,0.001655288739129901,1.56109798E9,,,,0,,5,,1.56109798E9
Raw,1933391567,1392824000000,,,-1311853870175724084,0.0,10.349602118363599,,,0,14,0.0,16431,44048924527704,26,25.093542098999023,117.46058527423543,0.2602630239971835,4,113379.43314035208,3.4028234663852886E38,1.56109798E9,,,,0,,5,,1.56109798E9
Raw,1933391567,1392824000000,,,-1311853870175724084,0.0,10.349602118363599,,,0,16,0.0,16431,44048877874585,8,34.82029724121094,-77.1552089890501,0.08788207179423962,1,-86277.93885813901,0.001664627343416214,1.56109798E9,,,,0,,5,,1.56109798E9
Raw,1933391567,1392824000000,,,-1311853870175724084,0.0,10.349602118363599,,,0,24,0.0,16431,44048924181063,18,28.29351806640625,0.933363781759466,0.18024713490711752,4,-83683.93768461222,3.4028234663852886E38,1.56109798E9,,,,0,,5,,1.56109798E9
Raw,1933391567,1392824000000,,,-1311853870175724084,0.0,10.349602118363599,,,0,25,0.0,16431,44048922403697,6,40.879493713378906,-599.5142274713653,0.0425781203981703,1,-546087.859961398,8.286235388368368E-4,1.56109798E9,,,,0,,5,,1.56109798E9
Raw,1933391568,1392824000000,,,-1311853870175724084,0.0,10.349602118363599,,,0,26,0.0,16431,44048915593158,7,36.136695861816406,418.70928363718235,0.07556497488810138,1,488340.29485125054,0.0014305304503068328,1.56109798E9,,,,0,,5,,1.56109798E9
Raw,1933391568,1392824000000,,,-1311853870175724084,0.0,10.349602118363599,,,0,27,0.0,16431,44048913250275,6,40.32988739013672,102.66032113227567,0.04728214010856038,1,58965.423677330204,9.304999839514494E-4,1.56109798E9,,,,0,,5,,1.56109798E9
Raw,1933391568,1392824000000,,,-1311853870175724084,0.0,10.349602118363599,,,0,33,0.0,16431,44048925904323,7,36.33742904663086,-127.32106597699101,0.07215997439159277,1,-201630.96460118514,0.0013978497590869665,1.56109798E9,,,,0,,5,,1.56109798E9
Fix,gps,34.486441,109.464204,359.847931,0.000000,3.000000,1627820045999
Raw,1933392511,1393824000000,,,-1311853870175724472,0.0,8.906369959319223,,,0,10,0.0,16431,44063931280853,6,43.36186981201172,-365.49222029087923,0.03369817807365254,1,-581438.9633079921,6.503558252006769E-4,1.57542003E9,,,,0,,1,,1.57542003E9
Raw,1933392511,1393824000000,,,-1311853870175724472,0.0,8.906369959319223,,,0,12,0.0,16431,44063923258296,34,28.83901023864746,-493.5674117421222,0.16915515919328383,4,-710620.0791453238,3.4028234663852886E38,1.57542003E9,,,,0,,1,,1.57542003E9
Raw,1933392512,1393824000000,,,-1311853870175724472,0.0,8.906369959319223,,,0,15,0.0,16431,44063916642069,59,22.974332809448242,416.28022696080166,4.202993420670319,4,677437.839407543,3.4028234663852886E38,1.57542003E9,,,,0,,1,,1.57542003E9
Raw,1933392512,1393824000000,,,-1311853870175724472,0.0,8.906369959319223,,,0,18,0.0,16431,44063921564320,10,39.446083068847656,559.8645720878365,0.04998913672161093,1,750324.7551823864,9.684152901172638E-4,1.57542003E9,,,,0,,1,,1.57542003E9
Raw,1933392512,1393824000000,,,-1311853870175724472,0.0,8.906369959319223,,,0,23,0.0,16431,44063931411814,12,37.78389358520508,91.17743881350714,0.062244005685584664,4,34704.483837614134,3.4028234663852886E38,1.57542003E9,,,,0,,1,,1.57542003E9
Raw,1933392512,1393824000000,,,-1311853870175724472,0.0,8.906369959319223,,,0,24,0.0,16431,44063926390904,18,34.35971450805664,447.8342082815543,0.09042721418291189,4,682427.3716858163,3.4028234663852886E38,1.57542003E9,,,,0,,1,,1.57542003E9
Raw,1933392513,1393824000000,,,-1311853870175724472,0.0,8.906369959319223,,,0,25,0.0,16431,44063922339046,10,39.22560501098633,-713.0869928475872,0.05140639609838038,4,-764180.9570737326,3.4028234663852886E38,1.57542003E9,,,,0,,1,,1.57542003E9
Raw,1933392513,1393824000000,,,-1311853870175724472,0.0,8.906369959319223,,,0,31,0.0,16,1393017331790,1000000000,26.8037052154541,-836.7343960421258,2.99792458E8,2,-14.212266662629691,3.4028234663852886E38,1.57542003E9,,,,0,,1,,1.57542003E9
Raw,1933392513,1393824000000,,,-1311853870175724472,0.0,8.906369959319223,,,0,32,0.0,16431,44063926708033,7,42.184059143066406,-406.6910596531959,0.03747476346770143,1,-593396.2973598607,7.448033429682255E-4,1.57542003E9,,,,0,,1,,1.57542003E9
Raw,1933392514,1393824000000,,,-1311853870175724472,0.0,8.906369959319223,,,0,10,0.0,32995,54845929807911,33,41.33094787597656,-801.230292092836,0.04177535622964823,1,-1188510.370781574,8.100272389128804E-4,1.59806246E9,,,,0,,3,,1.59806246E9
Raw,1933392514,1393824000000,,,-1311853870175724472,0.0,8.906369959319223,,,0,9,0.0,32995,54845933553450,34,34.834266662597656,-142.47646079530432,0.08696872686254375,4,-357630.42075388087,3.4028234663852886E38,1.59862502E9,,,,0,,3,,1.59862502E9
Raw,1933392514,1393824000000,,,-1311853870175724472,0.0,8.906369959319223,,,0,16,0.0,32995,54845925279342,39,33.563323974609375,513.2821701405462,0.09879994906133827,4,603908.2535179628,3.4028234663852886E38,1.60143744E9,,,,0,,3,,1.60143744E9
Raw,1933392515,1393824000000,,,-1311853870175724472,0.0,8.906369959319223,,,0,23,0.0,65,1924489808,80,27.442941665649414,-41.50781813223128,0.19876935241211546,4,-2953.5611076966857,3.4028234663852886E38,1.60368755E9,,,,0,,3,,1.60368755E9
Raw,1933392515,1393824000000,,,-1311853870175724472,0.0,8.906369959319223,,,0,7,0.0,32995,54845932673554,33,37.800384521484375,-184.41349208344855,0.06235679981141351,1,-297718.44940669206,0.0011489962926134467,1.60481254E9,,,,0,,3,,1.60481254E9
Raw,1933392515,1393824000000,,,-1311853870175724472,0.0,8.906369959319223,,,0,8,0.0,17,994950,70,20.98833465576172,-562.681112212425,4.201258144348763,4,-526545.3113032329,3.4028234663852886E38,1.60537498E9,,,,0,,3,,1.60537498E9
Raw,1933392516,1393824000000,,,-1311853870175724472,0.0,8.906369959319223,,,0,193,0.0,35,9116648,21,32.81618118286133,-252.89092421415523,0.10827966482012807,4,-340962.0000529386,3.4028234663852886E38,1.57542003E9,,,,0,,4,,1.57542003E9
Raw,1933392516,1393824000000,,,-1311853870175724472,0.0,8.906369959319223,,,0,194,0.0,35,12288782,15,35.814476013183594,-106.4734663680477,0.0777204572776265,4,-37993.75449782927,3.4028234663852886E38,1.57542003E9,,,,0,,4,,1.57542003E9
Raw,1933392516,1393824000000,,,-1311853870175724472,0.0,8.906369959319223,,,0,6,0.0,16431,44049878515344,7,35.71256637573242,-78.20594556180595,0.07973164672804955,1,-87115.3391768366,0.001502116327174008,1.56109798E9,,,,0,,5,,1.56109798E9
Raw,1933392517,1393824000000,,,-1311853870175724472,0.0,8.906369959319223,,,0,14,0.0,16431,44049924527292,19,27.77120590209961,118.95835586735859,0.19143416872234686,4,113498.22071621822,3.4028234663852886E38,1.56109798E9,,,,0,,5,,1.56109798E9
Raw,1933392517,1393824000000,,,-1311853870175724472,0.0,8.906369959319223,,,0,16,0.0,16431,44049877874834,6,36.57597351074219,-77.07375191796058,0.07238713529566326,1,-86354.99187963954,0.001359982299618423,1.56109798E9,,,,0,,5,,1.56109798E9
Raw,1933392517,1393824000000,,,-1311853870175724472,0.0,8.906369959319223,,,0,24,0.0,16431,44049924181101,12,31.346036911010742,0.8048590746705084,0.1270588071322683,4,-83682.48672815086,3.4028234663852886E38,1.56109798E9,,,,0,,5,,1.56109798E9
Raw,1933392518,1393824000000,,,-1311853870175724472,0.0,8.906369959319223,,,0,25,0.0,16431,44049922405702,6,43.007869720458984,-599.5685549070627,0.033419132121328146,1,-546687.3167796098,6.836237735114992E-4,1.56109798E9,,,,0,,5,,1.56109798E9
Raw,1933392518,1393824000000,,,-1311853870175724472,0.0,8.906369959319223,,,0,26,0.0,16431,44049915591750,8,34.472686767578125,419.5175831760773,0.09092852418245528,4,488759.7018132992,3.4028234663852886E38,1.56109798E9,,,,0,,5,,1.56109798E9
Raw,1933392518,1393824000000,,,-1311853870175724472,0.0,8.906369959319223,,,0,27,0.0,16431,44049913249937,7,36.23204803466797,102.59485725390948,0.07434912319202885,1,59068.05822443996,0.0014149124035611749,1.56109798E9,,,,0,,5,,1.56109798E9
Raw,1933392519,1393824000000,,,-1311853870175724472,0.0,8.906369959319223,,,0,33,0.0,16431,44049925904740,9,33.73746109008789,-127.39314185192262,0.09697022206498002,1,-201758.31214839805,0.0018856399692595005,1.56109798E9,,,,0,,5,,1.56109798E9
Fix,gps,34.486441,109.464204,359.723846,0.000000,3.000000,1627820046999
Raw,1933393530,1394824000000,,,-1311853870175724860,0.0,8.727320895653568,,,0,10,0.0,16431,44064931282060,6,42.60193634033203,-365.4927315277271,0.03659396578422064,1,-581804.4977984384,7.09818908944726E-4,1.57542003E9,,,,0,,1,,1.57542003E9
Raw,1933393531,1394824000000,,,-1311853870175724860,0.0,8.727320895653568,,,0,12,0.0,16431,44064923259986,28,30.277671813964844,-494.8696001584892,0.14342471847742966,4,-711112.8868755104,3.4028234663852886E38,1.57542003E9,,,,0,,1,,1.57542003E9
Raw,1933393531,1394824000000,,,-1311853870175724860,0.0,8.727320895653568,,,0,15,0.0,16431,44064916640679,60,22.93926239013672,415.98643618557503,4.202993154401128,4,677855.0966563777,3.4028234663852886E38,1.57542003E9,,,,0,,1,,1.57542003E9
Raw,1933393531,1394824000000,,,-1311853870175724860,0.0,8.727320895653568,,,0,18,0.0,16431,44064921562437,6,43.33293533325195,559.7731288569857,0.03205575481174948,1,750884.4076228001,6.525259232148528E-4,1.57542003E9,,,,0,,1,,1.57542003E9
Raw,1933393531,1394824000000,,,-1311853870175724860,0.0,8.727320895653568,,,0,23,0.0,16431,44064931411518,13,36.66891098022461,91.14843464300623,0.07048836136956227,4,34795.73094400402,3.4028234663852886E38,1.57542003E9,,,,0,,1,,1.57542003E9
Raw,1933393532,1394824000000,,,-1311853870175724860,0.0,8.727320895653568,,,0,24,0.0,16431,44064926389400,166,31.96829605102539,448.77082826925766,0.1187239240836081,4,682875.001414455,3.4028234663852886E38,1.57542003E9,,,,1,,1,,1.57542003E9
Raw,1933393532,1394824000000,,,-1311853870175724860,0.0,8.727320895653568,,,0,25,0.0,16431,44064922341414,16,35.084564208984375,-713.034301369803,0.08255083004033564,4,-764894.3226346525,3.4028234663852886E38,1.57542003E9,,,,0,,1,,1.57542003E9
Raw,1933393532,1394824000000,,,-1311853870175724860,0.0,8.727320895653568,,,0,31,0.0,16,1394017334581,1000000000,29.251502990722656,-836.7343960421258,2.99792458E8,2,-14.205723285421566,3.4028234663852886E38,1.57542003E9,,,,0,,1,,1.57542003E9
Raw,1933393532,1394824000000,,,-1311853870175724860,0.0,8.727320895653568,,,0,32,0.0,16431,44064926709374,11,38.084537506103516,-406.85799552524463,0.05935040013425072,1,-593803.125003635,0.001067978679202497,1.57542003E9,,,,0,,1,,1.57542003E9
Raw,1933393532,1394824000000,,,-1311853870175724860,0.0,8.727320895653568,,,0,10,0.0,32995,54846929810585,33,44.08934020996094,-801.2148186575746,0.03176468722147066,1,-1189311.7151933396,5.896306247450411E-4,1.59806246E9,,,,0,,3,,1.59806246E9
Raw,1933393533,1394824000000,,,-1311853870175724860,0.0,8.727320895653568,,,0,9,0.0,32995,54846933554033,44,32.4957275390625,-141.58045857516203,0.11308563234724606,4,-357772.8418192157,3.4028234663852886E38,1.59862502E9,,,,0,,3,,1.59862502E9
Raw,1933393533,1394824000000,,,-1311853870175724860,0.0,8.727320895653568,,,0,16,0.0,32995,54846925277468,166,29.907875061035156,514.9150265500975,0.15000020287995885,4,604422.5501063219,3.4028234663852886E38,1.60143744E9,,,,1,,3,,1.60143744E9
Raw,1933393533,1394824000000,,,-1311853870175724860,0.0,8.727320895653568,,,0,23,0.0,65,924489981,65,29.249435424804688,-41.00760695907425,0.16159674207002062,4,-2994.6051923508076,3.4028234663852886E38,1.60368755E9,,,,0,,3,,1.60368755E9
Raw,1933393533,1394824000000,,,-1311853870175724860,0.0,8.727320895653568,,,0,7,0.0,32995,54846932674134,33,35.14222717285156,-184.28092836880307,0.08386604174943035,1,-297902.6512271414,0.0015603660140186548,1.60481254E9,,,,0,,3,,1.60481254E9
Raw,1933393533,1394824000000,,,-1311853870175724860,0.0,8.727320895653568,,,0,8,0.0,17,996899,80,18.968128204345703,-562.8164536472771,4.2012586768871465,4,-527108.7030648168,3.4028234663852886E38,1.60537498E9,,,,0,,3,,1.60537498E9
Raw,1933393533,1394824000000,,,-1311853870175724860,0.0,8.727320895653568,,,0,193,0.0,35,9117461,27,30.75811004638672,-252.4918697719579,0.13679213597513007,4,-341215.05698248895,3.4028234663852886E38,1.57542003E9,,,,0,,4,,1.57542003E9
Raw,1933393533,1394824000000,,,-1311853870175724860,0.0,8.727320895653568,,,0,194,0.0,35,12289119,22,32.63871765136719,-106.88155266122357,0.11105149382087331,4,-38100.84302818316,3.4028234663852886E38,1.57542003E9,,,,0,,4,,1.57542003E9
Raw,1933393534,1394824000000,,,-1311853870175724860,0.0,8.727320895653568,,,0,6,0.0,16431,44050878515607,8,34.80198287963867,-78.25154788863347,0.08817608290722229,1,-87193.58805931806,0.0016681407578289509,1.56109798E9,,,,0,,5,,1.56109798E9
Raw,1933393534,1394824000000,,,-1311853870175724860,0.0,8.727320895653568,,,0,14,0.0,16431,44050924526891,19,27.478181838989258,119.09058727805296,0.1979745222334114,4,113616.48998294277,3.4028234663852886E38,1.56109798E9,,,,0,,5,,1.56109798E9
Raw,1933393534,1394824000000,,,-1311853870175724860,0.0,8.727320895653568,,,0,16,0.0,16431,44050877875097,6,37.86090850830078,-77.20780674007892,0.0628752592110774,1,-86432.13638460432,0.0011729687685146928,1.56109798E9,,,,0,,5,,1.56109798E9
Raw,1933393534,1394824000000,,,-1311853870175724860,0.0,8.727320895653568,,,0,24,0.0,16431,44050924181090,16,29.117450714111328,1.339921956044833,0.1640030500380183,4,-83681.33963672857,3.4028234663852886E38,1.56109798E9,,,,0,,5,,1.56109798E9
Raw,1933393534,1394824000000,,,-1311853870175724860,0.0,8.727320895653568,,,0,25,0.0,16431,44050922407699,6,41.96426773071289,-599.6256771041949,0.037630693202566956,1,-547287.0148249625,7.708985358476639E-4,1.56109798E9,,,,0,,5,,1.56109798E9
Raw,1933393534,1394824000000,,,-1311853870175724860,0.0,8.727320895653568,,,0,26,0.0,16431,44050915590343,11,31.944866180419922,418.610887585201,0.12069653778490036,4,489179.3339756655,3.4028234663852886E38,1.56109798E9,,,,0,,5,,1.56109798E9
Raw,1933393534,1394824000000,,,-1311853870175724860,0.0,8.727320895653568,,,0,27,0.0,16431,44050913249593,6,36.78528594970703,102.28675184694328,0.06990820240566092,1,59170.44737621311,0.0013276011450216174,1.56109798E9,,,,0,,5,,1.56109798E9
Raw,1933393535,1394824000000,,,-1311853870175724860,0.0,8.727320895653568,,,0,33,0.0,16431,44050925905172,10,32.64197540283203,-127.56920330170533,0.10986236889490608,4,-201885.33438530655,3.4028234663852886E38,1.56109798E9,,,,0,,5,,1.56109798E9
Raw,1933394529,1395824000000,,,-1311853870175725252,0.0,9.345313741199083,,,0,10,0.0,16431,44065931283290,9,40.37049102783203,-365.63870668901427,0.04671891420106136,1,-582170.1088700773,9.177403408102691E-4,1.57542003E9,,,,0,,1,,1.57542003E9
Raw,1933394529,1395824000000,,,-1311853870175725252,0.0,9.345313741199083,,,0,12,0.0,16431,44065923261636,21,32.65006637573242,-495.02426634618973,0.10928557157954849,4,-711607.3489156278,3.4028234663852886E38,1.57542003E9,,,,0,,1,,1.57542003E9
Raw,1933394530,1395824000000,,,-1311853870175725252,0.0,9.345313741199083,,,0,15,0.0,16431,44065916639251,63,23.368812561035156,414.2039918743451,0.319430368222676,4,678271.1250479831,3.4028234663852886E38,1.57542003E9,,,,0,,1,,1.57542003E9
Raw,1933394530,1395824000000,,,-1311853870175725252,0.0,9.345313741199083,,,0,18,0.0,16431,44065921560589,6,44.34266662597656,559.8456563244663,0.030280712850612887,1,751444.2580557015,5.809131544083357E-4,1.57542003E9,,,,0,,1,,1.57542003E9
Raw,1933394530,1395824000000,,,-1311853870175725252,0.0,9.345313741199083,,,0,23,0.0,16431,44065931411201,18,34.077701568603516,92.36071353906607,0.0942764515419302,4,34887.36486205795,3.4028234663852886E38,1.57542003E9,,,,0,,1,,1.57542003E9
Raw,1933394530,1395824000000,,,-1311853870175725252,0.0,9.345313741199083,,,0,24,0.0,16431,44065926387870,166,28.27025604248047,448.51111995055385,0.18112542383555885,4,683324.9550755034,3.4028234663852886E38,1.57542003E9,,,,1,,1,,1.57542003E9
Raw,1933394530,1395824000000,,,-1311853870175725252,0.0,9.345313741199083,,,0,25,0.0,16431,44065922343814,19,33.475154876708984,-713.1514768553284,0.09927021373732536,4,-765607.20063838,3.4028234663852886E38,1.57542003E9,,,,0,,1,,1.57542003E9
Raw,1933394530,1395824000000,,,-1311853870175725252,0.0,9.345313741199083,,,0,31,0.0,16,1395017337385,1000000000,15.704804420471191,-836.7343960421258,2.99792458E8,2,-14.199179908013832,3.4028234663852886E38,1.57542003E9,,,,0,,1,,1.57542003E9
Raw,1933394531,1395824000000,,,-1311853870175725252,0.0,9.345313741199083,,,0,32,0.0,16431,44065926710730,17,34.75297546386719,-407.47209322687263,0.08653272770314868,4,-594210.3145970601,3.4028234663852886E38,1.57542003E9,,,,0,,1,,1.57542003E9
Raw,1933394531,1395824000000,,,-1311853870175725252,0.0,9.345313741199083,,,0,10,0.0,32995,54847929813252,33,43.05467987060547,-800.8282554356929,0.03457428276263165,1,-1190112.6898258857,6.642217049375176E-4,1.59806246E9,,,,0,,3,,1.59806246E9
Raw,1933394531,1395824000000,,,-1311853870175725252,0.0,9.345313741199083,,,0,9,0.0,32995,54847933554361,63,29.51980209350586,-141.99980912021869,0.15829938089421003,4,-357915.1978710243,3.4028234663852886E38,1.59862502E9,,,,0,,3,,1.59862502E9
Raw,1933394531,1395824000000,,,-1311853870175725252,0.0,9.345313741199083,,,0,16,0.0,32995,54847925275953,166,27.491342544555664,513.6368662655791,0.19781071675511352,4,604937.5032362707,3.4028234663852886E38,1.60143744E9,,,,1,,3,,1.60143744E9
Raw,1933394531,1395824000000,,,-1311853870175725252,0.0,9.345313741199083,,,0,23,0.0,65,1924490170,34,34.64580535888672,-41.98720492445287,0.08719262596901733,4,-3036.2381709407673,3.4028234663852886E38,1.60368755E9,,,,0,,3,,1.60368755E9
Raw,1933394531,1395824000000,,,-1311853870175725252,0.0,9.345313741199083,,,0,7,0.0,32995,54847932674781,55,30.56018829345703,-183.66389957591412,0.14054699754755617,4,-298086.97204860725,3.4028234663852886E38,1.60481254E9,,,,0,,3,,1.60481254E9
Raw,1933394532,1395824000000,,,-1311853870175725252,0.0,9.345313741199083,,,0,8,0.0,16,6999046,1000000000,15.234182357788086,-562.3941720109594,2.99792458E8,6,-524742.6227396725,3.4028234663852886E38,1.60537498E9,,,,0,,3,,1.60537498E9
Raw,1933394532,1395824000000,,,-1311853870175725252,0.0,9.345313741199083,,,0,193,0.0,35,9118326,38,27.868593215942383,-252.61826456197275,0.19013469185829235,4,-341468.069321151,3.4028234663852886E38,1.57542003E9,,,,0,,4,,1.57542003E9
Raw,1933394532,1395824000000,,,-1311853870175725252,0.0,9.345313741199083,,,0,194,0.0,35,12289517,16,34.93950271606445,-106.26022947881273,0.0857234191371522,4,-38207.440751275244,3.4028234663852886E38,1.57542003E9,,,,0,,4,,1.57542003E9
Raw,1933394532,1395824000000,,,-1311853870175725252,0.0,9.345313741199083,,,0,6,0.0,16431,44051878515872,11,32.53802490234375,-78.38983745597477,0.11344067735148722,1,-87271.9683821921,0.00204105325974524,1.56109798E9,,,,0,,5,,1.56109798E9
Raw,1933394533,1395824000000,,,-1311853870175725252,0.0,9.345313741199083,,,0,14,0.0,16431,44051924526528,21,26.755390167236328,118.19508777414438,0.21508298346569166,4,113734.9802851763,3.4028234663852886E38,1.56109798E9,,,,0,,5,,1.56109798E9
Raw,1933394533,1395824000000,,,-1311853870175725252,0.0,9.345313741199083,,,0,16,0.0,16431,44051877875342,9,33.96141052246094,-77.35575016323031,0.09668225193428143,1,-86509.419446239,0.0018376440275460482,1.56109798E9,,,,0,,5,,1.56109798E9
Raw,1933394533,1395824000000,,,-1311853870175725252,0.0,9.345313741199083,,,0,24,0.0,16431,44051924181059,21,26.69525909423828,1.0830225776103402,0.21650933759953617,4,-83679.73433091014,3.4028234663852886E38,1.56109798E9,,,,0,,5,,1.56109798E9
Raw,1933394533,1395824000000,,,-1311853870175725252,0.0,9.345313741199083,,,0,25,0.0,16431,44051922409705,6,39.19755172729492,-599.2886016091843,0.05158406421646511,4,-547886.457772322,3.4028234663852886E38,1.56109798E9,,,,0,,5,,1.56109798E9
Raw,1933394533,1395824000000,,,-1311853870175725252,0.0,9.345313741199083,,,0,26,0.0,16431,44051915588951,15,29.936260223388672,419.2179983832418,0.15136869339010717,4,489599.0698969573,3.4028234663852886E38,1.56109798E9,,,,0,,5,,1.56109798E9
Raw,1933394533,1395824000000,,,-1311853870175725252,0.0,9.345313741199083,,,0,27,0.0,16431,44051913249242,6,36.90175247192383,101.44870684411802,0.06900875755785699,1,59272.37121355683,0.0013099184725433588,1.56109798E9,,,,0,,5,,1.56109798E9
Raw,1933394534,1395824000000,,,-1311853870175725252,0.0,9.345313741199083,,,0,33,0.0,16431,44051925905575,18,27.94080352783203,-127.11401505361493,0.18799623405520416,4,-202012.80826124665,3.4028234663852886E38,1.56109798E9,,,,0,,5,,1.56109798E9
Fix,gps,34.486441,109.464204,359.412628,0.000000,3.000000,1627820047999
Fix,gps,34.486441,109.464204,359.389465,0.000000,4.000000,1627820048999
Raw,1933395488,1396824000000,,,-1311853870175725642,0.0,9.204212199616887,,,0,10,0.0,16431,44066931284507,9,39.76118469238281,-365.5149192069234,0.04996662033309757,4,-582535.6620119025,3.4028234663852886E38,1.57542003E9,,,,0,,1,,1.57542003E9
Raw,1933395488,1396824000000,,,-1311853870175725642,0.0,9.204212199616887,,,0,12,0.0,16431,44066923263265,26,30.88303565979004,-495.1739564952379,0.13380917214728283,4,-712102.28980863,3.4028234663852886E38,1.57542003E9,,,,0,,1,,1.57542003E9
Raw,1933395488,1396824000000,,,-1311853870175725642,0.0,9.204212199616887,,,0,15,0.0,16431,44066916637801,73,20.42103385925293,414.31990630897917,4.202992888131936,4,678685.7175470577,3.4028234663852886E38,1.57542003E9,,,,0,,1,,1.57542003E9
Raw,1933395488,1396824000000,,,-1311853870175725642,0.0,9.204212199616887,,,0,18,0.0,16431,44066921558701,6,44.53173065185547,559.8626634702712,0.03028037377343923,4,752004.0927716643,3.4028234663852886E38,1.57542003E9,,,,0,,1,,1.57542003E9
Raw,1933395488,1396824000000,,,-1311853870175725642,0.0,9.204212199616887,,,0,23,0.0,16431,44066931410919,17,34.760501861572266,91.92989424738948,0.08730427596941359,4,34979.2064259297,3.4028234663852886E38,1.57542003E9,,,,0,,1,,1.57542003E9
Raw,1933395488,1396824000000,,,-1311853870175725642,0.0,9.204212199616887,,,0,24,0.0,16431,44066926386433,41,27.22439193725586,448.44060334800815,0.20415473002103346,4,683773.376576856,3.4028234663852886E38,1.57542003E9,,,,0,,1,,1.57542003E9
Raw,1933395488,1396824000000,,,-1311853870175725642,0.0,9.204212199616887,,,0,25,0.0,16431,44066922346152,25,31.413585662841797,-713.1768342029814,0.1257502937575244,4,-766320.4201663206,3.4028234663852886E38,1.57542003E9,,,,0,,1,,1.57542003E9
Raw,1933395488,1396824000000,,,-1311853870175725642,0.0,9.204212199616887,,,0,31,0.0,16,1396017340176,1000000000,17.147640228271484,-836.7343960421258,2.99792458E8,2,-14.218810040020074,3.4028234663852886E38,1.57542003E9,,,,0,,1,,1.57542003E9
Raw,1933395489,1396824000000,,,-1311853870175725642,0.0,9.204212199616887,,,0,32,0.0,16431,44066926712063,12,37.64270782470703,-407.28791163182336,0.06238500354344087,4,-594617.6110914188,3.4028234663852886E38,1.57542003E9,,,,0,,1,,1.57542003E9
Raw,1933395489,1396824000000,,,-1311853870175725642,0.0,9.204212199616887,,,0,10,0.0,32995,54848929815911,33,43.16852951049805,-800.8932847627384,0.034147511494907426,4,-1190913.6060766827,3.4028234663852886E38,1.59806246E9,,,,0,,3,,1.59806246E9
Raw,1933395489,1396824000000,,,-1311853870175725642,0.0,9.204212199616887,,,0,9,0.0,32995,54848933554883,62,29.63119125366211,-142.25669711564524,0.15631347869607526,4,-358057.45487159287,3.4028234663852886E38,1.59862502E9,,,,0,,3,,1.59862502E9
Raw,1933395489,1396824000000,,,-1311853870175725642,0.0,9.204212199616887,,,0,16,0.0,32995,54848925274256,73,28.166013717651367,513.8208774483458,0.18309811242506124,4,605451.4010567503,3.4028234663852886E38,1.60143744E9,,,,0,,3,,1.60143744E9
Raw,1933395489,1396824000000,,,-1311853870175725642,0.0,9.204212199616887,,,0,23,0.0,65,924490292,33,38.81455612182617,-41.810789869183736,0.05426420508527069,4,-3077.9544212471765,3.4028234663852886E38,1.60368755E9,,,,0,,3,,1.60368755E9
Raw,1933395489,1396824000000,,,-1311853870175725642,0.0,9.204212199616887,,,0,7,0.0,32995,54848932675311,55,30.65472412109375,-183.8963760118562,0.13905038995169455,4,-298270.9165011449,3.4028234663852886E38,1.60481254E9,,,,0,,3,,1.60481254E9
Raw,1933395489,1396824000000,,,-1311853870175725642,0.0,9.204212199616887,,,0,8,0.0,17,729,93,16.51972007751465,-563.318420066945,4.20125920942553,4,-525305.5764874981,3.4028234663852886E38,1.60537498E9,,,,0,,3,,1.60537498E9
Raw,1933395489,1396824000000,,,-1311853870175725642,0.0,9.204212199616887,,,0,193,0.0,35,9119143,42,26.98063850402832,-252.78158769363006,0.21042393828594264,4,-341720.79973840597,3.4028234663852886E38,1.57542003E9,,,,0,,4,,1.57542003E9
Raw,1933395489,1396824000000,,,-1311853870175725642,0.0,9.204212199616887,,,0,194,0.0,35,12289858,31,29.549480438232422,-107.01278716006465,0.15754031399630064,4,-38314.01751162137,3.4028234663852886E38,1.57542003E9,,,,0,,4,,1.57542003E9
Raw,1933395490,1396824000000,,,-1311853870175725642,0.0,9.204212199616887,,,0,6,0.0,16431,44052878516136,12,31.380434036254883,-78.37284735139815,0.1291381448539125,4,-87350.37026667682,3.4028234663852886E38,1.56109798E9,,,,0,,5,,1.56109798E9
Raw,1933395490,1396824000000,,,-1311853870175725642,0.0,9.204212199616887,,,0,14,0.0,16431,44052924526134,26,24.92456817626953,118.3763127160903,0.26535943296593445,4,113853.55068413976,3.4028234663852886E38,1.56109798E9,,,,0,,5,,1.56109798E9
Raw,1933395490,1396824000000,,,-1311853870175725642,0.0,9.204212199616887,,,0,16,0.0,16431,44052877875614,9,33.89336395263672,-77.39489386454676,0.0974173962095094,4,-86586.7906763302,3.4028234663852886E38,1.56109798E9,,,,0,,5,,1.56109798E9
Raw,1933395490,1396824000000,,,-1311853870175725642,0.0,9.204212199616887,,,0,24,0.0,16431,44052924181065,21,26.727188110351562,1.1251249956163765,0.21571766936748216,4,-83678.94605414484,3.4028234663852886E38,1.56109798E9,,,,0,,5,,1.56109798E9
Raw,1933395490,1396824000000,,,-1311853870175725642,0.0,9.204212199616887,,,0,25,0.0,16431,44052922411702,6,42.81351089477539,-599.3873725681874,0.03416664335236838,4,-548485.8925027221,3.4028234663852886E38,1.56109798E9,,,,0,,5,,1.56109798E9
Raw,1933395490,1396824000000,,,-1311853870175725642,0.0,9.204212199616887,,,0,26,0.0,16431,44052915587561,18,27.90706443786621,419.20371783395876,0.19046533162694235,4,490018.22683168564,3.4028234663852886E38,1.56109798E9,,,,0,,5,,1.56109798E9
Raw,1933395491,1396824000000,,,-1311853870175725642,0.0,9.204212199616887,,,0,27,0.0,16431,44052913248913,6,38.38702392578125,101.86328584526149,0.058536698126593095,4,59374.26139740713,3.4028234663852886E38,1.56109798E9,,,,0,,5,,1.56109798E9
Raw,1933395491,1396824000000,,,-1311853870175725642,0.0,9.204212199616887,,,0,33,0.0,16431,44052925905998,18,27.992780685424805,-127.03575321282443,0.18688103211355056,4,-202139.83670024783,3.4028234663852886E38,1.56109798E9,,,,0,,5,,1.56109798E9
Fix,gps,34.486441,109.464204,359.321991,0.000000,4.000000,1627820049999
Raw,1933396503,1397824000000,,,-1311853870175726033,0.0,9.16587419565433,,,0,10,0.0,16431,44067931285741,8,40.78498077392578,-365.5041150682057,0.044636855541115655,4,-582901.2369166162,3.4028234663852886E38,1.57542003E9,,,,0,,1,,1.57542003E9
Raw,1933396503,1397824000000,,,-1311853870175726033,0.0,9.16587419565433,,,0,12,0.0,16431,44067923264918,25,31.34501838684082,-494.8387555353361,0.1269088393310206,4,-712596.8275544505,3.4028234663852886E38,1.57542003E9,,,,0,,1,,1.57542003E9
Raw,1933396504,1397824000000,,,-1311853870175726033,0.0,9.16587419565433,,,0,15,0.0,16431,44067916636377,71,20.8258056640625,414.2924699314783,4.2029926218627445,4,679100.5017903177,3.4028234663852886E38,1.57542003E9,,,,0,,1,,1.57542003E9
Raw,1933396504,1397824000000,,,-1311853870175726033,0.0,9.16587419565433,,,0,18,0.0,16431,44067921556871,6,42.737159729003906,559.7908858168341,0.034310713707068105,4,752563.8345735136,3.4028234663852886E38,1.57542003E9,,,,0,,1,,1.57542003E9
Raw,1933396504,1397824000000,,,-1311853870175726033,0.0,9.16587419565433,,,0,23,0.0,16431,44067931410620,15,35.901458740234375,91.84204671570194,0.07681011619524819,4,35071.05929374309,3.4028234663852886E38,1.57542003E9,,,,0,,1,,1.57542003E9
Raw,1933396505,1397824000000,,,-1311853870175726033,0.0,9.16587419565433,,,0,24,0.0,16431,44067926384946,45,26.282588958740234,448.1170585882371,0.2274038580659855,4,684221.4169863688,3.4028234663852886E38,1.57542003E9,,,,0,,1,,1.57542003E9
Raw,1933396505,1397824000000,,,-1311853870175726033,0.0,9.16587419565433,,,0,25,0.0,16431,44067922348583,19,33.634063720703125,-713.0648392508474,0.09747905416918567,4,-767033.5149736201,3.4028234663852886E38,1.57542003E9,,,,0,,1,,1.57542003E9
Raw,1933396505,1397824000000,,,-1311853870175726033,0.0,9.16587419565433,,,0,31,0.0,16,1397017342964,1000000000,21.11117172241211,-836.3631017607663,2.99792458E8,2,-14.205960377334613,3.4028234663852886E38,1.57542003E9,,,,0,,1,,1.57542003E9
Raw,1933396506,1397824000000,,,-1311853870175726033,0.0,9.16587419565433,,,0,32,0.0,16431,44067926713472,12,37.79869079589844,-407.24680818925685,0.06129644100231407,4,-595024.8058965472,3.4028234663852886E38,1.57542003E9,,,,0,,1,,1.57542003E9
Raw,1933396506,1397824000000,,,-1311853870175726033,0.0,9.16587419565433,,,0,10,0.0,32995,54849929818628,33,43.14949035644531,-800.8962158539994,0.03421906717968963,4,-1191714.5150078845,3.4028234663852886E38,1.59806246E9,,,,0,,3,,1.59806246E9
Raw,1933396507,1397824000000,,,-1311853870175726033,0.0,9.16587419565433,,,0,9,0.0,32995,54849933555319,58,30.1570987701416,-142.23955364001426,0.14727325687982007,4,-358199.82806100673,3.4028234663852886E38,1.59862502E9,,,,0,,3,,1.59862502E9
Raw,1933396507,1397824000000,,,-1311853870175726033,0.0,9.16587419565433,,,0,16,0.0,32995,54849925272517,89,26.46927261352539,513.9231248179142,0.22239283829861078,4,605964.9353551418,3.4028234663852886E38,1.60143744E9,,,,0,,3,,1.60143744E9
Raw,1933396507,1397824000000,,,-1311853870175726033,0.0,9.16587419565433,,,0,23,0.0,65,1924490432,34,34.66698455810547,-41.65294549241247,0.08698228994949009,4,-3119.66086432306,3.4028234663852886E38,1.60368755E9,,,,0,,3,,1.60368755E9
Raw,1933396507,1397824000000,,,-1311853870175726033,0.0,9.16587419565433,,,0,7,0.0,32995,54849932676024,52,31.118694305419922,-183.92396576041142,0.13193640939283474,4,-298454.9225807005,3.4028234663852886E38,1.60481254E9,,,,0,,3,,1.60481254E9
Raw,1933396508,1397824000000,,,-1311853870175726033,0.0,9.16587419565433,,,0,8,0.0,17,2667,90,17.062822341918945,-563.6473839373032,4.201259741963913,4,-525868.7970933643,3.4028234663852886E38,1.60537498E9,,,,0,,3,,1.60537498E9
Raw,1933396508,1397824000000,,,-1311853870175726033,0.0,9.16587419565433,,,0,193,0.0,35,9119961,38,27.837966918945312,-252.6485809070498,0.1908007475992164,4,-341973.49268661777,3.4028234663852886E38,1.57542003E9,,,,0,,4,,1.57542003E9
Raw,1933396508,1397824000000,,,-1311853870175726033,0.0,9.16587419565433,,,0,194,0.0,35,12290187,35,28.492069244384766,-106.82437934040655,0.17764921297212588,4,-38420.57008632107,3.4028234663852886E38,1.57542003E9,,,,0,,4,,1.57542003E9
Raw,1933396509,1397824000000,,,-1311853870175726033,0.0,9.16587419565433,,,0,6,0.0,16431,44053878516397,11,32.15756607055664,-78.47788096178732,0.1183709842701629,4,-87428.84175173125,3.4028234663852886E38,1.56109798E9,,,,0,,5,,1.56109798E9
Raw,1933396509,1397824000000,,,-1311853870175726033,0.0,9.16587419565433,,,0,14,0.0,16431,44053924525738,24,25.86455535888672,118.43231019215727,0.23822495480285544,4,113972.01168585905,3.4028234663852886E38,1.56109798E9,,,,0,,5,,1.56109798E9
Raw,1933396509,1397824000000,,,-1311853870175726033,0.0,9.16587419565433,,,0,16,0.0,16431,44053877875898,9,33.69313049316406,-77.38247932975833,0.0996142834583259,4,-86664.2424177516,3.4028234663852886E38,1.56109798E9,,,,0,,5,,1.56109798E9
Raw,1933396510,1397824000000,,,-1311853870175726033,0.0,9.16587419565433,,,0,24,0.0,16431,44053924181061,18,28.230239868164062,1.1893990500999694,0.18155954246878836,4,-83678.24668275584,3.4028234663852886E38,1.56109798E9,,,,0,,5,,1.56109798E9
Raw,1933396510,1397824000000,,,-1311853870175726033,0.0,9.16587419565433,,,0,25,0.0,16431,44053922413728,6,43.40352249145508,-599.3743530697957,0.03195171220536591,4,-549085.3552637937,3.4028234663852886E38,1.56109798E9,,,,0,,5,,1.56109798E9
Raw,1933396510,1397824000000,,,-1311853870175726033,0.0,9.16587419565433,,,0,26,0.0,16431,44053915586162,16,29.025312423706055,419.4243335750309,0.16779553877558018,4,490437.074343177,3.4028234663852886E38,1.56109798E9,,,,0,,5,,1.56109798E9
Raw,1933396511,1397824000000,,,-1311853870175726033,0.0,9.16587419565433,,,0,27,0.0,16431,44053913248598,6,40.528472900390625,101.81465870041757,0.046266955531995696,4,59476.07077295531,3.4028234663852886E38,1.56109798E9,,,,0,,5,,1.56109798E9
Raw,1933396511,1397824000000,,,-1311853870175726033,0.0,9.16587419565433,,,0,33,0.0,16431,44053925906414,19,27.546842575073242,-126.82830182058422,0.19667026916573283,4,-202266.76730689875,3.4028234663852886E38,1.56109798E9,,,,0,,5,,1.56109798E9
Fix,gps,34.486434,109.464200,359.363770,0.875909,4.000000,1627820050999
Raw,1933397449,1398824000000,,,-1311853870175726422,0.0,9.409548407949885,,,0,10,0.0,16431,44068931286940,10,39.14407730102539,-365.48369967674853,0.05349672574508968,4,-583266.6702270112,3.4028234663852886E38,1.57542003E9,,,,0,,1,,1.57542003E9
Raw,1933397450,1398824000000,,,-1311853870175726422,0.0,9.409548407949885,,,0,12,0.0,16431,44068923266603,26,31.02031135559082,-494.72948717972395,0.1317208395195104,4,-713091.3812979064,3.4028234663852886E38,1.57542003E9,,,,0,,1,,1.57542003E9
Raw,1933397450,1398824000000,,,-1311853870175726422,0.0,9.409548407949885,,,0,15,0.0,16431,44068916634941,47,25.922351837158203,414.23647245541133,0.23882860370200187,4,679515.4254887977,3.4028234663852886E38,1.57542003E9,,,,0,,1,,1.57542003E9
Raw,1933397450,1398824000000,,,-1311853870175726422,0.0,9.409548407949885,,,0,18,0.0,16431,44068921554964,6,42.92523193359375,559.7337636197019,0.03358142735405499,4,753123.6779197637,3.4028234663852886E38,1.57542003E9,,,,0,,1,,1.57542003E9
Raw,1933397450,1398824000000,,,-1311853870175726422,0.0,9.409548407949885,,,0,23,0.0,16431,44068931410241,15,35.54605484008789,91.73629737372579,0.07993236377303081,4,35162.85061448673,3.4028234663852886E38,1.57542003E9,,,,0,,1,,1.57542003E9
Raw,1933397450,1398824000000,,,-1311853870175726422,0.0,9.409548407949885,,,0,24,0.0,16431,44068926383469,60,23.866657257080078,448.23334792989294,0.29995846836224316,4,684669.1115711555,3.4028234663852886E38,1.57542003E9,,,,0,,1,,1.57542003E9
Raw,1933397451,1398824000000,,,-1311853870175726422,0.0,9.409548407949885,,,0,25,0.0,16431,44068922350936,16,35.27857971191406,-712.7918387740997,0.08073838557869367,4,-767746.2773187243,3.4028234663852886E38,1.57542003E9,,,,0,,1,,1.57542003E9
Raw,1933397451,1398824000000,,,-1311853870175726422,0.0,9.409548407949885,,,0,31,0.0,16,1398017345754,1000000000,23.764015197753906,-836.3631017607663,2.99792458E8,2,-14.199419903578644,3.4028234663852886E38,1.57542003E9,,,,0,,1,,1.57542003E9
Raw,1933397451,1398824000000,,,-1311853870175726422,0.0,9.409548407949885,,,0,32,0.0,16431,44068926714794,6,42.65132141113281,-407.22813100308235,0.035576459673141825,4,-595432.1072966174,3.4028234663852886E38,1.57542003E9,,,,0,,1,,1.57542003E9
Raw,1933397452,1398824000000,,,-1311853870175726422,0.0,9.409548407949885,,,0,10,0.0,32995,54850929821271,33,42.25529479980469,-800.8303685479973,0.03773853638561478,4,-1192515.2570550484,3.4028234663852886E38,1.59806246E9,,,,0,,3,,1.59806246E9
Raw,1933397452,1398824000000,,,-1311853870175726422,0.0,9.409548407949885,,,0,9,0.0,32995,54850933555884,48,31.81061553955078,-142.11235791227114,0.1221668929026542,4,-358341.80595521425,3.4028234663852886E38,1.59862502E9,,,,0,,3,,1.59862502E9
Raw,1933397452,1398824000000,,,-1311853870175726422,0.0,9.409548407949885,,,0,16,0.0,32995,54850925270809,132,23.102306365966797,513.9230225705446,0.32724506944283926,4,606478.4522509986,3.4028234663852886E38,1.60143744E9,,,,0,,3,,1.60143744E9
Raw,1933397452,1398824000000,,,-1311853870175726422,0.0,9.409548407949885,,,0,23,0.0,65,924490572,33,40.54448699951172,-41.52090153522897,0.04461075699988426,4,-3161.192400482018,3.4028234663852886E38,1.60368755E9,,,,0,,3,,1.60368755E9
Raw,1933397452,1398824000000,,,-1311853870175726422,0.0,9.409548407949885,,,0,7,0.0,32995,54850932676603,33,35.2463493347168,-183.96213811171697,0.08289430897656735,4,-298638.8461679546,3.4028234663852886E38,1.60481254E9,,,,0,,3,,1.60481254E9
Raw,1933397452,1398824000000,,,-1311853870175726422,0.0,9.409548407949885,,,0,8,0.0,17,4580,83,18.37946128845215,-563.4724727704281,4.201260008233104,4,-526432.2134935583,3.4028234663852886E38,1.60537498E9,,,,0,,3,,1.60537498E9
Raw,1933397453,1398824000000,,,-1311853870175726422,0.0,9.409548407949885,,,0,193,0.0,35,9120829,50,25.465152740478516,-252.7643930943143,0.2502231943520713,4,-342226.30071085936,3.4028234663852886E38,1.57542003E9,,,,0,,4,,1.57542003E9
