# 
# Header Description:
# 
# Version: v2.0.0.1 Platform: 10 Manufacturer: HUAWEI Model: BLA-AL00
# 
# Raw,ElapsedRealtimeMillis,TimeNanos,LeapSecond,TimeUncertaintyNanos,FullBiasNanos,BiasNanos,BiasUncertaintyNanos,DriftNanosPerSecond,DriftUncertaintyNanosPerSecond,HardwareClockDiscontinuityCount,Svid,TimeOffsetNanos,State,ReceivedSvTimeNanos,ReceivedSvTimeUncertaintyNanos,Cn0DbHz,PseudorangeRateMetersPerSecond,PseudorangeRateUncertaintyMetersPerSecond,AccumulatedDeltaRangeState,AccumulatedDeltaRangeMeters,AccumulatedDeltaRangeUncertaintyMeters,CarrierFrequencyHz,CarrierCycles,CarrierPhase,CarrierPhaseUncertainty,MultipathIndicator,SnrInDb,ConstellationType,AgcDb,CarrierFrequencyHz
# 
# Fix,Provider,Latitude,Longitude,Altitude,Speed,Accuracy,(UTC)TimeInMs
# 
# Nav,Svid,Type,Status,MessageId,Sub-messageId,Data(Bytes)
# 
Fix,gps,34.486389,109.464202,357.628723,0.735697,2.000000,1627951990999
Raw,2065338153,1592291000000,,,-1311985616708730491,0.0,7.7324176033265655,,,0,1,0.0,16431,176008925231607,43,26.744138717651367,499.75842180457767,0.21548752957683082,4,541246.3403015068,3.4028234663852886E38,1.57542003E9,,,,0,,1,,1.57542003E9
Raw,2065338153,1592291000000,,,-1311985616708730491,0.0,7.7324176033265655,,,0,2,0.0,16,1592014405788,1000000000,7.0,-693.9678253768993,2.99792458E8,2,-9.70134555310731,3.4028234663852886E38,1.57542003E9,,,,0,,1,,1.57542003E9
Raw,2065338154,1592291000000,,,-1311985616708730491,0.0,7.7324176033265655,,,0,3,0.0,16431,176008925980567,30,29.749732971191406,-177.157388213427,0.15286527602323208,4,-11621.509385767222,3.4028234663852886E38,1.57542003E9,,,,0,,1,,1.57542003E9
Raw,2065338154,1592291000000,,,-1311985616708730491,0.0,7.7324176033265655,,,0,6,0.0,16431,176008924541784,6,44.418155670166016,-642.4504200549322,0.03081695403972727,1,-588871.1733627248,5.758863408118486E-4,1.57542003E9,,,,0,,1,,1.57542003E9
Raw,2065338154,1592291000000,,,-1311985616708730491,0.0,7.7324176033265655,,,0,14,0.0,16431,176008932454862,11,38.02732849121094,-69.32202522549139,0.06076807971708814,4,-241729.77051076898,3.4028234663852886E38,1.57542003E9,,,,0,,1,,1.57542003E9
Raw,2065338154,1592291000000,,,-1311985616708730491,0.0,7.7324176033265655,,,0,17,0.0,16431,176008929484505,19,33.77938461303711,-187.83032651477333,0.09715232522928707,4,-82814.21815164044,3.4028234663852886E38,1.57542003E9,,,,0,,1,,1.57542003E9
Raw,2065338155,1592291000000,,,-1311985616708730491,0.0,7.7324176033265655,,,0,19,0.0,16431,176008927636590,10,38.890438079833984,-438.4992279346957,0.05436517103435462,1,-628266.3937181268,0.0010323901660740376,1.57542003E9,,,,0,,1,,1.57542003E9
Raw,2065338155,1592291000000,,,-1311985616708730491,0.0,7.7324176033265655,,,0,21,0.0,16431,176008915678065,166,27.408531188964844,474.2972930714948,0.20156765855559888,4,540886.4932131076,3.4028234663852886E38,1.57542003E9,,,,1,,1,,1.57542003E9
Raw,2065338155,1592291000000,,,-1311985616708730491,0.0,7.7324176033265655,,,0,22,0.0,16431,176008922693777,55,24.604032516479492,152.7039925135823,0.2749746963850652,4,22055.299032889347,3.4028234663852886E38,1.57542003E9,,,,0,,1,,1.57542003E9
Raw,2065338156,1592291000000,,,-1311985616708730491,0.0,7.7324176033265655,,,0,24,0.0,16,1592016561916,1000000000,9.572372436523438,-389.312619566954,2.99792458E8,2,-524294.2217946135,3.4028234663852886E38,1.57542003E9,,,,0,,1,,1.57542003E9
Raw,2065338156,1592291000000,,,-1311985616708730491,0.0,7.7324176033265655,,,0,30,0.0,16431,176008921196099,17,34.5144157409668,487.4422489856688,0.0879167533564435,1,107166.6975301387,0.0017086178995668888,1.57542003E9,,,,0,,1,,1.57542003E9
Raw,2065338156,1592291000000,,,-1311985616708730491,0.0,7.7324176033265655,,,0,10,0.0,17,743337,96,25.832796096801758,-849.8617313262775,0.2385941203951628,4,-525138.738459404,3.4028234663852886E38,1.59806246E9,,,,0,,3,,1.59806246E9
Raw,2065338157,1592291000000,,,-1311985616708730491,0.0,7.7324176033265655,,,0,2,0.0,32995,13990920000920,54,30.843372344970703,-4.821328796482383,0.1374296177034322,4,-210.47597673505152,3.4028234663852886E38,1.59975002E9,,,,0,,3,,1.59975002E9
Raw,2065338157,1592291000000,,,-1311985616708730491,0.0,7.7324176033265655,,,0,9,0.0,32995,13990933090753,33,42.996803283691406,-372.9606408238096,0.035383164881875984,1,-584412.9589091304,6.674876785837114E-4,1.59862502E9,,,,0,,3,,1.59862502E9
Raw,2065338157,1592291000000,,,-1311985616708730491,0.0,7.7324176033265655,,,0,16,0.0,32995,13990932611247,33,40.21854782104492,390.49828006446955,0.047746426209105186,1,6622.407677400026,8.71614902280271E-4,1.60143744E9,,,,0,,3,,1.60143744E9
Raw,2065338157,1592291000000,,,-1311985616708730491,0.0,7.7324176033265655,,,0,19,0.0,16,1592003175891,1000000000,28.37054443359375,-15.03162331237396,2.99792458E8,2,-0.044674236349756154,3.4028234663852886E38,1.60368755E9,,,,0,,3,,1.60368755E9
Raw,2065338158,1592291000000,,,-1311985616708730491,0.0,7.7324176033265655,,,0,3,0.0,32995,13990922391155,37,34.068572998046875,-501.55947513706906,0.09275092877604496,4,-733729.7011128239,3.4028234663852886E38,1.60481254E9,,,,0,,3,,1.60481254E9
Raw,2065338158,1592291000000,,,-1311985616708730491,0.0,7.7324176033265655,,,0,193,0.0,1,325172,23,32.04988098144531,-180.7551152827466,0.11851253962913899,1,-15368.447089343028,0.0021394172217696905,1.57542003E9,,,,0,,4,,1.57542003E9
Raw,2065338158,1592291000000,,,-1311985616708730491,0.0,7.7324176033265655,,,0,194,0.0,35,15769910,9,39.64834976196289,-147.92157629675808,0.0514002178210444,4,-65162.1475180974,3.4028234663852886E38,1.57542003E9,,,,0,,4,,1.57542003E9
Raw,2065338159,1592291000000,,,-1311985616708730491,0.0,7.7324176033265655,,,0,195,0.0,1,883025,66,23.035383224487305,-121.22052779537535,0.3302387339638233,4,-59646.83234492972,3.4028234663852886E38,1.57542003E9,,,,0,,4,,1.57542003E9
Raw,2065338159,1592291000000,,,-1311985616708730491,0.0,7.7324176033265655,,,0,7,0.0,16431,175994879726880,12,31.394569396972656,-98.00187985105316,0.12915135846254489,1,-164574.438820619,0.0023282368201762438,1.56109798E9,,,,0,,5,,1.56109798E9
Raw,2065338159,1592291000000,,,-1311985616708730491,0.0,7.7324176033265655,,,0,8,0.0,16431,175994878045723,6,38.011417388916016,-203.55346689384362,0.061881068296086694,1,-337888.32641316124,0.0011528186732903123,1.56109798E9,,,,0,,5,,1.56109798E9
Raw,2065338160,1592291000000,,,-1311985616708730491,0.0,7.7324176033265655,,,0,10,0.0,16431,175994880316822,8,34.45471954345703,-162.75434658162646,0.0919609580100873,4,-233739.22519087524,3.4028234663852886E38,1.56109798E9,,,,0,,5,,1.56109798E9
Raw,2065338160,1592291000000,,,-1311985616708730491,0.0,7.7324176033265655,,,0,30,0.0,16431,175994924437105,6,41.57152557373047,-315.87733177447194,0.03971626328747668,4,-138027.83395096677,3.4028234663852886E38,1.56109798E9,,,,0,,5,,1.56109798E9
Raw,2065338160,1592291000000,,,-1311985616708730491,0.0,7.7324176033265655,,,0,32,0.0,16431,175994913201451,14,30.30050277709961,-649.9092293351232,0.14483799213723758,1,-276761.42693009984,0.002640769351273775,1.56109798E9,,,,0,,5,,1.56109798E9
Raw,2065338160,1592291000000,,,-1311985616708730491,0.0,7.7324176033265655,,,0,33,0.0,16431,175994910812897,20,27.04008674621582,27.9509182168337,0.2093045259626971,4,1388.9168638639117,3.4028234663852886E38,1.56109798E9,,,,0,,5,,1.56109798E9
Raw,2065338161,1592291000000,,,-1311985616708730491,0.0,7.7324176033265655,,,0,36,0.0,16431,175994920709973,6,41.46614074707031,-321.4814078531481,0.043118422192456346,4,-181344.55594073495,3.4028234663852886E38,1.56109798E9,,,,0,,5,,1.56109798E9
Fix,gps,34.486390,109.464197,357.552734,0.611661,2.000000,1627951991999
Raw,2065339182,1593291000000,,,-1311985616708730881,0.0,8.163847591329226,,,0,1,0.0,16431,176009925229982,48,25.705440521240234,499.7929473330353,0.24274079708300544,4,541746.1169297505,3.4028234663852886E38,1.57542003E9,,,,0,,1,,1.57542003E9
Raw,2065339182,1593291000000,,,-1311985616708730881,0.0,8.163847591329226,,,0,2,0.0,16,1593014408164,1000000000,7.0,-693.9678253768993,2.99792458E8,2,-9.69591863006837,3.4028234663852886E38,1.57542003E9,,,,0,,1,,1.57542003E9
Raw,2065339183,1593291000000,,,-1311985616708730881,0.0,8.163847591329226,,,0,3,0.0,16431,176009925981158,25,31.380399703979492,-177.07192645369605,0.12688390155704626,4,-11798.665640254188,3.4028234663852886E38,1.57542003E9,,,,0,,1,,1.57542003E9
Raw,2065339183,1593291000000,,,-1311985616708730881,0.0,8.163847591329226,,,0,6,0.0,16431,176009924543944,7,42.12384796142578,-642.3427876572332,0.03733778044999958,1,-589513.5485471942,7.499842322431505E-4,1.57542003E9,,,,0,,1,,1.57542003E9
Raw,2065339183,1593291000000,,,-1311985616708730881,0.0,8.163847591329226,,,0,14,0.0,16431,176009932455103,13,37.09591293334961,-69.19692982913148,0.06739312763335711,4,-241799.0132636571,3.4028234663852886E38,1.57542003E9,,,,0,,1,,1.57542003E9
Raw,2065339184,1593291000000,,,-1311985616708730881,0.0,8.163847591329226,,,0,17,0.0,16431,176009929485195,24,31.578176498413086,-187.84257915789328,0.12468192190994071,4,-83002.0482933484,3.4028234663852886E38,1.57542003E9,,,,0,,1,,1.57542003E9
Raw,2065339184,1593291000000,,,-1311985616708730881,0.0,8.163847591329226,,,0,19,0.0,16431,176009927638063,7,41.492515563964844,-438.4672926729338,0.040647664598726874,1,-628704.8703606317,8.065267466008663E-4,1.57542003E9,,,,0,,1,,1.57542003E9
Raw,2065339184,1593291000000,,,-1311985616708730881,0.0,8.163847591329226,,,0,21,0.0,16431,176009915676572,43,26.79902458190918,474.30278034699495,0.21601492563623725,4,541360.7769262559,3.4028234663852886E38,1.57542003E9,,,,0,,1,,1.57542003E9
Raw,2065339185,1593291000000,,,-1311985616708730881,0.0,8.163847591329226,,,0,22,0.0,16431,176009922693335,48,25.695302963256836,152.93171444683946,0.2425668567336029,4,22208.180529994068,3.4028234663852886E38,1.57542003E9,,,,0,,1,,1.57542003E9
Raw,2065339185,1593291000000,,,-1311985616708730881,0.0,8.163847591329226,,,0,24,0.0,16,1593016563215,1000000000,7.0,-389.312619566954,2.99792458E8,2,-524294.2187501357,3.4028234663852886E38,1.57542003E9,,,,0,,1,,1.57542003E9
Raw,2065339185,1593291000000,,,-1311985616708730881,0.0,8.163847591329226,,,0,30,0.0,16431,176009921194490,16,35.126094818115234,487.4867947563441,0.08195279775694919,1,107654.23147413468,0.0015924322651699185,1.57542003E9,,,,0,,1,,1.57542003E9
Raw,2065339186,1593291000000,,,-1311985616708730881,0.0,8.163847591329226,,,0,10,0.0,65,1921746224,94,25.99221420288086,-849.863844438582,0.2342612216914558,4,-525988.5800471591,3.4028234663852886E38,1.59806246E9,,,,0,,3,,1.59806246E9
Raw,2065339186,1593291000000,,,-1311985616708730881,0.0,8.163847591329226,,,0,2,0.0,32995,13991920000889,59,29.975160598754883,-4.6884183993494695,0.15149841641188222,4,-215.24252074644804,3.4028234663852886E38,1.59975002E9,,,,0,,3,,1.59975002E9
Raw,2065339186,1593291000000,,,-1311985616708730881,0.0,8.163847591329226,,,0,18,0.0,16,1593007993830,1000000000,16.88968849182129,378.31768725760844,2.99792458E8,2,2.9900428094248923,3.4028234663852886E38,1.60031245E9,,,,0,,3,,1.60031245E9
Raw,2065339186,1593291000000,,,-1311985616708730881,0.0,8.163847591329226,,,0,9,0.0,32995,13991933092014,33,43.11369323730469,-372.8299005205881,0.034941890264122644,1,-584785.8734656608,6.585650844499469E-4,1.59862502E9,,,,0,,3,,1.59862502E9
Raw,2065339187,1593291000000,,,-1311985616708730881,0.0,8.163847591329226,,,0,16,0.0,32995,13991932609946,33,40.85065460205078,390.66576125582264,0.0445541373525675,1,7013.029592591672,8.104373118840158E-4,1.60143744E9,,,,0,,3,,1.60143744E9
Raw,2065339187,1593291000000,,,-1311985616708730881,0.0,8.163847591329226,,,0,19,0.0,17,175707,78,27.616870880126953,-14.695602243362039,0.196407111995325,4,-12.158716622609289,3.4028234663852886E38,1.60368755E9,,,,0,,3,,1.60368755E9
Raw,2065339187,1593291000000,,,-1311985616708730881,0.0,8.163847591329226,,,0,3,0.0,32995,13991922392767,44,32.541770935058594,-501.33865490125777,0.11049304411699834,4,-734231.1780217839,3.4028234663852886E38,1.60481254E9,,,,0,,3,,1.60481254E9
Raw,2065339188,1593291000000,,,-1311985616708730881,0.0,8.163847591329226,,,0,193,0.0,1,325752,25,31.439374923706055,-180.63649129281896,0.12699395394229301,1,-15549.134935956869,0.00229520071297884,1.57542003E9,,,,0,,4,,1.57542003E9
Raw,2065339188,1593291000000,,,-1311985616708730881,0.0,8.163847591329226,,,0,194,0.0,35,15770390,9,40.219722747802734,-147.84134619410338,0.048308512151627736,4,-65310.00811116708,3.4028234663852886E38,1.57542003E9,,,,0,,4,,1.57542003E9
Raw,2065339188,1593291000000,,,-1311985616708730881,0.0,8.163847591329226,,,0,195,0.0,16,1593007883455,1000000000,7.0,-122.15914160678528,2.99792458E8,2,-0.854643750069954,3.4028234663852886E38,1.57542003E9,,,,0,,4,,1.57542003E9
Raw,2065339189,1593291000000,,,-1311985616708730881,0.0,8.163847591329226,,,0,7,0.0,16431,175995879727214,12,31.51619529724121,-97.91347847944712,0.1274048905140302,1,-164672.39953393932,0.002295862650498748,1.56109798E9,,,,0,,5,,1.56109798E9
Raw,2065339189,1593291000000,,,-1311985616708730881,0.0,8.163847591329226,,,0,8,0.0,16431,175995878046389,6,39.0695686340332,-203.4599616743733,0.05515596973107986,1,-338091.82414034853,0.0010205950820818543,1.56109798E9,,,,0,,5,,1.56109798E9
Raw,2065339189,1593291000000,,,-1311985616708730881,0.0,8.163847591329226,,,0,10,0.0,16431,175995880317354,11,32.22609329223633,-162.68853335808092,0.11779088355264722,4,-233901.92335021019,3.4028234663852886E38,1.56109798E9,,,,0,,5,,1.56109798E9
Raw,2065339189,1593291000000,,,-1311985616708730881,0.0,8.163847591329226,,,0,30,0.0,16431,175995924438163,6,40.489990234375,-315.88227373066775,0.04487703451238095,4,-138343.68317606908,3.4028234663852886E38,1.56109798E9,,,,0,,5,,1.56109798E9
Raw,2065339190,1593291000000,,,-1311985616708730881,0.0,8.163847591329226,,,0,32,0.0,16431,175995913203616,14,30.224407196044922,-649.7084155012908,0.14609198689500458,1,-277411.1671580665,0.0026640065480023623,1.56109798E9,,,,0,,5,,1.56109798E9
Raw,2065339190,1593291000000,,,-1311985616708730881,0.0,8.163847591329226,,,0,33,0.0,16431,175995910812794,18,27.970096588134766,28.01824597954098,0.1882495725491723,4,1416.8969277605531,3.4028234663852886E38,1.56109798E9,,,,0,,5,,1.56109798E9
Raw,2065339190,1593291000000,,,-1311985616708730881,0.0,8.163847591329226,,,0,36,0.0,16431,175995920711044,6,41.55464172363281,-321.3942930942758,0.042719284674271246,4,-181665.96647167174,3.4028234663852886E38,1.56109798E9,,,,0,,5,,1.56109798E9
Fix,gps,34.486390,109.464194,357.554749,0.521103,2.000000,1627951992999
Raw,2065340189,1594291000000,,,-1311985616708731270,0.0,8.361859282133747,,,0,1,0.0,16431,176010925228329,35,28.48391342163086,499.8712688181247,0.17654376313961406,4,542245.9777591431,3.4028234663852886E38,1.57542003E9,,,,0,,1,,1.57542003E9
Raw,2065340189,1594291000000,,,-1311985616708731270,0.0,8.361859282133747,,,0,2,0.0,16,1594014410479,1000000000,18.555797576904297,-693.9678253768993,2.99792458E8,2,-9.71219939899086,3.4028234663852886E38,1.57542003E9,,,,0,,1,,1.57542003E9
Raw,2065340190,1594291000000,,,-1311985616708731270,0.0,8.361859282133747,,,0,3,0.0,16431,176010925981753,25,31.32924461364746,-176.97610362718217,0.12762714207988085,4,-11975.690573386166,3.4028234663852886E38,1.57542003E9,,,,0,,1,,1.57542003E9
Raw,2065340190,1594291000000,,,-1311985616708731270,0.0,8.361859282133747,,,0,6,0.0,16431,176010924546062,6,42.99005126953125,-642.2990257830579,0.033871864635231855,1,-590155.904844528,6.78800221066922E-4,1.57542003E9,,,,0,,1,,1.57542003E9
Raw,2065340190,1594291000000,,,-1311985616708731270,0.0,8.361859282133747,,,0,14,0.0,16431,176010932455303,13,37.104248046875,-69.15354286197794,0.06733065422428161,1,-241868.16330947084,0.0012680992949754,1.57542003E9,,,,0,,1,,1.57542003E9
Raw,2065340191,1594291000000,,,-1311985616708731270,0.0,8.361859282133747,,,0,17,0.0,16431,176010929485807,22,32.55001449584961,-187.78087287035873,0.11166449542537416,1,-83189.82162106298,0.0020197085104882717,1.57542003E9,,,,0,,1,,1.57542003E9
Raw,2065340191,1594291000000,,,-1311985616708731270,0.0,8.361859282133747,,,0,19,0.0,16431,176010927639540,11,38.614173889160156,-438.4129311547799,0.05607823884114993,1,-629143.3123263335,0.001065754215233028,1.57542003E9,,,,0,,1,,1.57542003E9
Raw,2065340191,1594291000000,,,-1311985616708731270,0.0,8.361859282133747,,,0,21,0.0,16431,176010915674983,39,27.626813888549805,474.3063249224733,0.19663470558683183,1,541835.0830440539,0.003559989621862769,1.57542003E9,,,,0,,1,,1.57542003E9
Raw,2065340191,1594291000000,,,-1311985616708731270,0.0,8.361859282133747,,,0,22,0.0,16431,176010922692825,41,27.18827247619629,153.06381804832188,0.20433627568422064,4,22361.202962920655,3.4028234663852886E38,1.57542003E9,,,,0,,1,,1.57542003E9
Raw,2065340192,1594291000000,,,-1311985616708731270,0.0,8.361859282133747,,,0,24,0.0,16,1594016564513,1000000000,7.0,-389.1269724262743,2.99792458E8,2,-524294.2249138872,3.4028234663852886E38,1.57542003E9,,,,0,,1,,1.57542003E9
Raw,2065340193,1594291000000,,,-1311985616708731270,0.0,8.361859282133747,,,0,30,0.0,16431,176010921192854,17,34.400970458984375,487.45083776471256,0.08906916641762103,1,108141.69514566203,0.0017310802359133959,1.57542003E9,,,,0,,1,,1.57542003E9
Raw,2065340193,1594291000000,,,-1311985616708731270,0.0,8.361859282133747,,,0,10,0.0,99,921749144,105,25.051259994506836,-849.7609154198831,0.26102928016326565,4,-526838.3537103254,3.4028234663852886E38,1.59806246E9,,,,0,,3,,1.59806246E9
Raw,2065340193,1594291000000,,,-1311985616708731270,0.0,8.361859282133747,,,0,2,0.0,32995,13992920000974,71,28.474767684936523,-4.546177929743436,0.17938600369970892,4,-219.80169312446327,3.4028234663852886E38,1.59975002E9,,,,0,,3,,1.59975002E9
Raw,2065340194,1594291000000,,,-1311985616708731270,0.0,8.361859282133747,,,0,18,0.0,16,1594007992568,1000000000,25.072412490844727,378.31768725760844,2.99792458E8,2,2.984120027619659,3.4028234663852886E38,1.60031245E9,,,,0,,3,,1.60031245E9
Raw,2065340194,1594291000000,,,-1311985616708731270,0.0,8.361859282133747,,,0,9,0.0,32995,13992933093244,33,43.52217483520508,-372.67363245743104,0.033445080886139275,1,-585158.6229943298,6.283108959905803E-4,1.59862502E9,,,,0,,3,,1.59862502E9
Raw,2065340194,1594291000000,,,-1311985616708731270,0.0,8.361859282133747,,,0,16,0.0,32995,13992932608628,33,40.439754486083984,390.799296320479,0.046602383985638096,1,7403.743577653307,8.496976806782186E-4,1.60143744E9,,,,0,,3,,1.60143744E9
Raw,2065340194,1594291000000,,,-1311985616708731270,0.0,8.361859282133747,,,0,19,0.0,17,175770,75,27.946022033691406,-14.764647974893421,0.18919168287447152,4,-0.19465449029239856,3.4028234663852886E38,1.60368755E9,,,,0,,3,,1.60368755E9
Raw,2065340195,1594291000000,,,-1311985616708731270,0.0,8.361859282133747,,,0,3,0.0,32995,13992922394478,54,30.812448501586914,-501.32740769060524,0.13473995771102748,4,-734732.5600243242,3.4028234663852886E38,1.60481254E9,,,,0,,3,,1.60481254E9
Raw,2065340195,1594291000000,,,-1311985616708731270,0.0,8.361859282133747,,,0,193,0.0,1,326368,27,30.69468879699707,-180.65416304652604,0.1381798977180193,1,-15729.848400848756,0.0025006618816405535,1.57542003E9,,,,0,,4,,1.57542003E9
Raw,2065340195,1594291000000,,,-1311985616708731270,0.0,8.361859282133747,,,0,194,0.0,35,15770872,8,40.451515197753906,-147.89645752630076,0.04711117864573869,1,-65457.89669077853,8.625611080788076E-4,1.57542003E9,,,,0,,4,,1.57542003E9
Raw,2065340196,1594291000000,,,-1311985616708731270,0.0,8.361859282133747,,,0,195,0.0,16,1594007883862,1000000000,19.717201232910156,-122.15914160678528,2.99792458E8,2,-0.8536884489497889,3.4028234663852886E38,1.57542003E9,,,,0,,4,,1.57542003E9
Raw,2065340196,1594291000000,,,-1311985616708731270,0.0,8.361859282133747,,,0,7,0.0,16431,175996879727551,13,31.03083038330078,-98.02478326183649,0.13452302320809628,1,-164770.3688662238,0.0024278066121041775,1.56109798E9,,,,0,,5,,1.56109798E9
Raw,2065340196,1594291000000,,,-1311985616708731270,0.0,8.361859282133747,,,0,8,0.0,16431,175996878047077,6,39.29832458496094,-203.49663439759183,0.053806808700058134,1,-338295.31260616315,9.940670570358634E-4,1.56109798E9,,,,0,,5,,1.56109798E9
Raw,2065340197,1594291000000,,,-1311985616708731270,0.0,8.361859282133747,,,0,10,0.0,16431,175996880317904,8,34.93760681152344,-162.68640320454824,0.08718575289550956,1,-234064.620288477,0.0016422966727986932,1.56109798E9,,,,0,,5,,1.56109798E9
Raw,2065340197,1594291000000,,,-1311985616708731270,0.0,8.361859282133747,,,0,30,0.0,16431,175996924439214,6,42.57405471801758,-315.8093031912524,0.03547424558722234,1,-138659.50245197752,7.186344009824097E-4,1.56109798E9,,,,0,,5,,1.56109798E9
Raw,2065340197,1594291000000,,,-1311985616708731270,0.0,8.361859282133747,,,0,32,0.0,16431,175996913205799,15,29.684467315673828,-649.8302943658164,0.1553097436947487,1,-278060.98929437995,0.002834864193573594,1.56109798E9,,,,0,,5,,1.56109798E9
Raw,2065340197,1594291000000,,,-1311985616708731270,0.0,8.361859282133747,,,0,33,0.0,16431,175996910812691,18,28.143686294555664,28.14359060386421,0.18456315880080787,4,1445.0289109371886,3.4028234663852886E38,1.56109798E9,,,,0,,5,,1.56109798E9
Raw,2065340198,1594291000000,,,-1311985616708731270,0.0,8.361859282133747,,,0,36,0.0,16431,175996920712113,6,42.727054595947266,-321.2811734210766,0.037795871631383926,1,-181987.28016956913,7.060864008963108E-4,1.56109798E9,,,,0,,5,,1.56109798E9
Raw,2065341119,1595291000000,,,-1311985616708731657,0.0,8.080819691818881,,,0,1,0.0,16431,176011925226683,37,28.049026489257812,499.8290065720364,0.1855594049811211,1,542745.8553984022,0.0033910812344402075,1.57542003E9,,,,0,,1,,1.57542003E9
Raw,2065341119,1595291000000,,,-1311985616708731657,0.0,8.080819691818881,,,0,2,0.0,16,1595014412793,1000000000,7.0,-693.7822123186761,2.99792458E8,2,-9.704176312687778,3.4028234663852886E38,1.57542003E9,,,,0,,1,,1.57542003E9
Raw,2065341119,1595291000000,,,-1311985616708731657,0.0,8.080819691818881,,,0,3,0.0,16431,176011925982290,27,30.67497444152832,-176.9174988431912,0.1375279875278982,1,-12152.622902745075,0.002506344113498926,1.57542003E9,,,,0,,1,,1.57542003E9
Raw,2065341120,1595291000000,,,-1311985616708731657,0.0,8.080819691818881,,,0,6,0.0,16431,176011924548221,6,43.13429260253906,-642.2368593823603,0.033327868355912574,1,-590798.1679516817,6.676206830888987E-4,1.57542003E9,,,,0,,1,,1.57542003E9
Raw,2065341120,1595291000000,,,-1311985616708731657,0.0,8.080819691818881,,,0,14,0.0,16431,176011932455539,12,37.558013916015625,-68.92022714554398,0.06401758316616754,1,-241937.1822727288,0.0012035524705424905,1.57542003E9,,,,0,,1,,1.57542003E9
Raw,2065341120,1595291000000,,,-1311985616708731657,0.0,8.080819691818881,,,0,17,0.0,16431,176011929486428,27,30.757041931152344,-187.6845899306818,0.13687510379104534,1,-83377.58420697827,0.002482775365933776,1.57542003E9,,,,0,,1,,1.57542003E9
Raw,2065341121,1595291000000,,,-1311985616708731657,0.0,8.080819691818881,,,0,19,0.0,16431,176011927641005,11,38.25499725341797,-438.3329737117774,0.05838802838765436,1,-629581.7056683119,0.0011107487371191382,1.57542003E9,,,,0,,1,,1.57542003E9
Raw,2065341121,1595291000000,,,-1311985616708731657,0.0,8.080819691818881,,,0,21,0.0,16431,176011915673351,39,27.45322608947754,474.2599386991458,0.20054674919141513,1,542309.3646424933,0.0036318516358733177,1.57542003E9,,,,0,,1,,1.57542003E9
Raw,2065341121,1595291000000,,,-1311985616708731657,0.0,8.080819691818881,,,0,22,0.0,16431,176011922692267,45,26.3099308013916,153.09539544429026,0.22602856104962732,4,22514.303522286955,3.4028234663852886E38,1.57542003E9,,,,0,,1,,1.57542003E9
Raw,2065341122,1595291000000,,,-1311985616708731657,0.0,8.080819691818881,,,0,24,0.0,16,1595016565811,1000000000,7.0,-389.1269724262743,2.99792458E8,2,-524294.2218708611,3.4028234663852886E38,1.57542003E9,,,,0,,1,,1.57542003E9
Raw,2065341122,1595291000000,,,-1311985616708731657,0.0,8.080819691818881,,,0,30,0.0,16431,176011921191233,15,35.4067497253418,487.50489254075774,0.07935334477410594,1,108629.22271909515,0.0015418007969856262,1.57542003E9,,,,0,,1,,1.57542003E9
Raw,2065341122,1595291000000,,,-1311985616708731657,0.0,8.080819691818881,,,0,10,0.0,99,1921751809,96,25.848064422607422,-849.7421700687955,0.2381771761247905,1,-527688.0659637369,0.00430713826790452,1.59806246E9,,,,0,,3,,1.59806246E9
Raw,2065341122,1595291000000,,,-1311985616708731657,0.0,8.080819691818881,,,0,2,0.0,32995,13993920000971,67,28.985858917236328,-4.428857061239409,0.16934079874529162,1,-224.25564982581264,0.002998063340783119,1.59975002E9,,,,0,,3,,1.59975002E9
Raw,2065341123,1595291000000,,,-1311985616708731657,0.0,8.080819691818881,,,0,18,0.0,16,1595007991183,1000000000,26.83954620361328,378.40899415863305,2.99792458E8,2,2.9789160464791005,3.4028234663852886E38,1.60031245E9,,,,0,,3,,1.60031245E9
Raw,2065341123,1595291000000,,,-1311985616708731657,0.0,8.080819691818881,,,0,9,0.0,32995,13993933094496,33,42.95317840576172,-372.4902347588818,0.03555013230682391,1,-585531.2006602202,6.708487053401768E-4,1.59862502E9,,,,0,,3,,1.59862502E9
Raw,2065341124,1595291000000,,,-1311985616708731657,0.0,8.080819691818881,,,0,16,0.0,32995,13993932607351,33,41.15553665161133,390.89077363378624,0.04309514860092942,1,7794.5946164313555,7.824835483916104E-4,1.60143744E9,,,,0,,3,,1.60143744E9
Raw,2065341124,1595291000000,,,-1311985616708731657,0.0,8.080819691818881,,,0,19,0.0,99,1933175793,79,27.462623596191406,-14.56689730184101,0.19988372226254536,4,-14.917158845902845,3.4028234663852886E38,1.60368755E9,,,,0,,3,,1.60368755E9
Raw,2065341124,1595291000000,,,-1311985616708731657,0.0,8.080819691818881,,,0,3,0.0,32995,13993922396143,56,30.53744888305664,-501.2924050077563,0.13906061635283384,4,-735233.8488955955,3.4028234663852886E38,1.60481254E9,,,,0,,3,,1.60481254E9
Raw,2065341125,1595291000000,,,-1311985616708731657,0.0,8.080819691818881,,,0,193,0.0,1,326956,23,32.14982986450195,-180.74974729584426,0.11718027837087064,1,-15910.557581728379,0.0021149395033717155,1.57542003E9,,,,0,,4,,1.57542003E9
Raw,2065341125,1595291000000,,,-1311985616708731657,0.0,8.080819691818881,,,0,194,0.0,35,15771383,8,40.41357421875,-147.8686632830064,0.04730508086359783,1,-65605.74036732418,8.66337155457586E-4,1.57542003E9,,,,0,,4,,1.57542003E9
Raw,2065341125,1595291000000,,,-1311985616708731657,0.0,8.080819691818881,,,0,195,0.0,16,1595007884270,1000000000,10.488258361816406,-122.15914160678528,2.99792458E8,2,-0.8527331478005201,3.4028234663852886E38,1.57542003E9,,,,0,,4,,1.57542003E9
Raw,2065341126,1595291000000,,,-1311985616708731657,0.0,8.080819691818881,,,0,7,0.0,16431,175997879727863,12,31.547819137573242,-97.98331343286236,0.12695488725934023,1,-164868.30588359563,0.0022875191643834114,1.56109798E9,,,,0,,5,,1.56109798E9
Raw,2065341126,1595291000000,,,-1311985616708731657,0.0,8.080819691818881,,,0,8,0.0,16431,175997878047746,6,39.29987335205078,-203.42567472311134,0.05379793860761348,1,-338498.75584782066,9.938896400853992E-4,1.56109798E9,,,,0,,5,,1.56109798E9
Raw,2065341126,1595291000000,,,-1311985616708731657,0.0,8.080819691818881,,,0,10,0.0,16431,175997880318442,9,33.83418273925781,-162.6648290095693,0.09850082890824208,1,-234227.30564220354,0.0018647590186446905,1.56109798E9,,,,0,,5,,1.56109798E9
Raw,2065341126,1595291000000,,,-1311985616708731657,0.0,8.080819691818881,,,0,30,0.0,16431,175997924440268,6,41.1109619140625,-315.75470309590287,0.04183614881445186,1,-138975.28381716934,8.504767902195454E-4,1.56109798E9,,,,0,,5,,1.56109798E9
Raw,2065341127,1595291000000,,,-1311985616708731657,0.0,8.080819691818881,,,0,32,0.0,16431,175997913207975,13,30.5648250579834,-649.8339752711208,0.1405691478159311,1,-278710.7882341895,0.002561617875471711,1.56109798E9,,,,0,,5,,1.56109798E9
Raw,2065341127,1595291000000,,,-1311985616708731657,0.0,8.080819691818881,,,0,33,0.0,16431,175997910812619,17,28.75299835205078,28.255813482426163,0.1721915432776927,4,1473.2362178520038,3.4028234663852886E38,1.56109798E9,,,,0,,5,,1.56109798E9
Raw,2065341127,1595291000000,,,-1311985616708731657,0.0,8.080819691818881,,,0,36,0.0,16431,175997920713188,6,41.994903564453125,-321.1239851315934,0.04079242766937033,1,-182308.47881897553,7.681841962039471E-4,1.56109798E9,,,,0,,5,,1.56109798E9
Fix,gps,34.486391,109.464192,357.552307,0.355602,3.000000,1627951993999
Fix,gps,34.486392,109.464191,357.540619,0.239911,3.000000,1627951994999
Raw,2065342146,1596291000000,,,-1311985616708732044,0.0,7.994523991817283,,,0,1,0.0,16431,176012925224919,37,28.10384750366211,499.9207565449958,0.1843975560054668,1,543245.7822495278,0.0033697455655783415,1.57542003E9,,,,0,,1,,1.57542003E9
Raw,2065342147,1596291000000,,,-1311985616708732044,0.0,7.994523991817283,,,0,2,0.0,16,1596014415107,1000000000,15.177144050598145,-693.7822123186761,2.99792458E8,2,-9.698750841145335,3.4028234663852886E38,1.57542003E9,,,,0,,1,,1.57542003E9
Raw,2065342147,1596291000000,,,-1311985616708732044,0.0,7.994523991817283,,,0,3,0.0,16431,176012925982959,30,29.823869705200195,-176.66598735528112,0.1515756344774417,1,-12329.387133368005,0.0027643684297800064,1.57542003E9,,,,0,,1,,1.57542003E9
Raw,2065342147,1596291000000,,,-1311985616708732044,0.0,7.994523991817283,,,0,6,0.0,16431,176012924550361,6,44.02999496459961,-642.1219333389654,0.030818497568947237,1,-591440.3648600054,6.022055167704821E-4,1.57542003E9,,,,0,,1,,1.57542003E9
Raw,2065342148,1596291000000,,,-1311985616708732044,0.0,7.994523991817283,,,0,14,0.0,16431,176012932455759,11,38.2586784362793,-68.8282513763101,0.05922992580642711,1,-242006.11155721534,0.0011102781863883138,1.57542003E9,,,,0,,1,,1.57542003E9
Raw,2065342148,1596291000000,,,-1311985616708732044,0.0,7.994523991817283,,,0,17,0.0,16431,176012929487027,22,32.56548309326172,-187.7776179957608,0.11146905383875116,1,-83565.32514164504,0.0020161147695034742,1.57542003E9,,,,0,,1,,1.57542003E9
Raw,2065342148,1596291000000,,,-1311985616708732044,0.0,7.994523991817283,,,0,19,0.0,16431,176012927642476,17,34.82692337036133,-438.3625572840392,0.08597699893757521,1,-630020.073095349,0.0016482368810102344,1.57542003E9,,,,0,,1,,1.57542003E9
Raw,2065342148,1596291000000,,,-1311985616708732044,0.0,7.994523991817283,,,0,21,0.0,16431,176012915671735,41,27.108734130859375,474.21866484429665,0.2085461746632401,1,542783.6272768639,0.0037787901237607002,1.57542003E9,,,,0,,1,,1.57542003E9
Raw,2065342149,1596291000000,,,-1311985616708732044,0.0,7.994523991817283,,,0,22,0.0,16431,176012922691704,44,26.43362045288086,153.24694308721894,0.2228394383001958,1,22667.51222275797,0.004084213636815548,1.57542003E9,,,,0,,1,,1.57542003E9
Raw,2065342149,1596291000000,,,-1311985616708732044,0.0,7.994523991817283,,,0,24,0.0,16,1596016567108,1000000000,16.92418670654297,-388.94132528559453,2.99792458E8,2,-524294.2158610568,3.4028234663852886E38,1.57542003E9,,,,0,,1,,1.57542003E9
Raw,2065342149,1596291000000,,,-1311985616708732044,0.0,7.994523991817283,,,0,30,0.0,16431,176012921189612,19,33.47660827636719,487.6496407336101,0.09904608996622138,1,109116.7799847963,0.0019254636717960238,1.57542003E9,,,,0,,1,,1.57542003E9
Raw,2065342150,1596291000000,,,-1311985616708732044,0.0,7.994523991817283,,,0,10,0.0,99,921754679,97,25.750957489013672,-849.6144971866611,0.24085190007972979,1,-528537.7059003203,0.004355562385171652,1.59806246E9,,,,0,,3,,1.59806246E9
Raw,2065342150,1596291000000,,,-1311985616708732044,0.0,7.994523991817283,,,0,2,0.0,32995,13994920001018,77,27.717639923095703,-4.3333936981341665,0.19539672026420885,1,-228.56055539106998,0.0034693784546107054,1.59975002E9,,,,0,,3,,1.59975002E9
Raw,2065342150,1596291000000,,,-1311985616708732044,0.0,7.994523991817283,,,0,18,0.0,16,1596007989921,1000000000,30.245389938354492,378.40899415863305,2.99792458E8,2,3.0203855255169447,3.4028234663852886E38,1.60031245E9,,,,0,,3,,1.60031245E9
Raw,2065342150,1596291000000,,,-1311985616708732044,0.0,7.994523991817283,,,0,9,0.0,32995,13994933095747,33,43.45310974121094,-372.34909930642084,0.03369372222514962,1,-585903.6310855807,6.333267665468156E-4,1.59862502E9,,,,0,,3,,1.59862502E9
Raw,2065342151,1596291000000,,,-1311985616708732044,0.0,7.994523991817283,,,0,16,0.0,32995,13994932606024,33,40.36751174926758,391.10562943970604,0.0469721861277316,1,8185.57836644568,8.56794067658484E-4,1.60143744E9,,,,0,,3,,1.60143744E9
Raw,2065342151,1596291000000,,,-1311985616708732044,0.0,7.994523991817283,,,0,19,0.0,99,933176017,83,27.08895492553711,-14.690382302130217,0.20856626134538025,4,-29.60282247046929,3.4028234663852886E38,1.60368755E9,,,,0,,3,,1.60368755E9
Raw,2065342151,1596291000000,,,-1311985616708732044,0.0,7.994523991817283,,,0,3,0.0,32995,13994922397811,51,31.215070724487305,-501.1090413916636,0.1286569298574215,1,-735735.0209127384,0.0023121070116758347,1.60481254E9,,,,0,,3,,1.60481254E9
Raw,2065342151,1596291000000,,,-1311985616708732044,0.0,7.994523991817283,,,0,193,0.0,1,327563,23,31.982084274291992,-180.6559012518087,0.11942568485894117,1,-16091.249906668658,0.0021561814937740564,1.57542003E9,,,,0,,4,,1.57542003E9
Raw,2065342152,1596291000000,,,-1311985616708732044,0.0,7.994523991817283,,,0,194,0.0,35,15771885,9,39.97821044921875,-147.7446883474047,0.04959086041784236,1,-65753.55541116447,9.108673548325896E-4,1.57542003E9,,,,0,,4,,1.57542003E9
Raw,2065342153,1596291000000,,,-1311985616708732044,0.0,7.994523991817283,,,0,195,0.0,16,1596007884677,1000000000,23.862157821655273,-122.15914160678528,2.99792458E8,2,-0.8517778466287879,3.4028234663852886E38,1.57542003E9,,,,0,,4,,1.57542003E9
Raw,2065342153,1596291000000,,,-1311985616708732044,0.0,7.994523991817283,,,0,7,0.0,16431,175998879728186,13,30.95416259765625,-97.84163266109704,0.13568434796627965,1,-164966.1963540741,0.0024493311066180468,1.56109798E9,,,,0,,5,,1.56109798E9
Raw,2065342153,1596291000000,,,-1311985616708732044,0.0,7.994523991817283,,,0,8,0.0,16431,175998878048432,6,38.71807861328125,-203.34563207396752,0.057300052470840274,1,-338702.1629193636,0.0010627423180267215,1.56109798E9,,,,0,,5,,1.56109798E9
Raw,2065342154,1596291000000,,,-1311985616708732044,0.0,7.994523991817283,,,0,10,0.0,16431,175998880318987,8,35.28425598144531,-162.61017779053498,0.0839179143163159,1,-234389.9724778806,0.0015780437970533967,1.56109798E9,,,,0,,5,,1.56109798E9
Raw,2065342154,1596291000000,,,-1311985616708732044,0.0,7.994523991817283,,,0,30,0.0,16431,175998924441306,6,42.817710876464844,-315.72167719553227,0.03451541646901089,1,-139291.0212822345,6.987552042119205E-4,1.56109798E9,,,,0,,5,,1.56109798E9
Raw,2065342154,1596291000000,,,-1311985616708732044,0.0,7.994523991817283,,,0,32,0.0,16431,175998913210101,14,30.3832950592041,-649.7088926556821,0.14348807390320228,1,-279360.58155336825,0.0026157174725085497,1.56109798E9,,,,0,,5,,1.56109798E9
Raw,2065342154,1596291000000,,,-1311985616708732044,0.0,7.994523991817283,,,0,33,0.0,16431,175998910812528,17,28.858051300048828,28.333308467944903,0.1701448484947543,1,1501.5403665630474,0.003117834683507681,1.56109798E9,,,,0,,5,,1.56109798E9
Raw,2065342155,1596291000000,,,-1311985616708732044,0.0,7.994523991817283,,,0,36,0.0,16431,175998920714260,6,42.28015899658203,-321.0611029993088,0.03959507336120069,1,-182629.59328666818,7.433660211972892E-4,1.56109798E9,,,,0,,5,,1.56109798E9
Fix,gps,34.486392,109.464191,357.512177,0.000000,3.000000,1627951995999
Raw,2065343172,1597291000000,,,-1311985616708732433,0.0,8.276045521070502,,,0,1,0.0,16431,176013925223346,34,28.677852630615234,499.9534416208012,0.17266541922959067,1,543745.7576364506,0.003154255449771881,1.57542003E9,,,,0,,1,,1.57542003E9
Raw,2065343172,1597291000000,,,-1311985616708732433,0.0,8.276045521070502,,,0,2,0.0,16,1597014417422,1000000000,15.448989868164062,-693.7822123186761,2.99792458E8,2,-9.693325369602894,3.4028234663852886E38,1.57542003E9,,,,0,,1,,1.57542003E9
Raw,2065343172,1597291000000,,,-1311985616708732433,0.0,8.276045521070502,,,0,3,0.0,16431,176013925983497,32,29.35297393798828,-176.5232500273636,0.15996010184212228,1,-12506.01959168171,0.0029183723963797092,1.57542003E9,,,,0,,1,,1.57542003E9
Raw,2065343173,1597291000000,,,-1311985616708732433,0.0,8.276045521070502,,,0,6,0.0,16431,176013924552504,6,43.51691436767578,-642.0566313522677,0.03192764188649229,1,-592082.4791389528,6.388499750755727E-4,1.57542003E9,,,,0,,1,,1.57542003E9
Raw,2065343173,1597291000000,,,-1311985616708732433,0.0,8.276045521070502,,,0,14,0.0,16431,176013932455996,12,37.89567184448242,-68.7222634571383,0.06166219502060427,1,-242074.9127428781,0.0011576629476621747,1.57542003E9,,,,0,,1,,1.57542003E9
Raw,2065343173,1597291000000,,,-1311985616708732433,0.0,8.276045521070502,,,0,17,0.0,16431,176013929487613,18,34.13558578491211,-187.63995895386518,0.09331788245222616,1,-83753.00583940899,0.0017847875133156776,1.57542003E9,,,,0,,1,,1.57542003E9
Raw,2065343174,1597291000000,,,-1311985616708732433,0.0,8.276045521070502,,,0,19,0.0,16431,176013927643955,17,34.69429016113281,-438.30301523249386,0.08727906360533544,1,-630458.3885470431,0.0016735981917008758,1.57542003E9,,,,0,,1,,1.57542003E9
Raw,2065343174,1597291000000,,,-1311985616708732433,0.0,8.276045521070502,,,0,21,0.0,16431,176013915670320,55,24.598907470703125,474.4023352024981,0.2774708868470471,4,543257.8970474872,3.4028234663852886E38,1.57542003E9,,,,0,,1,,1.57542003E9
Raw,2065343174,1597291000000,,,-1311985616708732433,0.0,8.276045521070502,,,0,22,0.0,16431,176013922691246,51,25.204269409179688,153.00739454154836,0.25664620635876945,4,22820.858221270857,3.4028234663852886E38,1.57542003E9,,,,0,,1,,1.57542003E9
Raw,2065343175,1597291000000,,,-1311985616708732433,0.0,8.276045521070502,,,0,24,0.0,16,1597016568405,1000000000,7.0,-388.94132528559453,2.99792458E8,2,-524294.2128194825,3.4028234663852886E38,1.57542003E9,,,,0,,1,,1.57542003E9
Raw,2065343175,1597291000000,,,-1311985616708732433,0.0,8.276045521070502,,,0,30,0.0,16431,176013921187969,21,33.017452239990234,487.65134485643625,0.10441080675005487,1,109604.36494362824,0.0020299863535910845,1.57542003E9,,,,0,,1,,1.57542003E9
Raw,2065343175,1597291000000,,,-1311985616708732433,0.0,8.276045521070502,,,0,10,0.0,99,1921757475,95,25.887489318847656,-849.5446281507893,0.23710096597787955,1,-529387.2866144528,0.0042876326479017735,1.59806246E9,,,,0,,3,,1.59806246E9
Raw,2065343175,1597291000000,,,-1311985616708732433,0.0,8.276045521070502,,,0,2,0.0,32995,13995920001141,95,25.94568634033203,-3.91842301500988,0.2388013610353379,1,-232.68111965619423,0.004254507832229137,1.59975002E9,,,,0,,3,,1.59975002E9
Raw,2065343176,1597291000000,,,-1311985616708732433,0.0,8.276045521070502,,,0,18,0.0,16,1597007988781,1000000000,28.64530372619629,378.40899415863305,2.99792458E8,2,2.9907644690707573,3.4028234663852886E38,1.60031245E9,,,,0,,3,,1.60031245E9
Raw,2065343176,1597291000000,,,-1311985616708732433,0.0,8.276045521070502,,,0,9,0.0,32995,13995933096983,33,43.479835510253906,-372.1852990203722,0.03359767809565388,1,-586275.8841700073,6.313812918961048E-4,1.59862502E9,,,,0,,3,,1.59862502E9
Raw,2065343176,1597291000000,,,-1311985616708732433,0.0,8.276045521070502,,,0,16,0.0,32995,13995932604732,33,40.32276916503906,391.1883816441434,0.047202821012661045,1,8576.695540127363,8.61218839418143E-4,1.60143744E9,,,,0,,3,,1.60143744E9
Raw,2065343177,1597291000000,,,-1311985616708732433,0.0,8.276045521070502,,,0,19,0.0,99,1933176009,81,27.296588897705078,-14.553473074278088,0.20369563200926843,4,-44.179053085971276,3.4028234663852886E38,1.60368755E9,,,,0,,3,,1.60368755E9
Raw,2065343177,1597291000000,,,-1311985616708732433,0.0,8.276045521070502,,,0,3,0.0,32995,13995922399544,51,31.308090209960938,-500.9591467478763,0.1272913849502051,1,-736236.078314654,0.0022874781861901283,1.60481254E9,,,,0,,3,,1.60481254E9
Raw,2065343178,1597291000000,,,-1311985616708732433,0.0,8.276045521070502,,,0,193,0.0,1,328118,26,31.092117309570312,-180.72065791920204,0.13209127821139005,1,-16271.93796679367,0.0023888209834694862,1.57542003E9,,,,0,,4,,1.57542003E9
Raw,2065343178,1597291000000,,,-1311985616708732433,0.0,8.276045521070502,,,0,194,0.0,35,15772364,9,40.057037353515625,-147.81730102102654,0.049168578282270003,1,-65901.35164052434,9.026384213939309E-4,1.57542003E9,,,,0,,4,,1.57542003E9
Raw,2065343178,1597291000000,,,-1311985616708732433,0.0,8.276045521070502,,,0,195,0.0,16,1597007885023,1000000000,20.00342559814453,-122.15914160678528,2.99792458E8,2,-0.854643750076707,3.4028234663852886E38,1.57542003E9,,,,0,,4,,1.57542003E9
Raw,2065343179,1597291000000,,,-1311985616708732433,0.0,8.276045521070502,,,0,7,0.0,16431,175999879728529,13,30.91543197631836,-97.86976772895662,0.13627493303321397,1,-165064.07994670092,0.002460277173668146,1.56109798E9,,,,0,,5,,1.56109798E9
Raw,2065343179,1597291000000,,,-1311985616708732433,0.0,8.276045521070502,,,0,8,0.0,16431,175999878049107,6,38.71808624267578,-203.35537965653305,0.05730012735905041,1,-338905.533070898,0.0010627415031194687,1.56109798E9,,,,0,,5,,1.56109798E9
Raw,2065343179,1597291000000,,,-1311985616708732433,0.0,8.276045521070502,,,0,10,0.0,16431,175999880319533,7,35.776912689208984,-162.63304711886178,0.07949226240390289,1,-234552.617881034,0.0014910296304151416,1.56109798E9,,,,0,,5,,1.56109798E9
Raw,2065343179,1597291000000,,,-1311985616708732433,0.0,8.276045521070502,,,0,30,0.0,16431,175999924442367,6,42.975547790527344,-315.66295312294346,0.033908451686338006,1,-139606.71312316493,6.861722795292735E-4,1.56109798E9,,,,0,,5,,1.56109798E9
Raw,2065343180,1597291000000,,,-1311985616708732433,0.0,8.276045521070502,,,0,32,0.0,16431,175999913212299,15,29.749296188354492,-649.8718067978612,0.15417368954702915,1,-280010.38197381166,0.0028137846384197474,1.56109798E9,,,,0,,5,,1.56109798E9
Raw,2065343181,1597291000000,,,-1311985616708732433,0.0,8.276045521070502,,,0,33,0.0,16431,175999910812396,17,28.689517974853516,28.523017811411464,0.17344029586075038,1,1529.9596576227596,0.0031789210624992847,1.56109798E9,,,,0,,5,,1.56109798E9
Raw,2065343181,1597291000000,,,-1311985616708732433,0.0,8.276045521070502,,,0,36,0.0,16431,175999920715324,6,42.3652229309082,-320.95483389987066,0.03924571154001741,1,-182950.57807775776,7.3612155392766E-4,1.56109798E9,,,,0,,5,,1.56109798E9
Fix,gps,34.486392,109.464191,357.537872,0.000000,3.000000,1627951996999
Raw,2065344118,1598291000000,,,-1311985616708732821,0.0,8.193208488466437,,,0,1,0.0,16431,176014925221629,40,27.349010467529297,499.9325490749527,0.20105340953752693,1,544245.7919100054,0.003675691084936261,1.57542003E9,,,,0,,1,,1.57542003E9
Raw,2065344118,1598291000000,,,-1311985616708732821,0.0,8.193208488466437,,,0,2,0.0,16,1598014419675,1000000000,7.0,-693.7822123186761,2.99792458E8,2,-9.709601784070893,3.4028234663852886E38,1.57542003E9,,,,0,,1,,1.57542003E9
Raw,2065344119,1598291000000,,,-1311985616708732821,0.0,8.193208488466437,,,0,3,0.0,16431,176014925984140,32,29.180500030517578,-176.48879266381903,0.1631466617505848,1,-12682.538269402012,0.0029769011307507753,1.57542003E9,,,,0,,1,,1.57542003E9
Raw,2065344119,1598291000000,,,-1311985616708732821,0.0,8.193208488466437,,,0,6,0.0,16431,176014924554644,6,44.62705993652344,-642.039249299441,0.03081926725332916,1,-592724.5487958827,5.622007302008569E-4,1.57542003E9,,,,0,,1,,1.57542003E9
Raw,2065344120,1598291000000,,,-1311985616708732821,0.0,8.193208488466437,,,0,14,0.0,16431,176014932456220,9,39.841552734375,-68.66574622360935,0.049735873115852924,1,-242143.60545765253,9.25311935134232E-4,1.57542003E9,,,,0,,1,,1.57542003E9
Raw,2065344121,1598291000000,,,-1311985616708732821,0.0,8.193208488466437,,,0,17,0.0,16431,176014929488260,14,36.108821868896484,-187.71979710826986,0.07470071501769165,1,-83940.6620980009,0.0014220818411558867,1.57542003E9,,,,0,,1,,1.57542003E9
Raw,2065344121,1598291000000,,,-1311985616708732821,0.0,8.193208488466437,,,0,19,0.0,16431,176014927645359,17,34.63881301879883,-438.3171253694943,0.08782974989809328,1,-630896.6290927624,0.0016843219054862857,1.57542003E9,,,,0,,1,,1.57542003E9
Raw,2065344122,1598291000000,,,-1311985616708732821,0.0,8.193208488466437,,,0,21,0.0,16431,176014915668553,166,25.583873748779297,474.2730945273636,0.24802645687967506,4,543732.179310821,3.4028234663852886E38,1.57542003E9,,,,1,,1,,1.57542003E9
Raw,2065344122,1598291000000,,,-1311985616708732821,0.0,8.193208488466437,,,0,22,0.0,16431,176014922690679,56,24.505470275878906,153.5631089951528,0.27810663782560396,4,22974.327932190827,3.4028234663852886E38,1.57542003E9,,,,0,,1,,1.57542003E9
Raw,2065344123,1598291000000,,,-1311985616708732821,0.0,8.193208488466437,,,0,24,0.0,16,1598016569702,1000000000,15.972428321838379,-388.7556781449148,2.99792458E8,2,-524294.2189745237,3.4028234663852886E38,1.57542003E9,,,,0,,1,,1.57542003E9
Raw,2065344124,1598291000000,,,-1311985616708732821,0.0,8.193208488466437,,,0,30,0.0,16431,176014921186347,19,33.48574447631836,487.56903572393367,0.09894157930852449,1,110091.93967090562,0.001923439442180097,1.57542003E9,,,,0,,1,,1.57542003E9
Raw,2065344124,1598291000000,,,-1311985616708732821,0.0,8.193208488466437,,,0,10,0.0,99,921760475,104,25.117366790771484,-849.6125204041828,0.2590545945548264,1,-530236.8197913148,0.004685152787715197,1.59806246E9,,,,0,,3,,1.59806246E9
Raw,2065344125,1598291000000,,,-1311985616708732821,0.0,8.193208488466437,,,0,2,0.0,32995,13996920001074,90,26.358713150024414,-3.9382560757450484,0.22787883237829876,1,-236.67537533099105,0.004056934267282486,1.59975002E9,,,,0,,3,,1.59975002E9
Raw,2065344125,1598291000000,,,-1311985616708732821,0.0,8.193208488466437,,,0,18,0.0,16,1598007987397,1000000000,34.22178649902344,378.40899415863305,2.99792458E8,2,2.9848402577800557,3.4028234663852886E38,1.60031245E9,,,,0,,3,,1.60031245E9
Raw,2065344125,1598291000000,,,-1311985616708732821,0.0,8.193208488466437,,,0,9,0.0,32995,13996933098225,33,42.89176940917969,-372.053536243455,0.03578633388203992,1,-586647.978463398,6.756082293577492E-4,1.59862502E9,,,,0,,3,,1.59862502E9
Raw,2065344126,1598291000000,,,-1311985616708732821,0.0,8.193208488466437,,,0,16,0.0,32995,13996932603408,33,38.43671798706055,391.3292785194087,0.05810025379839334,1,8967.95546953995,0.0010700798593461514,1.60143744E9,,,,0,,3,,1.60143744E9
Raw,2065344126,1598291000000,,,-1311985616708732821,0.0,8.193208488466437,,,0,19,0.0,99,933175978,89,26.496545791625977,-14.534862987939867,0.22312021916272162,1,-58.696027211566715,0.003983260598033667,1.60368755E9,,,,0,,3,,1.60368755E9
Raw,2065344126,1598291000000,,,-1311985616708732821,0.0,8.193208488466437,,,0,3,0.0,32995,13996922401197,54,30.86545753479004,-500.9161346877445,0.13392400073615363,1,-736737.0264795122,0.0024070697836577892,1.60481254E9,,,,0,,3,,1.60481254E9
Raw,2065344126,1598291000000,,,-1311985616708732821,0.0,8.193208488466437,,,0,193,0.0,1,328766,26,31.01780128479004,-180.69927117773398,0.13320890153850462,1,-16452.61629457596,0.0024093471001833677,1.57542003E9,,,,0,,4,,1.57542003E9
Raw,2065344127,1598291000000,,,-1311985616708732821,0.0,8.193208488466437,,,0,194,0.0,35,15772884,10,38.894081115722656,-147.73940556664365,0.05580646120566457,1,-66049.12205256576,0.0010319572174921632,1.57542003E9,,,,0,,4,,1.57542003E9
Raw,2065344127,1598291000000,,,-1311985616708732821,0.0,8.193208488466437,,,0,195,0.0,16,1598007885492,1000000000,24.946720123291016,-122.15914160678528,2.99792458E8,2,-0.853688448950431,3.4028234663852886E38,1.57542003E9,,,,0,,4,,1.57542003E9
Raw,2065344127,1598291000000,,,-1311985616708732821,0.0,8.193208488466437,,,0,7,0.0,16431,176000879728848,14,30.214399337768555,-97.7781540858233,0.1474313874959723,1,-165161.91457578106,0.002667077351361513,1.56109798E9,,,,0,,5,,1.56109798E9
Raw,2065344128,1598291000000,,,-1311985616708732821,0.0,8.193208488466437,,,0,8,0.0,16431,176000878049784,6,36.95548629760742,-203.32698897024954,0.06946137357898938,1,-339108.8672604159,0.0013018400641158223,1.56109798E9,,,,0,,5,,1.56109798E9
Raw,2065344128,1598291000000,,,-1311985616708732821,0.0,8.193208488466437,,,0,10,0.0,16431,176000880320080,7,36.438873291015625,-162.672241943863,0.07392748592715487,1,-234715.24282531135,0.0013816189020872116,1.56109798E9,,,,0,,5,,1.56109798E9
Raw,2065344128,1598291000000,,,-1311985616708732821,0.0,8.193208488466437,,,0,30,0.0,16431,176000924443420,6,43.5062370300293,-315.68503855477024,0.031946293211271556,1,-139922.37842663866,6.45503809209913E-4,1.56109798E9,,,,0,,5,,1.56109798E9
Raw,2065344129,1598291000000,,,-1311985616708732821,0.0,8.193208488466437,,,0,32,0.0,16431,176000913214426,15,29.7236270904541,-649.7645152247273,0.15462333500249292,1,-280660.18152341724,0.0028221122920513153,1.56109798E9,,,,0,,5,,1.56109798E9
Raw,2065344129,1598291000000,,,-1311985616708732821,0.0,8.193208488466437,,,0,33,0.0,16431,176000910812333,19,27.571880340576172,28.54862651718129,0.19698967570286285,1,1558.4871637367337,0.0036154433619230986,1.56109798E9,,,,0,,5,,1.56109798E9
Raw,2065344129,1598291000000,,,-1311985616708732821,0.0,8.193208488466437,,,0,36,0.0,16431,176000920716390,6,42.18088150024414,-320.8884071921077,0.04000779892906883,1,-183271.46647530817,7.519112550653517E-4,1.56109798E9,,,,0,,5,,1.56109798E9
Fix,gps,34.486392,109.464191,357.545685,0.000000,2.000000,1627951997999
Raw,2065345137,1599291000000,,,-1311985616708733208,0.0,8.215636940511828,,,0,1,0.0,16431,176015925219928,51,25.236215591430664,500.0960426188926,0.2561606478460907,1,544745.8653971854,0.004687903914600611,1.57542003E9,,,,0,,1,,1.57542003E9
Raw,2065345137,1599291000000,,,-1311985616708733208,0.0,8.215636940511828,,,0,2,0.0,16,1599014422050,1000000000,14.985980033874512,-693.7822123186761,2.99792458E8,2,-9.70417631269405,3.4028234663852886E38,1.57542003E9,,,,0,,1,,1.57542003E9
Raw,2065345137,1599291000000,,,-1311985616708733208,0.0,8.215636940511828,,,0,3,0.0,16431,176015925984681,29,29.998716354370117,-176.2962097432369,0.1485766944980994,1,-12858.916596439016,0.0027092781383544207,1.57542003E9,,,,0,,1,,1.57542003E9
Raw,2065345138,1599291000000,,,-1311985616708733208,0.0,8.215636940511828,,,0,6,0.0,16431,176015924556776,6,45.01093673706055,-641.9455225440033,0.030819652095520123,1,-593366.528947976,5.378950736485422E-4,1.57542003E9,,,,0,,1,,1.57542003E9
Raw,2065345138,1599291000000,,,-1311985616708733208,0.0,8.215636940511828,,,0,14,0.0,16431,176015932456457,8,41.08527374267578,-68.5340899543688,0.04339959829831341,1,-242212.19429175835,8.018665830604732E-4,1.57542003E9,,,,0,,1,,1.57542003E9
Raw,2065345139,1599291000000,,,-1311985616708733208,0.0,8.215636940511828,,,0,17,0.0,16431,176015929488891,13,36.699337005615234,-187.622866601919,0.06990324314196766,1,-84128.29936286692,0.0013286140747368336,1.57542003E9,,,,0,,1,,1.57542003E9
Raw,2065345139,1599291000000,,,-1311985616708733208,0.0,8.215636940511828,,,0,19,0.0,16431,176015927646835,13,36.93772506713867,-438.19838209096883,0.06772566456999715,1,-631334.8707415084,0.001292645581997931,1.57542003E9,,,,0,,1,,1.57542003E9
Raw,2065345139,1599291000000,,,-1311985616708733208,0.0,8.215636940511828,,,0,21,0.0,16431,176015915667007,40,27.403282165527344,474.2538379394282,0.20168579886754,4,544206.4215759713,3.4028234663852886E38,1.57542003E9,,,,0,,1,,1.57542003E9
Raw,2065345139,1599291000000,,,-1311985616708733208,0.0,8.215636940511828,,,0,22,0.0,16431,176015922690157,53,24.868202209472656,153.59253919636024,0.2667514050904156,4,23127.87288670574,3.4028234663852886E38,1.57542003E9,,,,0,,1,,1.57542003E9
Raw,2065345140,1599291000000,,,-1311985616708733208,0.0,8.215636940511828,,,0,24,0.0,16,1599016570999,1000000000,18.244218826293945,-388.7556781449148,2.99792458E8,2,-524294.215934401,3.4028234663852886E38,1.57542003E9,,,,0,,1,,1.57542003E9
Raw,2065345140,1599291000000,,,-1311985616708733208,0.0,8.215636940511828,,,0,30,0.0,16431,176015921184697,19,33.560516357421875,487.62268151050057,0.09809505130209184,1,110579.56906877618,0.0019069525878876448,1.57542003E9,,,,0,,1,,1.57542003E9
Raw,2065345140,1599291000000,,,-1311985616708733208,0.0,8.215636940511828,,,0,10,0.0,16,1599001763258,1000000000,23.24399757385254,-849.5792559266165,2.99792458E8,2,-524288.8357808038,3.4028234663852886E38,1.59806246E9,,,,0,,3,,1.59806246E9
Raw,2065345141,1599291000000,,,-1311985616708733208,0.0,8.215636940511828,,,0,2,0.0,32995,13997920001091,91,26.245542526245117,-3.8380059913826923,0.23082017500313645,1,-240.5415169708989,0.004110140260308981,1.59975002E9,,,,0,,3,,1.59975002E9
Raw,2065345141,1599291000000,,,-1311985616708733208,0.0,8.215636940511828,,,0,18,0.0,17,986069,33,35.42934799194336,378.7977386577322,0.08036994390575092,4,305.931564865745,3.4028234663852886E38,1.60031245E9,,,,0,,3,,1.60031245E9
Raw,2065345141,1599291000000,,,-1311985616708733208,0.0,8.215636940511828,,,0,9,0.0,32995,13997933099451,33,42.07284164428711,-371.8404527252744,0.03909180794728159,1,-587019.9078426134,7.424058858305216E-4,1.59862502E9,,,,0,,3,,1.59862502E9
Raw,2065345142,1599291000000,,,-1311985616708733208,0.0,8.215636940511828,,,0,16,0.0,32995,13997932602090,33,35.848140716552734,391.50217882134893,0.07748473415486412,1,9359.349579774982,0.0014416009653359652,1.60143744E9,,,,0,,3,,1.60143744E9
Raw,2065345142,1599291000000,,,-1311985616708733208,0.0,8.215636940511828,,,0,19,0.0,99,1933176025,97,25.75092315673828,-14.349435253073985,0.24290719868592126,1,-73.13481170848539,0.004340301733464003,1.60368755E9,,,,0,,3,,1.60368755E9
Raw,2065345142,1599291000000,,,-1311985616708733208,0.0,8.215636940511828,,,0,3,0.0,32995,13997922402859,49,31.573551177978516,-500.8050940443932,0.1234734924675836,1,-737237.8751610448,0.002218625508248806,1.60481254E9,,,,0,,3,,1.60481254E9
Raw,2065345142,1599291000000,,,-1311985616708733208,0.0,8.215636940511828,,,0,193,0.0,1,329389,28,30.327350616455078,-180.6420808156887,0.14406158445822626,1,-16633.29362425693,0.002608686685562134,1.57542003E9,,,,0,,4,,1.57542003E9
Raw,2065345143,1599291000000,,,-1311985616708733208,0.0,8.215636940511828,,,0,194,0.0,35,15773358,11,38.188079833984375,-147.73725837188272,0.06029178237972921,1,-66196.86799620543,0.0011193391401320696,1.57542003E9,,,,0,,4,,1.57542003E9
Raw,2065345143,1599291000000,,,-1311985616708733208,0.0,8.215636940511828,,,0,195,0.0,16,1599007885900,1000000000,26.68199348449707,-122.15914160678528,2.99792458E8,2,-0.8527331477786986,3.4028234663852886E38,1.57542003E9,,,,0,,4,,1.57542003E9
Raw,2065345143,1599291000000,,,-1311985616708733208,0.0,8.215636940511828,,,0,7,0.0,16431,176001879729168,17,28.506372451782227,-97.78386289729087,0.17869862978163364,1,-165259.75690169362,0.0032466615084558725,1.56109798E9,,,,0,,5,,1.56109798E9
Raw,2065345144,1599291000000,,,-1311985616708733208,0.0,8.215636940511828,,,0,8,0.0,16431,176001878050463,8,34.47367858886719,-203.22000413922444,0.09136074564769475,1,-339312.16282561165,0.0017323991050943732,1.56109798E9,,,,0,,5,,1.56109798E9
Raw,2065345144,1599291000000,,,-1311985616708733208,0.0,8.215636940511828,,,0,10,0.0,16431,176001880320609,6,36.87333679199219,-162.56143987770736,0.07049902877905012,1,-234877.84150341156,0.0013142110547050834,1.56109798E9,,,,0,,5,,1.56109798E9
Raw,2065345144,1599291000000,,,-1311985616708733208,0.0,8.215636940511828,,,0,30,0.0,16431,176001924444480,6,43.68327331542969,-315.5797578465713,0.0313180580966928,1,-140237.99133600527,6.324804271571338E-4,1.56109798E9,,,,0,,5,,1.56109798E9
Raw,2065345145,1599291000000,,,-1311985616708733208,0.0,8.215636940511828,,,0,32,0.0,16431,176001913216581,16,29.373241424560547,-649.8419505659472,0.16089084580130575,1,-281309.9852292606,0.00293828290887177,1.56109798E9,,,,0,,5,,1.56109798E9
Raw,2065345145,1599291000000,,,-1311985616708733208,0.0,8.215636940511828,,,0,33,0.0,16431,176001910812240,22,26.406770706176758,28.679403033012846,0.22498849694547396,1,1587.1004010326876,0.0041344440542161465,1.56109798E9,,,,0,,5,,1.56109798E9
Raw,2065345145,1599291000000,,,-1311985616708733208,0.0,8.215636940511828,,,0,36,0.0,16431,176001920717471,6,41.92376708984375,-320.7190855481024,0.041098017331730796,1,-183592.2468453896,7.745015318505466E-4,1.56109798E9,,,,0,,5,,1.56109798E9
Fix,gps,34.486392,109.464191,357.589844,0.000000,2.000000,1627951998999
Raw,2065346140,1600291000000,,,-1311985616708733596,0.0,8.200617305545187,,,0,1,0.0,16431,176016925218274,37,27.932907104492188,500.62650197221365,0.18804261482001328,1,545246.1426714106,0.0034367202315479517,1.57542003E9,,,,0,,1,,1.57542003E9
Raw,2065346141,1600291000000,,,-1311985616708733596,0.0,8.200617305545187,,,0,2,0.0,16,1600014424364,1000000000,18.335546493530273,-693.7822123186761,2.99792458E8,2,-9.698750841134732,3.4028234663852886E38,1.57542003E9,,,,0,,1,,1.57542003E9
Raw,2065346141,1600291000000,,,-1311985616708733596,0.0,8.200617305545187,,,0,3,0.0,16431,176016925985340,29,30.116743087768555,-176.40762529360995,0.14658608266363848,1,-13035.10414579023,0.0026727125514298677,1.57542003E9,,,,0,,1,,1.57542003E9
Raw,2065346141,1600291000000,,,-1311985616708733596,0.0,8.200617305545187,,,0,6,0.0,16431,176016924558908,6,45.89249038696289,-642.2315425191427,0.030820034857483025,1,-594008.616487552,4.8598169814795256E-4,1.57542003E9,,,,0,,1,,1.57542003E9
Raw,2065346142,1600291000000,,,-1311985616708733596,0.0,8.200617305545187,,,0,14,0.0,16431,176016932456706,8,40.56541442871094,-68.35796459998011,0.045938271177721396,1,-242280.62826938406,8.513241773471236E-4,1.57542003E9,,,,0,,1,,1.57542003E9
Raw,2065346142,1600291000000,,,-1311985616708733596,0.0,8.200617305545187,,,0,17,0.0,16431,176016929489499,14,36.38273620605469,-187.66148202515933,0.07243497222011386,1,-84315.93958503804,0.0013779354048892856,1.57542003E9,,,,0,,1,,1.57542003E9
Raw,2065346142,1600291000000,,,-1311985616708733596,0.0,8.200617305545187,,,0,19,0.0,16431,176016927648278,11,38.65753936767578,-438.57925354261124,0.05580738066646676,1,-631773.233359166,0.0010604464914649725,1.57542003E9,,,,0,,1,,1.57542003E9
Raw,2065346143,1600291000000,,,-1311985616708733596,0.0,8.200617305545187,,,0,21,0.0,16431,176016915665467,42,26.973134994506836,474.571827258786,0.21178192780484784,4,544680.903442631,3.4028234663852886E38,1.57542003E9,,,,0,,1,,1.57542003E9
Raw,2065346143,1600291000000,,,-1311985616708733596,0.0,8.200617305545187,,,0,22,0.0,16431,176016922689680,61,22.57619857788086,153.55496328804384,4.200483833539636,4,23281.746376751464,3.4028234663852886E38,1.57542003E9,,,,0,,1,,1.57542003E9
Raw,2065346144,1600291000000,,,-1311985616708733596,0.0,8.200617305545187,,,0,24,0.0,16,1600016572295,1000000000,12.892364501953125,-388.5699969217785,2.99792458E8,2,-524294.2099265247,3.4028234663852886E38,1.57542003E9,,,,0,,1,,1.57542003E9
Raw,2065346144,1600291000000,,,-1311985616708733596,0.0,8.200617305545187,,,0,30,0.0,16431,176016921183046,16,35.335853576660156,487.5917687224344,0.08000043715604183,1,111067.09887805964,0.0015544367488473654,1.57542003E9,,,,0,,1,,1.57542003E9
Raw,2065346144,1600291000000,,,-1311985616708733596,0.0,8.200617305545187,,,0,10,0.0,16,1600001766092,1000000000,23.75031280517578,-849.4878467782223,2.99792458E8,2,-524288.8755885237,3.4028234663852886E38,1.59806246E9,,,,0,,3,,1.59806246E9
Raw,2065346145,1600291000000,,,-1311985616708733596,0.0,8.200617305545187,,,0,2,0.0,32995,13998920001011,88,26.596637725830078,-3.6259729051628824,0.22181866207060785,1,-244.16968826709652,0.003947315737605095,1.59975002E9,,,,0,,3,,1.59975002E9
Raw,2065346145,1600291000000,,,-1311985616708733596,0.0,8.200617305545187,,,0,18,0.0,17,984827,33,35.735538482666016,379.15144639152595,0.07763565054010685,4,3.02703146750207,3.4028234663852886E38,1.60031245E9,,,,0,,3,,1.60031245E9
Raw,2065346145,1600291000000,,,-1311985616708733596,0.0,8.200617305545187,,,0,9,0.0,32995,13998933100667,33,40.130340576171875,-371.9672394635393,0.048298647710170756,1,-587391.778774117,9.284669649787247E-4,1.59862502E9,,,,0,,3,,1.59862502E9
Raw,2065346145,1600291000000,,,-1311985616708733596,0.0,8.200617305545187,,,0,16,0.0,32995,13998932600811,39,33.600887298583984,391.849649465599,0.09969462186597428,1,9750.87675378089,0.0018672723090276122,1.60143744E9,,,,0,,3,,1.60143744E9
Raw,2065346146,1600291000000,,,-1311985616708733596,0.0,8.200617305545187,,,0,19,0.0,99,933176149,83,27.04495620727539,-14.521826448319892,0.20961339822493508,1,-87.55199677962236,0.003739540232345462,1.60368755E9,,,,0,,3,,1.60368755E9
Raw,2065346146,1600291000000,,,-1311985616708733596,0.0,8.200617305545187,,,0,3,0.0,32995,13998922404580,48,31.830848693847656,-500.5011126146662,0.11988246133619207,1,-737738.4788760858,0.0021538676228374243,1.60481254E9,,,,0,,3,,1.60481254E9
