# 
# Header Description:
# 
# Version: v2.0.0.1 Platform: 10 Manufacturer: HUAWEI Model: BLA-AL00
# 
# Raw,ElapsedRealtimeMillis,TimeNanos,LeapSecond,TimeUncertaintyNanos,FullBiasNanos,BiasNanos,BiasUncertaintyNanos,DriftNanosPerSecond,DriftUncertaintyNanosPerSecond,HardwareClockDiscontinuityCount,Svid,TimeOffsetNanos,State,ReceivedSvTimeNanos,ReceivedSvTimeUncertaintyNanos,Cn0DbHz,PseudorangeRateMetersPerSecond,PseudorangeRateUncertaintyMetersPerSecond,AccumulatedDeltaRangeState,AccumulatedDeltaRangeMeters,AccumulatedDeltaRangeUncertaintyMeters,CarrierFrequencyHz,CarrierCycles,CarrierPhase,CarrierPhaseUncertainty,MultipathIndicator,SnrInDb,ConstellationType,AgcDb,CarrierFrequencyHz
# 
# Fix,Provider,Latitude,Longitude,Altitude,Speed,Accuracy,(UTC)TimeInMs
# 
# Nav,Svid,Type,Status,MessageId,Sub-messageId,Data(Bytes)
# 
Fix,gps,34.486662,109.464183,358.632111,0.806186,6.000000,1627950427000
Raw,2063774125,28292000000,,,-1311985616708127097,0.0,7.988669944745936,,,0,1,0.0,16431,174444928648502,69,21.18133544921875,415.9904579154447,4.201555567035763,4,10844.154507770698,3.4028234663852886E38,1.57542003E9,,,,0,,1,,1.57542003E9
Raw,2063774125,28292000000,,,-1311985616708127097,0.0,7.988669944745936,,,0,3,0.0,16431,174444925566224,12,37.78354263305664,-363.5941682871239,0.06119494667530309,1,-9585.351397659875,0.0011727047385647893,1.57542003E9,,,,0,,1,,1.57542003E9
Raw,2063774126,28292000000,,,-1311985616708127097,0.0,7.988669944745936,,,0,6,0.0,16396,174444921942476,1000000000,7.990530014038086,-736.3514050104054,2.99792458E8,4,-17104.29787750452,3.4028234663852886E38,1.57542003E9,,,,1,,1,,1.57542003E9
Raw,2063774126,28292000000,,,-1311985616708127097,0.0,7.988669944745936,,,0,7,0.0,16431,174444918852285,41,27.11902618408203,561.6453463586968,0.20887461771105953,1,14117.229032343459,0.003774314885959029,1.57542003E9,,,,0,,1,,1.57542003E9
Raw,2063774126,28292000000,,,-1311985616708127097,0.0,7.988669944745936,,,0,14,0.0,16431,174444932668892,9,39.664329528808594,-231.7480938461972,0.050753167043669695,1,-6127.125203854393,9.443853050470352E-4,1.57542003E9,,,,0,,1,,1.57542003E9
Raw,2063774126,28292000000,,,-1311985616708127097,0.0,7.988669944745936,,,0,17,0.0,16431,174444929403013,9,40.36491394042969,-230.30715574932583,0.04640940122858114,1,-6066.759473499581,8.712043636478484E-4,1.57542003E9,,,,0,,1,,1.57542003E9
Raw,2063774127,28292000000,,,-1311985616708127097,0.0,7.988669944745936,,,0,19,0.0,16431,174444926221441,6,44.7192268371582,-490.20637029212526,0.0311190842828252,1,-12874.606398005259,5.562666920013726E-4,1.57542003E9,,,,0,,1,,1.57542003E9
Raw,2063774127,28292000000,,,-1311985616708127097,0.0,7.988669944745936,,,0,21,0.0,16431,174444919192807,21,32.71696472167969,482.2192488533742,0.11131723879498684,1,12127.360965985832,0.001981258625164628,1.57542003E9,,,,0,,1,,1.57542003E9
Raw,2063774127,28292000000,,,-1311985616708127097,0.0,7.988669944745936,,,0,22,0.0,16431,174444924040648,16,35.07233428955078,-24.725403525046175,0.08297220935693028,1,-684.3515435208345,0.0016023193020373583,1.57542003E9,,,,0,,1,,1.57542003E9
Raw,2063774128,28292000000,,,-1311985616708127097,0.0,7.988669944745936,,,0,24,0.0,16431,174444915143074,22,32.39625549316406,-536.646034911498,0.11464587827989636,1,-13558.608248498453,0.0021804843563586473,1.57542003E9,,,,0,,1,,1.57542003E9
Raw,2063774128,28292000000,,,-1311985616708127097,0.0,7.988669944745936,,,0,30,0.0,16,4618040,1000000000,9.098747253417969,428.8565511703491,2.99792458E8,4,5997.873315430628,3.4028234663852886E38,1.57542003E9,,,,1,,1,,1.57542003E9
Raw,2063774128,28292000000,,,-1311985616708127097,0.0,7.988669944745936,,,0,2,0.0,99,920406849,62,22.445968627929688,-223.96086601495244,4.20367080949371,4,-4787.924751552444,3.4028234663852886E38,1.59975002E9,,,,0,,3,,1.59975002E9
Raw,2063774128,28292000000,,,-1311985616708127097,0.0,7.988669944745936,,,0,18,0.0,99,930904385,124,23.594860076904297,344.4266718930867,0.310269875940947,4,6190.734660805772,3.4028234663852886E38,1.60031245E9,,,,0,,3,,1.60031245E9
Raw,2063774129,28292000000,,,-1311985616708127097,0.0,7.988669944745936,,,0,9,0.0,32995,12426931545630,33,37.303123474121094,-597.0865340932455,0.06569363123442037,1,-13890.330304493502,0.0012196872849017382,1.59862502E9,,,,0,,3,,1.59862502E9
Raw,2063774129,28292000000,,,-1311985616708127097,0.0,7.988669944745936,,,0,16,0.0,17,85232,166,17.234668731689453,151.05111266082383,4.200195197735958,4,2942.1225144607706,3.4028234663852886E38,1.60143744E9,,,,1,,3,,1.60143744E9
Raw,2063774129,28292000000,,,-1311985616708127097,0.0,7.988669944745936,,,0,15,0.0,32995,12426923920144,33,39.111289978027344,690.2481342369128,0.052366271571305634,1,13104.670483954354,9.897717973217368E-4,1.602E9,,,,0,,3,,1.602E9
Raw,2063774130,28292000000,,,-1311985616708127097,0.0,7.988669944745936,,,0,19,0.0,32995,12426933798742,51,31.255043029785156,-138.15533358628807,0.1301189557420261,1,-2804.0196534325846,0.0023031060118228197,1.60368755E9,,,,0,,3,,1.60368755E9
Raw,2063774130,28292000000,,,-1311985616708127097,0.0,7.988669944745936,,,0,3,0.0,51,425807,110,24.64136505126953,-627.0189062150994,0.27698695923316685,4,-10038.350673555427,3.4028234663852886E38,1.60481254E9,,,,0,,3,,1.60481254E9
Raw,2063774130,28292000000,,,-1311985616708127097,0.0,7.988669944745936,,,0,193,0.0,35,11388593,52,25.025409698486328,-180.39268244008304,0.2635401986399071,4,-4202.014220606486,3.4028234663852886E38,1.57542003E9,,,,0,,4,,1.57542003E9
Raw,2063774130,28292000000,,,-1311985616708127097,0.0,7.988669944745936,,,0,194,0.0,35,15918035,7,41.45307922363281,-181.31611251711206,0.042315745393512766,1,-4411.426290218929,8.101966814137995E-4,1.57542003E9,,,,0,,4,,1.57542003E9
Raw,2063774131,28292000000,,,-1311985616708127097,0.0,7.988669944745936,,,0,195,0.0,35,8312906,18,33.97603988647461,-99.95890302520706,0.09480490435719074,1,-2430.0224575560146,0.0018178739119321108,1.57542003E9,,,,0,,4,,1.57542003E9
Fix,gps,34.486663,109.464184,358.853302,0.944720,4.000000,1627950428000
Raw,2063775115,29292000000,,,-1311985616708127488,0.0,7.112203544159222,,,0,1,0.0,16431,174445928647058,60,23.7999267578125,416.1981223230382,0.30267022037663716,4,11260.047979128833,3.4028234663852886E38,1.57542003E9,,,,0,,1,,1.57542003E9
Raw,2063775115,29292000000,,,-1311985616708127488,0.0,7.112203544159222,,,0,3,0.0,16431,174445925567456,16,35.117881774902344,-363.7459715484765,0.08281669982813272,1,-9948.913989962337,0.0015939389122650027,1.57542003E9,,,,0,,1,,1.57542003E9
Raw,2063775116,29292000000,,,-1311985616708127488,0.0,7.112203544159222,,,0,6,0.0,16396,174445921944912,1000000000,8.970842361450195,-735.9864500659592,2.99792458E8,4,-17839.20240441095,3.4028234663852886E38,1.57542003E9,,,,1,,1,,1.57542003E9
Raw,2063775116,29292000000,,,-1311985616708127488,0.0,7.112203544159222,,,0,7,0.0,16431,174445918850458,46,26.235370635986328,561.2420145682058,0.23087945318191294,1,14678.730565496699,0.004178504925221205,1.57542003E9,,,,0,,1,,1.57542003E9
Raw,2063775116,29292000000,,,-1311985616708127488,0.0,7.112203544159222,,,0,14,0.0,16431,174445932669653,8,40.67851257324219,-231.54589967287563,0.045411278682558454,1,-6358.786602312883,8.403112879022956E-4,1.57542003E9,,,,0,,1,,1.57542003E9
Raw,2063775116,29292000000,,,-1311985616708127488,0.0,7.112203544159222,,,0,17,0.0,16431,174445929403825,10,38.72981262207031,-230.17253004606073,0.055672124238054094,1,-6297.061299734205,0.0010516593465581536,1.57542003E9,,,,0,,1,,1.57542003E9
Raw,2063775117,29292000000,,,-1311985616708127488,0.0,7.112203544159222,,,0,19,0.0,16431,174445926223070,6,45.72770690917969,-489.91769188537705,0.031119377594981554,1,-13364.74110478454,4.952895687893033E-4,1.57542003E9,,,,0,,1,,1.57542003E9
Raw,2063775117,29292000000,,,-1311985616708127488,0.0,7.112203544159222,,,0,21,0.0,16431,174445919191197,20,33.216068267822266,482.28996995065904,0.10529357232927972,1,12609.56124767876,0.0019840942695736885,1.57542003E9,,,,0,,1,,1.57542003E9
Raw,2063775117,29292000000,,,-1311985616708127488,0.0,7.112203544159222,,,0,22,0.0,16431,174445924040741,23,32.128910064697266,-24.413067633164076,0.11614729536303098,4,-709.1236372515916,3.4028234663852886E38,1.57542003E9,,,,0,,1,,1.57542003E9
Raw,2063775117,29292000000,,,-1311985616708127488,0.0,7.112203544159222,,,0,24,0.0,16431,174445915144862,23,32.21183776855469,-536.2771604845516,0.11704793426174093,1,-14095.202352455071,0.002099894918501377,1.57542003E9,,,,0,,1,,1.57542003E9
Raw,2063775118,29292000000,,,-1311985616708127488,0.0,7.112203544159222,,,0,30,0.0,16,4616622,1000000000,8.238523483276367,428.8565511703491,2.99792458E8,4,6427.6796935845305,3.4028234663852886E38,1.57542003E9,,,,1,,1,,1.57542003E9
Raw,2063775118,29292000000,,,-1311985616708127488,0.0,7.112203544159222,,,0,2,0.0,99,1920407475,62,22.549335479736328,-223.69580675057455,4.20367080949371,4,-5010.981453623291,3.4028234663852886E38,1.59975002E9,,,,0,,3,,1.59975002E9
Raw,2063775119,29292000000,,,-1311985616708127488,0.0,7.112203544159222,,,0,18,0.0,99,1930902948,128,23.358448028564453,343.96182126857207,0.31877637780449564,4,6534.201048763593,3.4028234663852886E38,1.60031245E9,,,,0,,3,,1.60031245E9
Raw,2063775119,29292000000,,,-1311985616708127488,0.0,7.112203544159222,,,0,9,0.0,32995,12427931547680,33,36.975608825683594,-596.7687492686268,0.06813858983975898,1,-14487.310804762325,0.0012665556278079748,1.59862502E9,,,,0,,3,,1.59862502E9
Raw,2063775119,29292000000,,,-1311985616708127488,0.0,7.112203544159222,,,0,16,0.0,17,84743,166,12.223928451538086,151.25281263852582,4.200195197735958,4,3092.673931873438,3.4028234663852886E38,1.60143744E9,,,,1,,3,,1.60143744E9
Raw,2063775119,29292000000,,,-1311985616708127488,0.0,7.112203544159222,,,0,15,0.0,32995,12427923917850,33,41.264434814453125,690.0158282132534,0.04102344947671879,1,13794.906714509712,8.142478764057159E-4,1.602E9,,,,0,,3,,1.602E9
Raw,2063775119,29292000000,,,-1311985616708127488,0.0,7.112203544159222,,,0,19,0.0,32995,12427933799284,54,30.80813980102539,-137.86468691767567,0.13685804592095946,1,-2942.063179959439,0.0024247062392532825,1.60368755E9,,,,0,,3,,1.60368755E9
Raw,2063775120,29292000000,,,-1311985616708127488,0.0,7.112203544159222,,,0,3,0.0,51,427808,102,25.315900802612305,-626.909297034922,0.256565443584597,4,-10665.141847765997,3.4028234663852886E38,1.60481254E9,,,,0,,3,,1.60481254E9
Raw,2063775120,29292000000,,,-1311985616708127488,0.0,7.112203544159222,,,0,193,0.0,35,11389161,60,23.834930419921875,-179.65045174315753,0.30195235863612546,4,-4382.157119190204,3.4028234663852886E38,1.57542003E9,,,,0,,4,,1.57542003E9
Raw,2063775120,29292000000,,,-1311985616708127488,0.0,7.112203544159222,,,0,194,0.0,35,15918655,7,42.01495361328125,-181.49908418495477,0.03984455095189085,1,-4592.732578362026,7.594460039399564E-4,1.57542003E9,,,,0,,4,,1.57542003E9
Raw,2063775120,29292000000,,,-1311985616708127488,0.0,7.112203544159222,,,0,195,0.0,35,8313223,25,31.366802215576172,-99.96252428621261,0.12750048115380902,1,-2529.8855518838172,0.0023144586011767387,1.57542003E9,,,,0,,4,,1.57542003E9
Fix,gps,34.486664,109.464185,359.160034,0.871318,4.000000,1627950429000
Raw,2063776151,30292000000,,,-1311985616708127881,0.0,6.72008418606237,,,0,1,0.0,16431,174446928645764,44,26.50357437133789,415.9771316749443,0.22212680209256896,4,11675.951732779975,3.4028234663852886E38,1.57542003E9,,,,0,,1,,1.57542003E9
Raw,2063776152,30292000000,,,-1311985616708127881,0.0,6.72008418606237,,,0,3,0.0,16431,174446925568676,15,35.728660583496094,-363.2745770923095,0.07726142583315937,1,-10312.299351592033,0.0014857056085020304,1.57542003E9,,,,0,,1,,1.57542003E9
Raw,2063776153,30292000000,,,-1311985616708127881,0.0,6.72008418606237,,,0,6,0.0,16396,174446921947406,1000000000,8.110626220703125,-736.5511963705421,2.99792458E8,4,-18577.065587806454,3.4028234663852886E38,1.57542003E9,,,,1,,1,,1.57542003E9
Raw,2063776154,30292000000,,,-1311985616708127881,0.0,6.72008418606237,,,0,7,0.0,16431,174446918848608,46,26.140220642089844,561.5391454241717,0.23338484657282899,1,15240.152437440212,0.004224530421197414,1.57542003E9,,,,0,,1,,1.57542003E9
Raw,2063776154,30292000000,,,-1311985616708127881,0.0,6.72008418606237,,,0,14,0.0,16431,174446932670441,9,39.7124137878418,-231.46655571409053,0.050485824454406664,1,-6590.293309670798,9.391717030666769E-4,1.57542003E9,,,,0,,1,,1.57542003E9
Raw,2063776155,30292000000,,,-1311985616708127881,0.0,6.72008418606237,,,0,17,0.0,16431,174446929404573,13,36.665367126464844,-230.34384551377264,0.07015527525271459,1,-6527.243247322353,0.001333820284344256,1.57542003E9,,,,0,,1,,1.57542003E9
Raw,2063776156,30292000000,,,-1311985616708127881,0.0,6.72008418606237,,,0,19,0.0,16431,174446926224718,6,47.05103302001953,-490.1169379262094,0.031119672987365968,1,-13854.800557556904,4.252974467817694E-4,1.57542003E9,,,,0,,1,,1.57542003E9
Raw,2063776157,30292000000,,,-1311985616708127881,0.0,6.72008418606237,,,0,21,0.0,16431,174446919189535,15,35.44525146484375,482.38802517807517,0.08224075956673554,1,13091.908184580785,0.0015349815366789699,1.57542003E9,,,,0,,1,,1.57542003E9
Raw,2063776158,30292000000,,,-1311985616708127881,0.0,6.72008418606237,,,0,22,0.0,16431,174446924040725,39,27.545677185058594,-24.913606849965134,0.19636093093240958,4,-733.6882242130163,3.4028234663852886E38,1.57542003E9,,,,0,,1,,1.57542003E9
Raw,2063776159,30292000000,,,-1311985616708127881,0.0,6.72008418606237,,,0,24,0.0,16431,174446915146656,26,30.994524002075195,-536.4627053778618,0.1342476426176123,1,-14631.59318773531,0.0024158123414963484,1.57542003E9,,,,0,,1,,1.57542003E9
Raw,2063776159,30292000000,,,-1311985616708127881,0.0,6.72008418606237,,,0,30,0.0,16,4615191,1000000000,7.3783416748046875,429.04219831102887,2.99792458E8,4,6855.6052446366175,3.4028234663852886E38,1.57542003E9,,,,1,,1,,1.57542003E9
Raw,2063776160,30292000000,,,-1311985616708127881,0.0,6.72008418606237,,,0,2,0.0,99,920408010,60,22.909082412719727,-223.88840671238495,4.20367080949371,4,-5234.867868624018,3.4028234663852886E38,1.59975002E9,,,,0,,3,,1.59975002E9
Raw,2063776161,30292000000,,,-1311985616708127881,0.0,6.72008418606237,,,0,18,0.0,99,930901960,97,25.733938217163086,344.6749285063988,0.24296902306384227,4,6878.849558511268,3.4028234663852886E38,1.60031245E9,,,,0,,3,,1.60031245E9
Raw,2063776162,30292000000,,,-1311985616708127881,0.0,6.72008418606237,,,0,9,0.0,32995,12428931549605,40,33.33331298828125,-596.0641967273873,0.10255356249692882,4,-15083.8958165886,3.4028234663852886E38,1.59862502E9,,,,0,,3,,1.59862502E9
Raw,2063776163,30292000000,,,-1311985616708127881,0.0,6.72008418606237,,,0,16,0.0,17,84183,166,15.683996200561523,151.04284766511705,4.200194931466767,4,3243.0267936053174,3.4028234663852886E38,1.60143744E9,,,,1,,3,,1.60143744E9
Raw,2063776164,30292000000,,,-1311985616708127881,0.0,6.72008418606237,,,0,15,0.0,32995,12428923915535,33,41.87826156616211,690.3431561256984,0.03827207743870825,1,14485.123015702315,7.58691574446857E-4,1.602E9,,,,0,,3,,1.602E9
Raw,2063776165,30292000000,,,-1311985616708127881,0.0,6.72008418606237,,,0,19,0.0,32995,12428933799742,75,27.98638153076172,-137.9101784765195,0.1884378248676225,1,-3079.987086834184,0.003355420660227537,1.60368755E9,,,,0,,3,,1.60368755E9
Raw,2063776165,30292000000,,,-1311985616708127881,0.0,6.72008418606237,,,0,3,0.0,51,429937,130,23.231369018554688,-626.2074029252913,0.3251592497305624,4,-11291.613553719832,3.4028234663852886E38,1.60481254E9,,,,0,,3,,1.60481254E9
Raw,2063776165,30292000000,,,-1311985616708127881,0.0,6.72008418606237,,,0,193,0.0,35,11389746,53,24.852161407470703,-180.33204974992896,0.26880845108817686,4,-4562.534464552897,3.4028234663852886E38,1.57542003E9,,,,0,,4,,1.57542003E9
Raw,2063776166,30292000000,,,-1311985616708127881,0.0,6.72008418606237,,,0,194,0.0,35,15919231,7,42.127525329589844,-181.2015102570541,0.03936844915596949,1,-4774.033343978496,7.496668258681893E-4,1.57542003E9,,,,0,,4,,1.57542003E9
Raw,2063776166,30292000000,,,-1311985616708127881,0.0,6.72008418606237,,,0,195,0.0,35,8313548,27,30.822553634643555,-99.82973903559974,0.1356485014763626,1,-2629.665219611934,0.002464119577780366,1.57542003E9,,,,0,,4,,1.57542003E9
Fix,gps,34.486665,109.464185,359.465118,0.723354,4.000000,1627950430000
Raw,2063777097,31292000000,,,-1311985616708128274,0.0,6.488225430544292,,,0,1,0.0,16431,174447928644284,46,26.176441192626953,416.0366055615766,0.2305922818587891,4,12091.976226315583,3.4028234663852886E38,1.57542003E9,,,,0,,1,,1.57542003E9
Raw,2063777098,31292000000,,,-1311985616708128274,0.0,6.488225430544292,,,0,3,0.0,16431,174447925569879,14,36.20555877685547,-363.1978915651332,0.07318744895553153,1,-10675.517786923681,0.001406331779435277,1.57542003E9,,,,0,,1,,1.57542003E9
Raw,2063777099,31292000000,,,-1311985616708128274,0.0,6.488225430544292,,,0,6,0.0,16396,174447921949800,1000000000,7.25041389465332,-736.2963959255776,2.99792458E8,4,-19312.123000816468,3.4028234663852886E38,1.57542003E9,,,,1,,1,,1.57542003E9
Raw,2063777099,31292000000,,,-1311985616708128274,0.0,6.488225430544292,,,0,7,0.0,16431,174447918846734,49,25.626493453979492,561.5773518579338,0.24739786188564206,1,15801.687879135734,0.004481927957385778,1.57542003E9,,,,0,,1,,1.57542003E9
Raw,2063777100,31292000000,,,-1311985616708128274,0.0,6.488225430544292,,,0,14,0.0,16431,174447932671224,9,39.66864013671875,-231.36821078579396,0.050729535652916574,1,-6821.7117632457375,9.439167333766818E-4,1.57542003E9,,,,0,,1,,1.57542003E9
Raw,2063777100,31292000000,,,-1311985616708128274,0.0,6.488225430544292,,,0,17,0.0,16431,174447929405300,15,35.49200439453125,-230.20233515428993,0.08005785977138946,1,-6757.422813874511,0.001526741310954094,1.57542003E9,,,,0,,1,,1.57542003E9
Raw,2063777101,31292000000,,,-1311985616708128274,0.0,6.488225430544292,,,0,19,0.0,16431,174447926226347,6,45.43780517578125,-490.0355149375764,0.031119966299522323,1,-14344.880048338817,5.120994755998254E-4,1.57542003E9,,,,0,,1,,1.57542003E9
Raw,2063777101,31292000000,,,-1311985616708128274,0.0,6.488225430544292,,,0,21,0.0,16431,174447919187946,14,36.14480209350586,482.34603559163907,0.0761437359387469,1,13574.2613763262,0.0014162033330649137,1.57542003E9,,,,0,,1,,1.57542003E9
Raw,2063777102,31292000000,,,-1311985616708128274,0.0,6.488225430544292,,,0,22,0.0,16431,174447924040936,32,29.22743034362793,-24.301647822483943,0.16192383713005765,4,-758.1017083459006,3.4028234663852886E38,1.57542003E9,,,,0,,1,,1.57542003E9
Raw,2063777102,31292000000,,,-1311985616708128274,0.0,6.488225430544292,,,0,24,0.0,16431,174447915148424,30,29.751771926879883,-536.4299862195999,0.15447870090598914,1,-15167.996918003357,0.0027874098159372807,1.57542003E9,,,,0,,1,,1.57542003E9
Raw,2063777103,31292000000,,,-1311985616708128274,0.0,6.488225430544292,,,0,30,0.0,16,4613760,1000000000,7.0,428.8565511703491,2.99792458E8,4,7284.7563020112775,3.4028234663852886E38,1.57542003E9,,,,0,,1,,1.57542003E9
Raw,2063777103,31292000000,,,-1311985616708128274,0.0,6.488225430544292,,,0,2,0.0,99,1920408736,115,24.29193878173828,-223.38407156198866,0.2882032160921726,4,-5458.463867959498,3.4028234663852886E38,1.59975002E9,,,,0,,3,,1.59975002E9
Raw,2063777104,31292000000,,,-1311985616708128274,0.0,6.488225430544292,,,0,18,0.0,99,1930900759,103,25.23143768310547,345.24182200574273,0.2573228962255324,4,7223.511827239205,3.4028234663852886E38,1.60031245E9,,,,0,,3,,1.60031245E9
Raw,2063777104,31292000000,,,-1311985616708128274,0.0,6.488225430544292,,,0,9,0.0,32995,12429931551516,34,34.66050338745117,-596.5130626797927,0.08831673960767678,4,-15680.544456263386,3.4028234663852886E38,1.59862502E9,,,,0,,3,,1.59862502E9
Raw,2063777105,31292000000,,,-1311985616708128274,0.0,6.488225430544292,,,0,16,0.0,17,83620,166,17.150497436523438,150.94918907459237,4.200194931466767,4,3393.375091831544,3.4028234663852886E38,1.60143744E9,,,,1,,3,,1.60143744E9
Raw,2063777105,31292000000,,,-1311985616708128274,0.0,6.488225430544292,,,0,15,0.0,32995,12429923913241,33,41.33354949951172,690.4613540849195,0.04070306939285703,1,15175.514494132007,8.077942184172571E-4,1.602E9,,,,0,,3,,1.602E9
Raw,2063777106,31292000000,,,-1311985616708128274,0.0,6.488225430544292,,,0,19,0.0,32995,12429933800098,71,28.474143981933594,-137.84402442840872,0.17828323320093742,1,-3217.826358298129,0.003172186901792884,1.60368755E9,,,,0,,3,,1.60368755E9
Raw,2063777106,31292000000,,,-1311985616708128274,0.0,6.488225430544292,,,0,3,0.0,51,431997,70,20.967418670654297,-626.2629573294234,4.203675336069967,4,-11918.063819330153,3.4028234663852886E38,1.60481254E9,,,,0,,3,,1.60481254E9
Raw,2063777107,31292000000,,,-1311985616708128274,0.0,6.488225430544292,,,0,193,0.0,35,11390449,53,24.874496459960938,-180.21001751434903,0.2681235068764748,4,-4742.800216272123,3.4028234663852886E38,1.57542003E9,,,,0,,4,,1.57542003E9
Raw,2063777107,31292000000,,,-1311985616708128274,0.0,6.488225430544292,,,0,194,0.0,35,15919829,6,43.70927810668945,-181.15079556174817,0.03329095470900112,1,-4955.218436690876,6.248569115996361E-4,1.57542003E9,,,,0,,4,,1.57542003E9
Raw,2063777107,31292000000,,,-1311985616708128274,0.0,6.488225430544292,,,0,195,0.0,35,8313879,26,30.991689682006836,-99.74225789031982,0.13306152986187486,1,-2729.429968924841,0.002416600938886404,1.57542003E9,,,,0,,4,,1.57542003E9
Fix,gps,34.486666,109.464185,359.743652,0.621565,4.000000,1627950431000
Raw,2063778150,32292000000,,,-1311985616708128668,0.0,6.3056640181637045,,,0,1,0.0,16431,174448928642899,44,26.47469711303711,416.15367879973246,0.2228608563282939,4,12508.072540346675,3.4028234663852886E38,1.57542003E9,,,,0,,1,,1.57542003E9
Raw,2063778151,32292000000,,,-1311985616708128668,0.0,6.3056640181637045,,,0,3,0.0,16431,174448925571086,16,34.92225646972656,-363.1781578228065,0.08468090868480116,1,-11038.645145260274,0.0016302451258525252,1.57542003E9,,,,0,,1,,1.57542003E9
Raw,2063778152,32292000000,,,-1311985616708128668,0.0,6.3056640181637045,,,0,6,0.0,16396,174448921952255,1000000000,7.0,-735.9252379740442,2.99792458E8,4,-20047.974006780674,3.4028234663852886E38,1.57542003E9,,,,1,,1,,1.57542003E9
Raw,2063778153,32292000000,,,-1311985616708128668,0.0,6.3056640181637045,,,0,7,0.0,16431,174448918844841,40,27.311771392822266,561.4297407387335,0.20436368476912936,1,16363.21223902691,0.003691483521834016,1.57542003E9,,,,0,,1,,1.57542003E9
Raw,2063778154,32292000000,,,-1311985616708128668,0.0,6.3056640181637045,,,0,14,0.0,16431,174448932671992,8,40.4659423828125,-231.2553808134752,0.04648029956129662,1,-7052.998833749182,8.611298399046063E-4,1.57542003E9,,,,0,,1,,1.57542003E9
Raw,2063778154,32292000000,,,-1311985616708128668,0.0,6.3056640181637045,,,0,17,0.0,16431,174448929406116,12,37.7312126159668,-230.0808823204709,0.06224939347625813,1,-6987.529750337389,0.0011797909392043948,1.57542003E9,,,,0,,1,,1.57542003E9
Raw,2063778155,32292000000,,,-1311985616708128668,0.0,6.3056640181637045,,,0,19,0.0,16431,174448926227992,6,45.50925827026367,-489.9321428469427,0.031120261691906737,1,-14834.84620347109,5.079039838165045E-4,1.57542003E9,,,,0,,1,,1.57542003E9
Raw,2063778156,32292000000,,,-1311985616708128668,0.0,6.3056640181637045,,,0,21,0.0,16431,174448919186352,19,33.65796661376953,482.20704733393904,0.10024107281440348,1,14056.584011511372,0.0018856776878237724,1.57542003E9,,,,0,,1,,1.57542003E9
Raw,2063778157,32292000000,,,-1311985616708128668,0.0,6.3056640181637045,,,0,22,0.0,16431,174448924040969,43,26.792964935302734,-24.283952637088007,0.21407071120840993,4,-782.4299560450974,3.4028234663852886E38,1.57542003E9,,,,0,,1,,1.57542003E9
Raw,2063778159,32292000000,,,-1311985616708128668,0.0,6.3056640181637045,,,0,24,0.0,16431,174448915150195,32,29.24222755432129,-536.1752539395484,0.1636477304436733,1,-15704.231615359082,0.0029558208771049976,1.57542003E9,,,,0,,1,,1.57542003E9
Raw,2063778159,32292000000,,,-1311985616708128668,0.0,6.3056640181637045,,,0,30,0.0,16,4612266,1000000000,7.0,429.2278454517086,2.99792458E8,4,7714.24444930458,3.4028234663852886E38,1.57542003E9,,,,0,,1,,1.57542003E9
Raw,2063778160,32292000000,,,-1311985616708128668,0.0,6.3056640181637045,,,0,2,0.0,99,920409614,116,24.205684661865234,-223.53720403914565,0.2910430435877187,4,-5681.931145372244,3.4028234663852886E38,1.59975002E9,,,,0,,3,,1.59975002E9
Raw,2063778160,32292000000,,,-1311985616708128668,0.0,6.3056640181637045,,,0,18,0.0,99,930899725,120,23.867416381835938,345.060673749324,0.30074476128499206,4,7568.272563052629,3.4028234663852886E38,1.60031245E9,,,,0,,3,,1.60031245E9
Raw,2063778160,32292000000,,,-1311985616708128668,0.0,6.3056640181637045,,,0,9,0.0,32995,12430931553610,41,33.05644226074219,-596.4198130787463,0.10580866175948761,4,-16277.006564332361,3.4028234663852886E38,1.59862502E9,,,,0,,3,,1.59862502E9
Raw,2063778161,32292000000,,,-1311985616708128668,0.0,6.3056640181637045,,,0,16,0.0,17,82983,166,16.170825958251953,150.6752002066055,4.200194931466767,4,3544.02980123313,3.4028234663852886E38,1.60143744E9,,,,1,,3,,1.60143744E9
Raw,2063778162,32292000000,,,-1311985616708128668,0.0,6.3056640181637045,,,0,15,0.0,32995,12430923910928,33,41.667335510253906,690.3632647750469,0.039194696027092274,1,15865.927935693915,7.773407269269228E-4,1.602E9,,,,0,,3,,1.602E9
Raw,2063778162,32292000000,,,-1311985616708128668,0.0,6.3056640181637045,,,0,19,0.0,32995,12430933800562,70,28.528095245361328,-137.57485822801982,0.17719474138756464,1,-3355.502504510067,0.0031525450758635998,1.60368755E9,,,,0,,3,,1.60368755E9
Raw,2063778163,32292000000,,,-1311985616708128668,0.0,6.3056640181637045,,,0,3,0.0,51,434154,70,20.850830078125,-626.3960834046015,4.203675602339159,4,-12544.504449358748,3.4028234663852886E38,1.60481254E9,,,,0,,3,,1.60481254E9
Raw,2063778163,32292000000,,,-1311985616708128668,0.0,6.3056640181637045,,,0,193,0.0,35,11391011,44,26.493682861328125,-180.38888224618074,0.22287190649974464,4,-4923.070719336419,3.4028234663852886E38,1.57542003E9,,,,0,,4,,1.57542003E9
Raw,2063778163,32292000000,,,-1311985616708128668,0.0,6.3056640181637045,,,0,194,0.0,35,15920451,6,42.73550033569336,-181.23097454071808,0.03690086182980232,1,-5136.392073323207,6.989875691942871E-4,1.57542003E9,,,,0,,4,,1.57542003E9
Raw,2063778164,32292000000,,,-1311985616708128668,0.0,6.3056640181637045,,,0,195,0.0,35,8314251,27,30.791297912597656,-99.81594416132214,0.13613222938834918,1,-2829.213284773687,0.0024730029981583357,1.57542003E9,,,,0,,4,,1.57542003E9
Fix,gps,34.486667,109.464185,359.970734,0.429533,4.000000,1627950432000
Raw,2063779122,33292000000,,,-1311985616708129062,0.0,6.1584758104681345,,,0,1,0.0,16431,174449928641615,44,26.479516983032227,416.32562479289004,0.2227378233199574,4,12924.282282067572,3.4028234663852886E38,1.57542003E9,,,,0,,1,,1.57542003E9
Raw,2063779122,33292000000,,,-1311985616708129062,0.0,6.1584758104681345,,,0,3,0.0,16431,174449925572318,22,32.49059295654297,-362.80737477829484,0.11171536948279126,1,-11401.611133243681,0.0021569302771240473,1.57542003E9,,,,0,,1,,1.57542003E9
Raw,2063779123,33292000000,,,-1311985616708129062,0.0,6.1584758104681345,,,0,6,0.0,16396,174449921954710,1000000000,7.0,-735.9253743038703,2.99792458E8,4,-20784.047962327804,3.4028234663852886E38,1.57542003E9,,,,0,,1,,1.57542003E9
Raw,2063779123,33292000000,,,-1311985616708129062,0.0,6.1584758104681345,,,0,7,0.0,16431,174449918842992,40,27.330039978027344,561.6462665850229,0.20394111556208483,1,16924.753972873306,0.003683726768940687,1.57542003E9,,,,0,,1,,1.57542003E9
Raw,2063779123,33292000000,,,-1311985616708129062,0.0,6.1584758104681345,,,0,14,0.0,16431,174449932672741,8,40.41676330566406,-231.08929700283954,0.04673140805078524,1,-7284.165437143521,8.660191670060158E-4,1.57542003E9,,,,0,,1,,1.57542003E9
Raw,2063779124,33292000000,,,-1311985616708129062,0.0,6.1584758104681345,,,0,17,0.0,16431,174449929406873,9,39.822086334228516,-230.0446697104154,0.04929393698557674,1,-7217.606489731935,9.2738785315305E-4,1.57542003E9,,,,0,,1,,1.57542003E9
Raw,2063779124,33292000000,,,-1311985616708129062,0.0,6.1584758104681345,,,0,19,0.0,16431,174449926229611,6,44.66667175292969,-489.90232069748527,0.031120552923835032,1,-15324.775740054632,5.596427363343537E-4,1.57542003E9,,,,0,,1,,1.57542003E9
Raw,2063779128,33292000000,,,-1311985616708129062,0.0,6.1584758104681345,,,0,21,0.0,16431,174449919184792,26,30.964223861694336,482.4397623470768,0.1354336388805784,1,14538.980848027928,0.0024242547806352377,1.57542003E9,,,,0,,1,,1.57542003E9
Raw,2063779128,33292000000,,,-1311985616708129062,0.0,6.1584758104681345,,,0,22,0.0,16431,174449924041103,51,25.23089599609375,-23.920870097596975,0.25610493101775167,4,-806.5356775803635,3.4028234663852886E38,1.57542003E9,,,,0,,1,,1.57542003E9
Raw,2063779129,33292000000,,,-1311985616708129062,0.0,6.1584758104681345,,,0,24,0.0,16431,174449915151994,32,29.153154373168945,-536.1834337291139,0.16530680385096264,1,-16240.381636828106,0.002986288396641612,1.57542003E9,,,,0,,1,,1.57542003E9
Raw,2063779129,33292000000,,,-1311985616708129062,0.0,6.1584758104681345,,,0,30,0.0,16,4610895,1000000000,7.0,429.41349259238837,2.99792458E8,4,8143.51056376322,3.4028234663852886E38,1.57542003E9,,,,0,,1,,1.57542003E9
Raw,2063779130,33292000000,,,-1311985616708129062,0.0,6.1584758104681345,,,0,2,0.0,99,1920410307,62,22.52334976196289,-222.83357172423223,4.203671342032093,4,-5905.21476290898,3.4028234663852886E38,1.59975002E9,,,,0,,3,,1.59975002E9
Raw,2063779130,33292000000,,,-1311985616708129062,0.0,6.1584758104681345,,,0,18,0.0,99,1930898483,76,19.739505767822266,345.1321105781958,4.201960562476163,4,7914.3435646142325,3.4028234663852886E38,1.60031245E9,,,,0,,3,,1.60031245E9
Raw,2063779130,33292000000,,,-1311985616708129062,0.0,6.1584758104681345,,,0,9,0.0,32995,12431931555579,33,36.74283218383789,-596.2677371577415,0.06993433839099739,4,-16873.361826201544,3.4028234663852886E38,1.59862502E9,,,,0,,3,,1.59862502E9
Raw,2063779131,33292000000,,,-1311985616708129062,0.0,6.1584758104681345,,,0,16,0.0,17,82503,166,14.872411727905273,150.72857333352022,4.200194665197575,4,3695.4240192649786,3.4028234663852886E38,1.60143744E9,,,,1,,3,,1.60143744E9
Raw,2063779131,33292000000,,,-1311985616708129062,0.0,6.1584758104681345,,,0,15,0.0,32995,12431923908630,33,42.118431091308594,690.5833011143582,0.03724630866177808,1,16556.421858917063,7.380007882602513E-4,1.602E9,,,,0,,3,,1.602E9
Raw,2063779131,33292000000,,,-1311985616708129062,0.0,6.1584758104681345,,,0,19,0.0,32995,12431933801034,62,29.576082229614258,-137.54363869784493,0.15733713396129723,1,-3493.1128431519082,0.002794228494167328,1.60368755E9,,,,0,,3,,1.60368755E9
Raw,2063779132,33292000000,,,-1311985616708129062,0.0,6.1584758104681345,,,0,3,0.0,51,436153,84,18.218738555908203,-626.1406013105066,4.20367586860835,4,-13170.890789637026,3.4028234663852886E38,1.60481254E9,,,,0,,3,,1.60481254E9
Raw,2063779132,33292000000,,,-1311985616708129062,0.0,6.1584758104681345,,,0,193,0.0,35,11391641,36,28.22568702697754,-180.09212629723663,0.1829513315332003,4,-5103.298654677112,3.4028234663852886E38,1.57542003E9,,,,0,,4,,1.57542003E9
Raw,2063779133,33292000000,,,-1311985616708129062,0.0,6.1584758104681345,,,0,194,0.0,35,15921038,8,40.78033447265625,-181.0414079175382,0.04549344353044285,1,-5317.510469761118,8.754426962696016E-4,1.57542003E9,,,,0,,4,,1.57542003E9
Raw,2063779133,33292000000,,,-1311985616708129062,0.0,6.1584758104681345,,,0,195,0.0,35,8314594,29,30.057205200195312,-99.7262135739117,0.14800587991864023,1,-2928.9896046269487,0.002691095694899559,1.57542003E9,,,,0,,4,,1.57542003E9
Fix,gps,34.486667,109.464186,360.160065,0.296404,4.000000,1627950433000
Raw,2063780127,34292000000,,,-1311985616708129456,0.0,6.034708165091218,,,0,1,0.0,16431,174450928640214,48,25.763370513916016,416.2878955135193,0.24174689739994304,1,13340.580124802538,0.004411851987242699,1.57542003E9,,,,0,,1,,1.57542003E9
Raw,2063780128,34292000000,,,-1311985616708129456,0.0,6.034708165091218,,,0,3,0.0,16431,174450925573496,19,33.81523513793945,-362.8296987873173,0.09605568724283425,1,-11764.415235802622,0.0018518420401960611,1.57542003E9,,,,0,,1,,1.57542003E9
Raw,2063780128,34292000000,,,-1311985616708129456,0.0,6.034708165091218,,,0,6,0.0,16396,174450921957164,1000000000,7.617151260375977,-735.739624915821,2.99792458E8,4,-21519.825223330852,3.4028234663852886E38,1.57542003E9,,,,1,,1,,1.57542003E9
Raw,2063780129,34292000000,,,-1311985616708129456,0.0,6.034708165091218,,,0,7,0.0,16431,174450918841066,34,28.845232009887695,561.4942247464746,0.17183742189470985,1,17486.289060805633,0.003094053827226162,1.57542003E9,,,,0,,1,,1.57542003E9
Raw,2063780129,34292000000,,,-1311985616708129456,0.0,6.034708165091218,,,0,14,0.0,16431,174450932673521,8,40.5281982421875,-231.05468626824063,0.046164903703864835,1,-7515.229342502517,8.549797930754721E-4,1.57542003E9,,,,0,,1,,1.57542003E9
Raw,2063780129,34292000000,,,-1311985616708129456,0.0,6.034708165091218,,,0,17,0.0,16431,174450929407649,9,40.25310134887695,-230.11225522170014,0.04698960179704367,1,-7447.665959169384,8.824918186292052E-4,1.57542003E9,,,,0,,1,,1.57542003E9
Raw,2063780130,34292000000,,,-1311985616708129456,0.0,6.034708165091218,,,0,19,0.0,16431,174450926231245,6,44.92974090576172,-490.0165650917497,0.031120846235991387,1,-15814.716440861797,5.429468583315611E-4,1.57542003E9,,,,0,,1,,1.57542003E9
Raw,2063780131,34292000000,,,-1311985616708129456,0.0,6.034708165091218,,,0,21,0.0,16431,174450919183173,30,29.936899185180664,482.45267959809894,0.1520042613085948,1,15021.441050471509,0.0027286286931484938,1.57542003E9,,,,0,,1,,1.57542003E9
Raw,2063780131,34292000000,,,-1311985616708129456,0.0,6.034708165091218,,,0,22,0.0,16431,174450924041203,62,23.638023376464844,-23.759393809052497,0.3075070668090667,4,-830.5235210347475,3.4028234663852886E38,1.57542003E9,,,,0,,1,,1.57542003E9
Raw,2063780131,34292000000,,,-1311985616708129456,0.0,6.034708165091218,,,0,24,0.0,16431,174450915153825,29,29.995166778564453,-536.0198720202609,0.15028625920084293,1,-16776.440490830853,0.002710385713726282,1.57542003E9,,,,0,,1,,1.57542003E9
Raw,2063780132,34292000000,,,-1311985616708129456,0.0,6.034708165091218,,,0,30,0.0,16,4609401,1000000000,7.0,429.2278454517086,2.99792458E8,4,8573.07004143036,3.4028234663852886E38,1.57542003E9,,,,0,,1,,1.57542003E9
Raw,2063780132,34292000000,,,-1311985616708129456,0.0,6.034708165091218,,,0,2,0.0,99,920411013,64,22.02024269104004,-222.5301526550379,4.203671342032093,4,-6128.349826335587,3.4028234663852886E38,1.59975002E9,,,,0,,3,,1.59975002E9
Raw,2063780133,34292000000,,,-1311985616708129456,0.0,6.034708165091218,,,0,18,0.0,99,930897305,96,15.8878755569458,345.133167134348,4.201960562476163,4,8259.602325505295,3.4028234663852886E38,1.60031245E9,,,,0,,3,,1.60031245E9
Raw,2063780133,34292000000,,,-1311985616708129456,0.0,6.034708165091218,,,0,9,0.0,32995,12432931557579,33,38.367431640625,-596.2553993084803,0.05835927963587548,4,-17469.610308051106,3.4028234663852886E38,1.59862502E9,,,,0,,3,,1.59862502E9
Raw,2063780133,34292000000,,,-1311985616708129456,0.0,6.034708165091218,,,0,16,0.0,16,1081909,1000000000,11.65042495727539,150.79002400263084,2.99792458E8,4,3847.4996536024933,3.4028234663852886E38,1.60143744E9,,,,1,,3,,1.60143744E9
Raw,2063780134,34292000000,,,-1311985616708129456,0.0,6.034708165091218,,,0,15,0.0,32995,12432923906337,33,42.13506317138672,690.5622381562271,0.03717598031155084,1,17246.996504058905,7.365889614447951E-4,1.602E9,,,,0,,3,,1.602E9
Raw,2063780134,34292000000,,,-1311985616708129456,0.0,6.034708165091218,,,0,19,0.0,32995,12432933801540,63,29.436491012573242,-137.478191860707,0.15984598885170387,1,-3630.633971286133,0.002839497523382306,1.60368755E9,,,,0,,3,,1.60368755E9
Raw,2063780134,34292000000,,,-1311985616708129456,0.0,6.034708165091218,,,0,3,0.0,51,438031,81,18.82080078125,-626.229352027292,4.203676401146733,4,-13797.94000863253,3.4028234663852886E38,1.60481254E9,,,,0,,3,,1.60481254E9
Raw,2063780135,34292000000,,,-1311985616708129456,0.0,6.034708165091218,,,0,193,0.0,35,11392201,33,29.076515197753906,-180.29708114953655,0.16607137919277293,1,-5283.548995840312,0.0030127549543976784,1.57542003E9,,,,0,,4,,1.57542003E9
Raw,2063780135,34292000000,,,-1311985616708129456,0.0,6.034708165091218,,,0,194,0.0,35,15921648,8,41.036869049072266,-181.0584150633431,0.04425291616913146,1,-5498.566328620985,8.499650866724551E-4,1.57542003E9,,,,0,,4,,1.57542003E9
Raw,2063780136,34292000000,,,-1311985616708129456,0.0,6.034708165091218,,,0,195,0.0,35,8314954,31,29.544797897338867,-99.80645219718053,0.1569090563103518,1,-3028.7395115247828,0.0028546287212520838,1.57542003E9,,,,0,,4,,1.57542003E9
Raw,2063781079,35292000000,,,-1311985616708129850,0.0,5.927619106208023,,,0,1,0.0,16431,174451928638845,59,23.92996597290039,416.42054443430607,0.2981941354151556,1,13756.951127211058,0.005448678508400917,1.57542003E9,,,,0,,1,,1.57542003E9
Raw,2063781079,35292000000,,,-1311985616708129850,0.0,5.927619106208023,,,0,3,0.0,16431,174451925574718,16,35.083133697509766,-361.9686736881815,0.08314595832535138,1,-12126.91618940918,0.0016003281343728304,1.57542003E9,,,,0,,1,,1.57542003E9
Raw,2063781079,35292000000,,,-1311985616708129850,0.0,5.927619106208023,,,0,6,0.0,16396,174451921959556,1000000000,11.274452209472656,-736.0829715828318,2.99792458E8,4,-22255.500951367998,3.4028234663852886E38,1.57542003E9,,,,1,,1,,1.57542003E9
Raw,2063781080,35292000000,,,-1311985616708129850,0.0,5.927619106208023,,,0,7,0.0,16431,174451918839221,35,28.449743270874023,561.3121903461863,0.17968420855245903,1,18047.823609557676,0.00323819019831717,1.57542003E9,,,,0,,1,,1.57542003E9
Raw,2063781080,35292000000,,,-1311985616708129850,0.0,5.927619106208023,,,0,14,0.0,16431,174451932674302,10,39.38966369628906,-230.8133483936026,0.052311474203768776,1,-7746.132549193159,9.74726106505841E-4,1.57542003E9,,,,0,,1,,1.57542003E9
Raw,2063781080,35292000000,,,-1311985616708129850,0.0,5.927619106208023,,,0,17,0.0,16431,174451929408404,7,41.750606536865234,-230.15398918971232,0.039816305615302305,1,-7677.682772053402,7.829141104593873E-4,1.57542003E9,,,,0,,1,,1.57542003E9
Raw,2063781081,35292000000,,,-1311985616708129850,0.0,5.927619106208023,,,0,19,0.0,16431,174451926232887,6,45.58406448364258,-490.2815902736711,0.0311211416283758,1,-16304.713336053948,5.035484791733325E-4,1.57542003E9,,,,0,,1,,1.57542003E9
Raw,2063781081,35292000000,,,-1311985616708129850,0.0,5.927619106208023,,,0,21,0.0,16431,174451919181554,29,30.127105712890625,483.10416575453246,0.14878624835187637,1,15504.063626517365,0.0026695262640714645,1.57542003E9,,,,0,,1,,1.57542003E9
Raw,2063781081,35292000000,,,-1311985616708129850,0.0,5.927619106208023,,,0,22,0.0,16431,174451924041193,51,25.249958038330078,-23.696897234557326,0.2555450834006209,4,-854.3572738548683,3.4028234663852886E38,1.57542003E9,,,,0,,1,,1.57542003E9
Raw,2063781082,35292000000,,,-1311985616708129850,0.0,5.927619106208023,,,0,24,0.0,16431,174451915155594,28,30.25899887084961,-536.2298540348979,0.14587184884086213,1,-17312.50096136183,0.0026292961556464434,1.57542003E9,,,,0,,1,,1.57542003E9
Raw,2063781082,35292000000,,,-1311985616708129850,0.0,5.927619106208023,,,0,30,0.0,16,4608030,1000000000,7.0,429.5991397330681,2.99792458E8,4,9002.522547737946,3.4028234663852886E38,1.57542003E9,,,,0,,1,,1.57542003E9
Raw,2063781082,35292000000,,,-1311985616708129850,0.0,5.927619106208023,,,0,2,0.0,99,1920411957,124,23.640792846679688,-222.58061173191993,0.3103539504381898,4,-6351.33704662432,3.4028234663852886E38,1.59975002E9,,,,0,,3,,1.59975002E9
Raw,2063781083,35292000000,,,-1311985616708129850,0.0,5.927619106208023,,,0,18,0.0,99,1930896030,166,21.590885162353516,344.94734958138565,4.2019602962069715,4,8603.383155972428,3.4028234663852886E38,1.60031245E9,,,,1,,3,,1.60031245E9
Raw,2063781083,35292000000,,,-1311985616708129850,0.0,5.927619106208023,,,0,9,0.0,32995,12433931559575,33,38.67069625854492,-596.2673281682632,0.056428532604503756,1,-18065.757542126554,0.001042004907503724,1.59862502E9,,,,0,,3,,1.59862502E9
Raw,2063781083,35292000000,,,-1311985616708129850,0.0,5.927619106208023,,,0,16,0.0,17,81385,166,14.646383285522461,151.04867576518245,4.200194665197575,4,3998.5380542792036,3.4028234663852886E38,1.60143744E9,,,,1,,3,,1.60143744E9
Raw,2063781084,35292000000,,,-1311985616708129850,0.0,5.927619106208023,,,0,15,0.0,32995,12433923904020,33,42.89699935913086,690.7687778427553,0.03411239308481111,1,17937.662746908805,6.747273728251457E-4,1.602E9,,,,0,,3,,1.602E9
Raw,2063781084,35292000000,,,-1311985616708129850,0.0,5.927619106208023,,,0,19,0.0,32995,12433933801990,80,27.400550842285156,-137.89058106401887,0.20141287294616594,1,-3768.1618507386183,0.0035895376931875944,1.60368755E9,,,,0,,3,,1.60368755E9
Raw,2063781084,35292000000,,,-1311985616708129850,0.0,5.927619106208023,,,0,3,0.0,51,440314,166,24.48187255859375,-625.9860032877191,0.2820545612037533,4,-14424.082990188324,3.4028234663852886E38,1.60481254E9,,,,1,,3,,1.60481254E9
Raw,2063781085,35292000000,,,-1311985616708129850,0.0,5.927619106208023,,,0,193,0.0,35,11392803,44,26.57901382446289,-180.6940054382012,0.2207134951491121,4,-5463.8047088152725,3.4028234663852886E38,1.57542003E9,,,,0,,4,,1.57542003E9
Raw,2063781085,35292000000,,,-1311985616708129850,0.0,5.927619106208023,,,0,194,0.0,35,15922272,8,40.66672897338867,-180.73032029562626,0.04605489292317927,1,-5679.479879557545,8.869682787917554E-4,1.57542003E9,,,,0,,4,,1.57542003E9
Raw,2063781086,35292000000,,,-1311985616708129850,0.0,5.927619106208023,,,0,195,0.0,35,8315256,30,29.691747665405273,-99.18378275773705,0.15430191480460154,1,-3128.333320508462,0.0028067389503121376,1.57542003E9,,,,0,,4,,1.57542003E9
Fix,gps,34.486668,109.464186,360.165985,0.301667,4.000000,1627950434000
Fix,gps,34.486668,109.464186,360.175995,0.482576,4.000000,1627950435000
Raw,2063782126,36292000000,,,-1311985616708130244,0.0,5.840229897889196,,,0,1,0.0,16431,174452928637362,63,22.24941062927246,416.27586440636674,4.201553703151422,4,14173.35566929595,3.4028234663852886E38,1.57542003E9,,,,0,,1,,1.57542003E9
Raw,2063782126,36292000000,,,-1311985616708130244,0.0,5.840229897889196,,,0,3,0.0,16431,174452925575903,17,34.85887145996094,-361.94464555633294,0.0852946758132278,1,-12488.943512075557,0.0016421854961663485,1.57542003E9,,,,0,,1,,1.57542003E9
Raw,2063782127,36292000000,,,-1311985616708130244,0.0,5.840229897889196,,,0,6,0.0,16396,174452921962072,1000000000,11.756952285766602,-735.7938160216922,2.99792458E8,4,-22991.825906865255,3.4028234663852886E38,1.57542003E9,,,,1,,1,,1.57542003E9
Raw,2063782127,36292000000,,,-1311985616708130244,0.0,5.840229897889196,,,0,7,0.0,16431,174452918837353,46,26.233531951904297,561.72117982446,0.23092528476651442,1,18609.379865467054,0.004179389216005802,1.57542003E9,,,,0,,1,,1.57542003E9
Raw,2063782128,36292000000,,,-1311985616708130244,0.0,5.840229897889196,,,0,14,0.0,16431,174452932675063,12,37.246517181396484,-231.15858663695042,0.06631273622804706,4,-7977.0409202756,3.4028234663852886E38,1.57542003E9,,,,0,,1,,1.57542003E9
Raw,2063782128,36292000000,,,-1311985616708130244,0.0,5.840229897889196,,,0,17,0.0,16431,174452929409176,6,44.032588958740234,-230.3639541631211,0.03169248042530591,1,-7907.892694633179,6.020257715135813E-4,1.57542003E9,,,,0,,1,,1.57542003E9
Raw,2063782133,36292000000,,,-1311985616708130244,0.0,5.840229897889196,,,0,19,0.0,16431,174452926234516,6,45.562957763671875,-490.45585387387223,0.031121434940532156,1,-16795.06478792691,5.047735176049173E-4,1.57542003E9,,,,0,,1,,1.57542003E9
Raw,2063782133,36292000000,,,-1311985616708130244,0.0,5.840229897889196,,,0,21,0.0,16431,174452919179911,24,31.7303409576416,483.01302926579046,0.12429017336182208,4,15987.048049070658,3.4028234663852886E38,1.57542003E9,,,,0,,1,,1.57542003E9
Raw,2063782134,36292000000,,,-1311985616708130244,0.0,5.840229897889196,,,0,22,0.0,16431,174452924041305,49,25.54610824584961,-23.159480799798587,0.24700345064560758,4,-877.5208201592999,3.4028234663852886E38,1.57542003E9,,,,0,,1,,1.57542003E9
Raw,2063782134,36292000000,,,-1311985616708130244,0.0,5.840229897889196,,,0,24,0.0,16431,174452915157403,36,28.328392028808594,-536.277058237182,0.18150224466712428,1,-17848.690178898134,0.003283748170360923,1.57542003E9,,,,0,,1,,1.57542003E9
Raw,2063782135,36292000000,,,-1311985616708130244,0.0,5.840229897889196,,,0,30,0.0,16,4606537,1000000000,7.0,429.41349259238837,2.99792458E8,4,9431.712942324712,3.4028234663852886E38,1.57542003E9,,,,0,,1,,1.57542003E9
Raw,2063782135,36292000000,,,-1311985616708130244,0.0,5.840229897889196,,,0,2,0.0,99,920412606,123,23.696290969848633,-222.87188040536387,0.30840073278332203,4,-6573.170693233659,3.4028234663852886E38,1.59975002E9,,,,0,,3,,1.59975002E9
Raw,2063782135,36292000000,,,-1311985616708130244,0.0,5.840229897889196,,,0,18,0.0,99,930895087,107,24.857349395751953,345.15307128895734,0.26856028820162015,4,8948.475536878095,3.4028234663852886E38,1.60031245E9,,,,0,,3,,1.60031245E9
Raw,2063782136,36292000000,,,-1311985616708130244,0.0,5.840229897889196,,,0,9,0.0,32995,12434931561596,33,38.78566360473633,-596.449192156269,0.05571427381899069,1,-18662.030359367185,0.0010283039882779121,1.59862502E9,,,,0,,3,,1.59862502E9
Raw,2063782136,36292000000,,,-1311985616708130244,0.0,5.840229897889196,,,0,16,0.0,17,80911,166,14.519014358520508,151.12457739585875,4.200194398928383,4,4149.751844998983,3.4028234663852886E38,1.60143744E9,,,,1,,3,,1.60143744E9
Raw,2063782137,36292000000,,,-1311985616708130244,0.0,5.840229897889196,,,0,15,0.0,32995,12434923901712,33,42.78315734863281,690.9230350409775,0.03455276280335867,1,18628.49373959084,6.836291286163032E-4,1.602E9,,,,0,,3,,1.602E9
Raw,2063782137,36292000000,,,-1311985616708130244,0.0,5.840229897889196,,,0,19,0.0,32995,12434933802489,94,26.026962280273438,-137.64442052178288,0.2354957954400616,4,-3905.948700022417,3.4028234663852886E38,1.60368755E9,,,,0,,3,,1.60368755E9
Raw,2063782137,36292000000,,,-1311985616708130244,0.0,5.840229897889196,,,0,3,0.0,51,442362,97,25.755403518676758,-625.9482399258918,0.24409021606230652,4,-15050.651034010829,3.4028234663852886E38,1.60481254E9,,,,0,,3,,1.60481254E9
Raw,2063782138,36292000000,,,-1311985616708130244,0.0,5.840229897889196,,,0,193,0.0,35,11393342,60,23.876728057861328,-180.44942973019351,0.3005134066411541,4,-5643.7606100041185,3.4028234663852886E38,1.57542003E9,,,,0,,4,,1.57542003E9
Raw,2063782138,36292000000,,,-1311985616708130244,0.0,5.840229897889196,,,0,194,0.0,35,15922850,11,38.5290412902832,-180.8315963151838,0.058107014539585916,1,-5860.242642354291,0.0010762512683868408,1.57542003E9,,,,0,,4,,1.57542003E9
Raw,2063782138,36292000000,,,-1311985616708130244,0.0,5.840229897889196,,,0,195,0.0,35,8315551,34,28.630321502685547,-99.59663207421198,0.17416394895617904,4,-3227.8257797647702,3.4028234663852886E38,1.57542003E9,,,,0,,4,,1.57542003E9
Raw,2063783014,37292000000,,,-1311985616708130638,0.0,5.759184628367832,,,0,1,0.0,16431,174453928635975,53,24.917301177978516,417.1023639770449,0.26632008228369775,4,14590.522391177275,3.4028234663852886E38,1.57542003E9,,,,0,,1,,1.57542003E9
Raw,2063783014,37292000000,,,-1311985616708130638,0.0,5.759184628367832,,,0,3,0.0,16431,174453925577127,13,36.688236236572266,-361.5217504357979,0.06928682580299353,1,-12850.610821010885,0.0013303130399435759,1.57542003E9,,,,0,,1,,1.57542003E9
Raw,2063783015,37292000000,,,-1311985616708130638,0.0,5.759184628367832,,,0,6,0.0,16396,174453921964497,1000000000,11.758943557739258,-736.0311662489171,2.99792458E8,4,-23728.118383288398,3.4028234663852886E38,1.57542003E9,,,,0,,1,,1.57542003E9
Raw,2063783015,37292000000,,,-1311985616708130638,0.0,5.759184628367832,,,0,7,0.0,16431,174453918835440,54,24.79297637939453,561.2198950539225,0.2719716791587268,4,19170.894704332717,3.4028234663852886E38,1.57542003E9,,,,0,,1,,1.57542003E9
Raw,2063783015,37292000000,,,-1311985616708130638,0.0,5.759184628367832,,,0,14,0.0,16431,174453932675836,9,39.83564376831055,-230.404171461818,0.04980769923028283,4,-8207.725224449334,3.4028234663852886E38,1.57542003E9,,,,0,,1,,1.57542003E9
Raw,2063783016,37292000000,,,-1311985616708130638,0.0,5.759184628367832,,,0,17,0.0,16431,174453929409928,8,40.858055114746094,-230.00256083538147,0.04394251285904188,1,-8138.080295952428,8.676443831063807E-4,1.57542003E9,,,,0,,1,,1.57542003E9
Raw,2063783016,37292000000,,,-1311985616708130638,0.0,5.759184628367832,,,0,19,0.0,16431,174453926236154,6,45.37434387207031,-490.52763152730927,0.03112173033291657,1,-17285.503844814102,5.158544518053532E-4,1.57542003E9,,,,0,,1,,1.57542003E9
Raw,2063783016,37292000000,,,-1311985616708130638,0.0,5.759184628367832,,,0,21,0.0,16431,174453919178311,18,33.968971252441406,483.2038910223182,0.09683529847305683,4,16470.172998937836,3.4028234663852886E38,1.57542003E9,,,,0,,1,,1.57542003E9
Raw,2063783017,37292000000,,,-1311985616708130638,0.0,5.759184628367832,,,0,22,0.0,16431,174453924041408,53,24.958847045898438,-22.678947984976418,0.2642302352498982,4,-900.0803372659356,3.4028234663852886E38,1.57542003E9,,,,0,,1,,1.57542003E9
Raw,2063783017,37292000000,,,-1311985616708130638,0.0,5.759184628367832,,,0,24,0.0,16431,174453915159229,47,25.952943801879883,-536.273343249421,0.23773398769722265,4,-18384.926641463608,3.4028234663852886E38,1.57542003E9,,,,0,,1,,1.57542003E9
Raw,2063783017,37292000000,,,-1311985616708130638,0.0,5.759184628367832,,,0,30,0.0,16,4605156,1000000000,8.999662399291992,429.2278454517086,2.99792458E8,4,9862.092787786032,3.4028234663852886E38,1.57542003E9,,,,1,,1,,1.57542003E9
Raw,2063783018,37292000000,,,-1311985616708130638,0.0,5.759184628367832,,,0,2,0.0,99,1920413364,110,24.635318756103516,-223.17920191583005,0.2771751117006702,4,-6795.512079502324,3.4028234663852886E38,1.59975002E9,,,,0,,3,,1.59975002E9
Raw,2063783019,37292000000,,,-1311985616708130638,0.0,5.759184628367832,,,0,18,0.0,99,1930893944,82,27.153945922851562,345.0378385034537,0.2066186686271847,4,9293.703019047529,3.4028234663852886E38,1.60031245E9,,,,0,,3,,1.60031245E9
Raw,2063783019,37292000000,,,-1311985616708130638,0.0,5.759184628367832,,,0,9,0.0,32995,12435931563543,38,33.73478698730469,-596.1183878332586,0.09801765849737537,4,-19258.209333719664,3.4028234663852886E38,1.59862502E9,,,,0,,3,,1.59862502E9
Raw,2063783019,37292000000,,,-1311985616708130638,0.0,5.759184628367832,,,0,16,0.0,17,80376,166,13.928001403808594,151.1893340632521,4.200194398928383,4,4301.429882397738,3.4028234663852886E38,1.60143744E9,,,,1,,3,,1.60143744E9
Raw,2063783020,37292000000,,,-1311985616708130638,0.0,5.759184628367832,,,0,15,0.0,32995,12435923899418,33,42.02883529663086,691.2448415954659,0.037623537218043124,1,19319.489839633636,7.456525345332921E-4,1.602E9,,,,0,,3,,1.602E9
Raw,2063783020,37292000000,,,-1311985616708130638,0.0,5.759184628367832,,,0,19,0.0,32995,12435933802928,112,24.479530334472656,-137.34134227715379,0.28093579791166223,4,-4044.2836952782277,3.4028234663852886E38,1.60368755E9,,,,0,,3,,1.60368755E9
Raw,2063783020,37292000000,,,-1311985616708130638,0.0,5.759184628367832,,,0,3,0.0,51,444504,91,26.31941795349121,-624.8858215911628,0.22897552861113724,4,-15674.763676265116,3.4028234663852886E38,1.60481254E9,,,,0,,3,,1.60481254E9
Raw,2063783021,37292000000,,,-1311985616708130638,0.0,5.759184628367832,,,0,193,0.0,35,11394027,36,28.345609664916992,-179.44401430399887,0.18047131692460716,4,-5823.322552213826,3.4028234663852886E38,1.57542003E9,,,,0,,4,,1.57542003E9
Raw,2063783021,37292000000,,,-1311985616708130638,0.0,5.759184628367832,,,0,194,0.0,35,15923455,9,40.065391540527344,-180.11182595710682,0.04915121669888747,1,-6040.758286418156,9.01770603377372E-4,1.57542003E9,,,,0,,4,,1.57542003E9
Raw,2063783022,37292000000,,,-1311985616708130638,0.0,5.759184628367832,,,0,195,0.0,35,8315888,29,30.039276123046875,-99.23495756620605,0.1483088609750144,4,-3327.1875654243477,3.4028234663852886E38,1.57542003E9,,,,0,,4,,1.57542003E9
Fix,gps,34.486672,109.464184,360.187866,0.472685,4.000000,1627950436000
Fix,gps,34.486677,109.464178,360.211548,0.483000,4.000000,1627950437000
Raw,2063784146,38292000000,,,-1311985616708131031,0.0,5.670518997613262,,,0,1,0.0,16431,174454928634641,50,25.392196655273438,417.0784721750224,0.2522324783135921,4,15007.929834547793,3.4028234663852886E38,1.57542003E9,,,,0,,1,,1.57542003E9
Raw,2063784146,38292000000,,,-1311985616708131031,0.0,5.670518997613262,,,0,3,0.0,16431,174454925578336,16,35.1561393737793,-361.399394416881,0.0824591003038348,1,-13212.150182497517,0.0015869333874434233,1.57542003E9,,,,0,,1,,1.57542003E9
Raw,2063784147,38292000000,,,-1311985616708131031,0.0,5.670518997613262,,,0,6,0.0,16396,174454921966930,1000000000,12.792169570922852,-735.9885631782636,2.99792458E8,4,-24464.072439143503,3.4028234663852886E38,1.57542003E9,,,,0,,1,,1.57542003E9
Raw,2063784147,38292000000,,,-1311985616708131031,0.0,5.670518997613262,,,0,7,0.0,16431,174454918833600,53,24.973495483398438,561.4926910359311,0.26644700947896116,4,19732.465001021224,3.4028234663852886E38,1.57542003E9,,,,0,,1,,1.57542003E9
Raw,2063784147,38292000000,,,-1311985616708131031,0.0,5.670518997613262,,,0,14,0.0,16431,174454932676608,8,40.852745056152344,-230.68284666757677,0.04455594715097905,4,-8438.430280673248,3.4028234663852886E38,1.57542003E9,,,,0,,1,,1.57542003E9
Raw,2063784148,38292000000,,,-1311985616708131031,0.0,5.670518997613262,,,0,17,0.0,16431,174454929410693,8,40.687339782714844,-230.2423990819325,0.04478126497298904,1,-8368.322906342375,8.848658762872219E-4,1.57542003E9,,,,0,,1,,1.57542003E9
Raw,2063784148,38292000000,,,-1311985616708131031,0.0,5.670518997613262,,,0,19,0.0,16431,174454926237803,6,44.817928314208984,-490.4619546335898,0.031122025725300984,1,-17775.988020293888,5.499814287759364E-4,1.57542003E9,,,,0,,1,,1.57542003E9
Raw,2063784149,38292000000,,,-1311985616708131031,0.0,5.670518997613262,,,0,21,0.0,16431,174454919176693,19,33.91598892211914,483.32890547284387,0.09740637932170759,4,16953.364004187388,3.4028234663852886E38,1.57542003E9,,,,0,,1,,1.57542003E9
Raw,2063784149,38292000000,,,-1311985616708131031,0.0,5.670518997613262,,,0,22,0.0,16431,174454924041447,54,24.74559211730957,-22.770084473718413,0.2707798416153703,4,-921.9942326001943,3.4028234663852886E38,1.57542003E9,,,,0,,1,,1.57542003E9
Raw,2063784150,38292000000,,,-1311985616708131031,0.0,5.670518997613262,,,0,24,0.0,16431,174454915160954,45,26.24355125427246,-536.2230375435934,0.23000159694090794,4,-18921.128250441583,3.4028234663852886E38,1.57542003E9,,,,0,,1,,1.57542003E9
Raw,2063784150,38292000000,,,-1311985616708131031,0.0,5.670518997613262,,,0,30,0.0,16,4603666,1000000000,11.000051498413086,429.41349259238837,2.99792458E8,4,10290.235224986163,3.4028234663852886E38,1.57542003E9,,,,1,,1,,1.57542003E9
Raw,2063784150,38292000000,,,-1311985616708131031,0.0,5.670518997613262,,,0,2,0.0,99,920414121,98,25.63347053527832,-222.9788993188455,0.2474838834763483,4,-7018.082674095922,3.4028234663852886E38,1.59975002E9,,,,0,,3,,1.59975002E9
Raw,2063784151,38292000000,,,-1311985616708131031,0.0,5.670518997613262,,,0,18,0.0,99,930892741,112,24.510066986083984,345.15831998726185,0.2794350714642433,4,9639.005569156223,3.4028234663852886E38,1.60031245E9,,,,0,,3,,1.60031245E9
Raw,2063784151,38292000000,,,-1311985616708131031,0.0,5.670518997613262,,,0,9,0.0,32995,12436931565578,44,32.54648971557617,-596.0830784083009,0.11208318708731624,4,-19855.013919034995,3.4028234663852886E38,1.59862502E9,,,,0,,3,,1.59862502E9
Raw,2063784152,38292000000,,,-1311985616708131031,0.0,5.670518997613262,,,0,16,0.0,16,1079897,1000000000,11.346065521240234,151.11384142205407,2.99792458E8,4,4453.901561846426,3.4028234663852886E38,1.60143744E9,,,,1,,3,,1.60143744E9
Raw,2063784152,38292000000,,,-1311985616708131031,0.0,5.670518997613262,,,0,15,0.0,32995,12436923897112,33,39.9560546875,691.0166254665892,0.04757432894176314,1,20010.555057882968,8.980424026958644E-4,1.602E9,,,,0,,3,,1.602E9
Raw,2063784152,38292000000,,,-1311985616708131031,0.0,5.670518997613262,,,0,19,0.0,32995,12436933803436,107,24.918258666992188,-137.75972147219954,0.26722042162956716,4,-4181.824348186298,3.4028234663852886E38,1.60368755E9,,,,0,,3,,1.60368755E9
Raw,2063784153,38292000000,,,-1311985616708131031,0.0,5.670518997613262,,,0,3,0.0,51,446650,49,31.595739364624023,-624.7175905857662,0.12640522443878754,4,-16299.823857065385,3.4028234663852886E38,1.60481254E9,,,,0,,3,,1.60481254E9
Raw,2063784153,38292000000,,,-1311985616708131031,0.0,5.670518997613262,,,0,193,0.0,35,11394653,30,29.901620864868164,-179.7578455636609,0.1512079000820391,4,-6002.843453368196,3.4028234663852886E38,1.57542003E9,,,,0,,4,,1.57542003E9
Raw,2063784154,38292000000,,,-1311985616708131031,0.0,5.670518997613262,,,0,194,0.0,35,15924057,8,41.17414474487305,-180.51616318006518,0.04360435514618574,1,-6221.322019631287,8.366373367607594E-4,1.57542003E9,,,,0,,4,,1.57542003E9
Raw,2063784154,38292000000,,,-1311985616708131031,0.0,5.670518997613262,,,0,195,0.0,35,8316210,27,30.65546989440918,-99.08235336712517,0.13825454462169756,4,-3426.562941796838,3.4028234663852886E38,1.57542003E9,,,,0,,4,,1.57542003E9
Fix,gps,34.486682,109.464168,360.234558,0.696083,3.000000,1627950438000
Raw,2063785131,39292000000,,,-1311985616708131425,0.0,6.845433640925077,,,0,1,0.0,16431,174455928633217,41,27.02716064453125,417.59550304047343,0.20922126691485354,4,15424.799794824085,3.4028234663852886E38,1.57542003E9,,,,0,,1,,1.57542003E9
Raw,2063785131,39292000000,,,-1311985616708131425,0.0,6.845433640925077,,,0,3,0.0,16431,174455925579534,14,36.5428466796875,-361.1612262106996,0.07043984213030824,1,-13573.464244710582,0.0013527681585401297,1.57542003E9,,,,0,,1,,1.57542003E9
Raw,2063785132,39292000000,,,-1311985616708131425,0.0,6.845433640925077,,,0,6,0.0,16396,174455921969364,1000000000,12.201675415039062,-736.3489510735358,2.99792458E8,4,-25200.969921030806,3.4028234663852886E38,1.57542003E9,,,,1,,1,,1.57542003E9
Raw,2063785132,39292000000,,,-1311985616708131425,0.0,6.845433640925077,,,0,7,0.0,16431,174455918831608,71,20.72572898864746,562.0758759494929,4.203387499073864,4,20293.741974442808,3.4028234663852886E38,1.57542003E9,,,,0,,1,,1.57542003E9
Raw,2063785133,39292000000,,,-1311985616708131425,0.0,6.845433640925077,,,0,14,0.0,16431,174455932677351,7,41.87704849243164,-230.51546772359325,0.039853346156125374,4,-8668.950993250206,3.4028234663852886E38,1.57542003E9,,,,0,,1,,1.57542003E9
Raw,2063785133,39292000000,,,-1311985616708131425,0.0,6.845433640925077,,,0,17,0.0,16431,174455929411480,8,41.25664520263672,-230.30599694580405,0.04204777041491972,1,-8598.503813083482,8.287281962111592E-4,1.57542003E9,,,,0,,1,,1.57542003E9
Raw,2063785134,39292000000,,,-1311985616708131425,0.0,6.845433640925077,,,0,19,0.0,16431,174455926239433,6,43.864437103271484,-490.46263628272027,0.03112231903745734,1,-18266.468496488586,6.137940217740834E-4,1.57542003E9,,,,0,,1,,1.57542003E9
Raw,2063785134,39292000000,,,-1311985616708131425,0.0,6.845433640925077,,,0,21,0.0,16431,174455919175065,21,32.84959411621094,483.1102324317935,0.10967949188576098,4,17436.6508729464,3.4028234663852886E38,1.57542003E9,,,,0,,1,,1.57542003E9
Raw,2063785134,39292000000,,,-1311985616708131425,0.0,6.845433640925077,,,0,22,0.0,16431,174455924041542,52,25.075294494628906,-22.58039856194071,0.260721156783129,4,-944.5396782325189,3.4028234663852886E38,1.57542003E9,,,,0,,1,,1.57542003E9
Raw,2063785135,39292000000,,,-1311985616708131425,0.0,6.845433640925077,,,0,24,0.0,16431,174455915162747,38,27.687578201293945,-535.8682732536474,0.1951913767920238,4,-19457.2247110392,3.4028234663852886E38,1.57542003E9,,,,0,,1,,1.57542003E9
Raw,2063785135,39292000000,,,-1311985616708131425,0.0,6.845433640925077,,,0,30,0.0,16,4602284,1000000000,10.732067108154297,429.04219831102887,2.99792458E8,4,10720.665351533573,3.4028234663852886E38,1.57542003E9,,,,1,,1,,1.57542003E9
Raw,2063785135,39292000000,,,-1311985616708131425,0.0,6.845433640925077,,,0,2,0.0,99,1920414915,87,26.707237243652344,-221.5031800750926,0.21913210577846753,4,-7239.182870110981,3.4028234663852886E38,1.59975002E9,,,,0,,3,,1.59975002E9
Raw,2063785136,39292000000,,,-1311985616708131425,0.0,6.845433640925077,,,0,18,0.0,99,1930891485,119,23.974647521972656,345.5909286079059,0.29707730257470355,4,9984.99133494054,3.4028234663852886E38,1.60031245E9,,,,0,,3,,1.60031245E9
Raw,2063785136,39292000000,,,-1311985616708131425,0.0,6.845433640925077,,,0,9,0.0,32995,12437931567524,35,34.48609161376953,-596.0579255553871,0.09006877424647802,4,-20451.21232053162,3.4028234663852886E38,1.59862502E9,,,,0,,3,,1.59862502E9
