# 
# Header Description:
# 
# Version: v2.0.0.1 Platform: 10 Manufacturer: HUAWEI Model: BLA-AL00
# 
# Raw,ElapsedRealtimeMillis,TimeNanos,LeapSecond,TimeUncertaintyNanos,FullBiasNanos,BiasNanos,BiasUncertaintyNanos,DriftNanosPerSecond,DriftUncertaintyNanosPerSecond,HardwareClockDiscontinuityCount,Svid,TimeOffsetNanos,State,ReceivedSvTimeNanos,ReceivedSvTimeUncertaintyNanos,Cn0DbHz,PseudorangeRateMetersPerSecond,PseudorangeRateUncertaintyMetersPerSecond,AccumulatedDeltaRangeState,AccumulatedDeltaRangeMeters,AccumulatedDeltaRangeUncertaintyMeters,CarrierFrequencyHz,CarrierCycles,CarrierPhase,CarrierPhaseUncertainty,MultipathIndicator,SnrInDb,ConstellationType,AgcDb,CarrierFrequencyHz
# 
# Fix,Provider,Latitude,Longitude,Altitude,Speed,Accuracy,(UTC)TimeInMs
# 
# Nav,Svid,Type,Status,MessageId,Sub-messageId,Data(Bytes)
# 
Fix,gps,34.486769,109.464162,357.082703,1.415374,3.000000,1627951518999
Raw,2064866172,1120291000000,,,-1311985616708548186,0.0,9.261156545826589,,,0,1,0.0,16431,175536926003821,16,35.058349609375,480.94490580398633,0.08345789268329257,4,568283.920196015,3.4028234663852886E38,1.57542003E9,,,,0,,1,,1.57542003E9
Raw,2064866172,1120291000000,,,-1311985616708548186,0.0,9.261156545826589,,,0,3,0.0,16431,175536925655837,24,31.78511619567871,-234.64179665235338,0.12109788034482827,4,-27097.534834009595,3.4028234663852886E38,1.57542003E9,,,,0,,1,,1.57542003E9
Raw,2064866172,1120291000000,,,-1311985616708548186,0.0,9.261156545826589,,,0,6,0.0,16,1120003506460,1000000000,13.483240127563477,-672.0609174573847,2.99792458E8,2,-524289.995201364,3.4028234663852886E38,1.57542003E9,,,,0,,1,,1.57542003E9
Raw,2064866173,1120291000000,,,-1311985616708548186,0.0,9.261156545826589,,,0,7,0.0,16,1120015833177,1000000000,7.0,540.8048103388678,2.99792458E8,2,8.101532264837779,3.4028234663852886E38,1.57542003E9,,,,0,,1,,1.57542003E9
Raw,2064866173,1120291000000,,,-1311985616708548186,0.0,9.261156545826589,,,0,14,0.0,16431,175536932306206,8,40.72191619873047,-118.79037195977179,0.0451308930633639,4,-197191.57364634637,3.4028234663852886E38,1.57542003E9,,,,0,,1,,1.57542003E9
Raw,2064866173,1120291000000,,,-1311985616708548186,0.0,9.261156545826589,,,0,17,0.0,16431,175536929179828,19,33.80875778198242,-198.95939033176444,0.09677530469582796,4,-239028.23494086185,3.4028234663852886E38,1.57542003E9,,,,0,,1,,1.57542003E9
Raw,2064866173,1120291000000,,,-1311985616708548186,0.0,9.261156545826589,,,0,19,0.0,16431,175536926934663,11,38.255088806152344,-452.7858438950143,0.05826037311257021,1,-546075.3980048865,0.0011107372120022774,1.57542003E9,,,,0,,1,,1.57542003E9
Raw,2064866174,1120291000000,,,-1311985616708548186,0.0,9.261156545826589,,,0,21,0.0,16431,175536916430117,29,30.213285446166992,480.94272452676887,0.1468564790276925,4,571404.4242237178,3.4028234663852886E38,1.57542003E9,,,,0,,1,,1.57542003E9
Raw,2064866174,1120291000000,,,-1311985616708548186,0.0,9.261156545826589,,,0,22,0.0,39,922894313,24,31.62198257446289,102.1481640581074,0.12287774011415009,4,1014.9035305747002,3.4028234663852886E38,1.57542003E9,,,,0,,1,,1.57542003E9
Raw,2064866174,1120291000000,,,-1311985616708548186,0.0,9.261156545826589,,,0,24,0.0,16431,175536915912500,22,32.32238006591797,-434.8893163871692,0.1157402945827819,4,-547066.4047043993,3.4028234663852886E38,1.57542003E9,,,,0,,1,,1.57542003E9
Raw,2064866174,1120291000000,,,-1311985616708548186,0.0,9.261156545826589,,,0,30,0.0,16,1120001955423,1000000000,7.0,476.5691614583923,2.99792458E8,2,0.4756665596580406,3.4028234663852886E38,1.57542003E9,,,,0,,1,,1.57542003E9
Raw,2064866175,1120291000000,,,-1311985616708548186,0.0,9.261156545826589,,,0,10,0.0,32995,13518920385706,46,32.09907150268555,-873.3330240001892,0.11948453035028134,4,-578577.5402354032,3.4028234663852886E38,1.59806246E9,,,,0,,3,,1.59806246E9
Raw,2064866175,1120291000000,,,-1311985616708548186,0.0,9.261156545826589,,,0,2,0.0,32995,13518919941429,51,31.21097183227539,-70.56481644075328,0.13187312885527225,4,-7063.626931628868,3.4028234663852886E38,1.59975002E9,,,,0,,3,,1.59975002E9
Raw,2064866175,1120291000000,,,-1311985616708548186,0.0,9.261156545826589,,,0,18,0.0,32995,13518928586990,35,34.60089874267578,373.42852478695477,0.08837734081149895,1,32376.823738274845,0.0016653762431815267,1.60031245E9,,,,0,,3,,1.60031245E9
Raw,2064866176,1120291000000,,,-1311985616708548186,0.0,9.261156545826589,,,0,9,0.0,32995,13518932446432,33,43.36357116699219,-444.4089895659249,0.03390164309990007,4,-583833.6122187594,3.4028234663852886E38,1.59862502E9,,,,0,,3,,1.59862502E9
Raw,2064866176,1120291000000,,,-1311985616708548186,0.0,9.261156545826589,,,0,16,0.0,16,1120003177390,1000000000,7.0,327.9673334118954,2.99792458E8,2,0.9747243854303214,3.4028234663852886E38,1.60143744E9,,,,0,,3,,1.60143744E9
Raw,2064866176,1120291000000,,,-1311985616708548186,0.0,9.261156545826589,,,0,20,0.0,99,923828464,38,33.73651123046875,-584.1614441061001,0.0966072305895525,4,-14621.88943003447,3.4028234663852886E38,1.60312499E9,,,,0,,3,,1.60312499E9
Raw,2064866176,1120291000000,,,-1311985616708548186,0.0,9.261156545826589,,,0,19,0.0,32995,13518933126977,65,29.1870059967041,-47.05931350110686,0.16431014162503754,4,-3723.676508088881,3.4028234663852886E38,1.60368755E9,,,,0,,3,,1.60368755E9
Raw,2064866177,1120291000000,,,-1311985616708548186,0.0,9.261156545826589,,,0,3,0.0,99,921566186,41,33.159584045410156,-545.0618454883929,0.10278769632545393,4,-540686.0559907958,3.4028234663852886E38,1.60481254E9,,,,0,,3,,1.60481254E9
Raw,2064866177,1120291000000,,,-1311985616708548186,0.0,9.261156545826589,,,0,193,0.0,51,11040924,32,29.22968292236328,-179.66091505731004,0.16314116994850836,4,-1078.1861466007454,3.4028234663852886E38,1.57542003E9,,,,0,,4,,1.57542003E9
Raw,2064866177,1120291000000,,,-1311985616708548186,0.0,9.261156545826589,,,0,194,0.0,35,15529624,6,43.82099914550781,-156.68901557759887,0.032831910783165635,4,-5657.524768372445,3.4028234663852886E38,1.57542003E9,,,,0,,4,,1.57542003E9
Raw,2064866177,1120291000000,,,-1311985616708548186,0.0,9.261156545826589,,,0,195,0.0,1,697225,28,30.441953659057617,-113.58356951493965,0.14154667194371107,4,-3973.014847700644,3.4028234663852886E38,1.57542003E9,,,,0,,4,,1.57542003E9
Raw,2064866178,1120291000000,,,-1311985616708548186,0.0,9.261156545826589,,,0,7,0.0,16431,175522879566258,9,34.288475036621094,-105.48139422358173,0.0935323539651352,4,-116433.58805976789,3.4028234663852886E38,1.56109798E9,,,,0,,5,,1.56109798E9
Raw,2064866178,1120291000000,,,-1311985616708548186,0.0,9.261156545826589,,,0,8,0.0,16431,175522877714010,11,32.177955627441406,-217.68297977082034,0.11795689407268789,4,-238460.89406617827,3.4028234663852886E38,1.56109798E9,,,,0,,5,,1.56109798E9
Raw,2064866178,1120291000000,,,-1311985616708548186,0.0,9.261156545826589,,,0,10,0.0,16431,175522880056037,6,36.7401008605957,-167.92922228531086,0.07148470740082236,4,-155588.25576651676,3.4028234663852886E38,1.56109798E9,,,,0,,5,,1.56109798E9
Raw,2064866178,1120291000000,,,-1311985616708548186,0.0,9.261156545826589,,,0,32,0.0,17,181372,7,36.194732666015625,-644.7011573187856,0.07446673096558681,4,-12898.50956449566,3.4028234663852886E38,1.56109798E9,,,,0,,5,,1.56109798E9
Raw,2064866178,1120291000000,,,-1311985616708548186,0.0,9.261156545826589,,,0,33,0.0,16431,175522910821974,11,32.596710205078125,-16.01965988097227,0.11131524177604996,4,-1317.5979190802602,3.4028234663852886E38,1.56109798E9,,,,0,,5,,1.56109798E9
Raw,2064866179,1120291000000,,,-1311985616708548186,0.0,9.261156545826589,,,0,36,0.0,16431,175522920167852,6,42.49352264404297,-366.46183209649666,0.038626423486321504,4,-18838.633353517835,3.4028234663852886E38,1.56109798E9,,,,0,,5,,1.56109798E9
Fix,gps,34.486770,109.464164,357.108215,1.179336,3.000000,1627951519999
Raw,2064867142,1121291000000,,,-1311985616708548569,0.0,9.161261578752576,,,0,1,0.0,16431,175537926002222,23,32.181331634521484,481.26885955323564,0.11580564702749141,4,568764.8577246609,3.4028234663852886E38,1.57542003E9,,,,0,,1,,1.57542003E9
Raw,2064867143,1121291000000,,,-1311985616708548569,0.0,9.161261578752576,,,0,3,0.0,16431,175537925656639,24,31.820425033569336,-234.51081777193622,0.12061086567250806,4,-27332.070192270796,3.4028234663852886E38,1.57542003E9,,,,0,,1,,1.57542003E9
Raw,2064867143,1121291000000,,,-1311985616708548569,0.0,9.161261578752576,,,0,6,0.0,16,1121003508762,1000000000,7.0,-671.6895550111121,2.99792458E8,2,-524290.0098568739,3.4028234663852886E38,1.57542003E9,,,,0,,1,,1.57542003E9
Raw,2064867144,1121291000000,,,-1311985616708548569,0.0,9.161261578752576,,,0,7,0.0,16,1121015831311,1000000000,7.0,541.1761046202273,2.99792458E8,2,8.102862110662365,3.4028234663852886E38,1.57542003E9,,,,0,,1,,1.57542003E9
Raw,2064867144,1121291000000,,,-1311985616708548569,0.0,9.161261578752576,,,0,14,0.0,16431,175537932306592,11,38.43897247314453,-118.77904806359209,0.05803235099408319,4,-197310.29378182607,3.4028234663852886E38,1.57542003E9,,,,0,,1,,1.57542003E9
Raw,2064867144,1121291000000,,,-1311985616708548569,0.0,9.161261578752576,,,0,17,0.0,16431,175537929180436,20,33.407562255859375,-198.93193691303532,0.10127220857972652,4,-239227.01878600073,3.4028234663852886E38,1.57542003E9,,,,0,,1,,1.57542003E9
Raw,2064867144,1121291000000,,,-1311985616708548569,0.0,9.161261578752576,,,0,19,0.0,16431,175537926936174,9,39.55663299560547,-452.6688388217715,0.050326770216996136,1,-546528.0450173395,9.56167874392122E-4,1.57542003E9,,,,0,,1,,1.57542003E9
Raw,2064867145,1121291000000,,,-1311985616708548569,0.0,9.161261578752576,,,0,21,0.0,16431,175537916428494,24,31.701519012451172,480.8355011185481,0.12419691257746962,4,571885.325148698,3.4028234663852886E38,1.57542003E9,,,,0,,1,,1.57542003E9
Raw,2064867145,1121291000000,,,-1311985616708548569,0.0,9.161261578752576,,,0,22,0.0,16431,175537922894048,33,28.953527450561523,101.67254337733158,0.16688176947736022,4,1116.962488343665,3.4028234663852886E38,1.57542003E9,,,,0,,1,,1.57542003E9
Raw,2064867145,1121291000000,,,-1311985616708548569,0.0,9.161261578752576,,,0,24,0.0,16431,175537915913950,16,35.3350715637207,-434.80857504766664,0.08265737100061837,4,-547501.2419403833,3.4028234663852886E38,1.57542003E9,,,,0,,1,,1.57542003E9
Raw,2064867146,1121291000000,,,-1311985616708548569,0.0,9.161261578752576,,,0,30,0.0,16,1121001953832,1000000000,7.0,476.94045573975177,2.99792458E8,2,0.47230739387711007,3.4028234663852886E38,1.57542003E9,,,,0,,1,,1.57542003E9
Raw,2064867146,1121291000000,,,-1311985616708548569,0.0,9.161261578752576,,,0,10,0.0,32995,13519920388639,36,34.276695251464844,-873.3330240001892,0.09380243413452422,4,-579450.847921709,3.4028234663852886E38,1.59806246E9,,,,0,,3,,1.59806246E9
Raw,2064867146,1121291000000,,,-1311985616708548569,0.0,9.161261578752576,,,0,2,0.0,32995,13519919941733,51,31.305152893066406,-70.39403351142454,0.13048971894948297,4,-7134.108851397698,3.4028234663852886E38,1.59975002E9,,,,0,,3,,1.59975002E9
Raw,2064867147,1121291000000,,,-1311985616708548569,0.0,9.161261578752576,,,0,18,0.0,32995,13519928585844,37,34.01354217529297,373.3779464214749,0.09445198950648226,1,32750.21850095416,0.0017818869091570377,1.60031245E9,,,,0,,3,,1.60031245E9
Raw,2064867147,1121291000000,,,-1311985616708548569,0.0,9.161261578752576,,,0,9,0.0,32995,13519932447880,33,43.43614959716797,-444.2121974619622,0.03363844016447495,4,-584277.9323140729,3.4028234663852886E38,1.59862502E9,,,,0,,3,,1.59862502E9
Raw,2064867147,1121291000000,,,-1311985616708548569,0.0,9.161261578752576,,,0,16,0.0,16,1121003176173,1000000000,25.870628356933594,328.33225427388516,2.99792458E8,2,0.9912296537067409,3.4028234663852886E38,1.60143744E9,,,,0,,3,,1.60143744E9
Raw,2064867147,1121291000000,,,-1311985616708548569,0.0,9.161261578752576,,,0,20,0.0,99,1923830388,46,32.14820861816406,-584.0334303994005,0.11585335081734621,4,-15205.964833107975,3.4028234663852886E38,1.60312499E9,,,,0,,3,,1.60312499E9
Raw,2064867148,1121291000000,,,-1311985616708548569,0.0,9.161261578752576,,,0,19,0.0,32995,13519933127162,75,28.009626388549805,-47.22094529085922,0.18781989728307735,4,-3770.692342472856,3.4028234663852886E38,1.60368755E9,,,,0,,3,,1.60368755E9
Raw,2064867148,1121291000000,,,-1311985616708548569,0.0,9.161261578752576,,,0,3,0.0,99,1921567939,52,31.096988677978516,-545.1646722597222,0.13026274942639393,4,-541231.0782790997,3.4028234663852886E38,1.60481254E9,,,,0,,3,,1.60481254E9
Raw,2064867148,1121291000000,,,-1311985616708548569,0.0,9.161261578752576,,,0,193,0.0,35,11041529,37,28.068950653076172,-179.65486542127724,0.1861823750384819,4,-1257.9035356253376,3.4028234663852886E38,1.57542003E9,,,,0,,4,,1.57542003E9
Raw,2064867149,1121291000000,,,-1311985616708548569,0.0,9.161261578752576,,,0,194,0.0,35,15530154,6,43.53730773925781,-156.71343565769746,0.03382929900868341,4,-5814.186315471255,3.4028234663852886E38,1.57542003E9,,,,0,,4,,1.57542003E9
Raw,2064867149,1121291000000,,,-1311985616708548569,0.0,9.161261578752576,,,0,195,0.0,1,697541,27,30.634658813476562,-113.79951595946818,0.13847133766912073,4,-4086.6550438407817,3.4028234663852886E38,1.57542003E9,,,,0,,4,,1.57542003E9
Raw,2064867149,1121291000000,,,-1311985616708548569,0.0,9.161261578752576,,,0,7,0.0,16431,175523879566600,9,33.66242599487305,-105.51619241169152,0.10025976990420005,4,-116539.03317891303,3.4028234663852886E38,1.56109798E9,,,,0,,5,,1.56109798E9
Raw,2064867150,1121291000000,,,-1311985616708548569,0.0,9.161261578752576,,,0,8,0.0,16431,175523877714734,6,36.93806838989258,-217.3395649388965,0.06953400682190627,4,-238678.2060570408,3.4028234663852886E38,1.56109798E9,,,,0,,5,,1.56109798E9
Raw,2064867150,1121291000000,,,-1311985616708548569,0.0,9.161261578752576,,,0,10,0.0,16431,175523880056597,9,34.378883361816406,-168.14799757373078,0.09268850529244288,4,-155756.1671325673,3.4028234663852886E38,1.56109798E9,,,,0,,5,,1.56109798E9
Raw,2064867150,1121291000000,,,-1311985616708548569,0.0,9.161261578752576,,,0,32,0.0,17,183521,7,36.44744873046875,-644.7452600175261,0.0723945409075542,4,-13543.249145786054,3.4028234663852886E38,1.56109798E9,,,,0,,5,,1.56109798E9
Raw,2064867150,1121291000000,,,-1311985616708548569,0.0,9.161261578752576,,,0,33,0.0,16431,175523910822051,11,32.39234924316406,-16.04862144840253,0.11391898834960751,4,-1333.6773525335175,3.4028234663852886E38,1.56109798E9,,,,0,,5,,1.56109798E9
Raw,2064867151,1121291000000,,,-1311985616708548569,0.0,9.161261578752576,,,0,36,0.0,16431,175523920169074,6,40.61256408691406,-366.35900532516735,0.04708895764960974,4,-19205.00067445498,3.4028234663852886E38,1.56109798E9,,,,0,,5,,1.56109798E9
Fix,gps,34.486770,109.464164,357.064423,1.009894,3.000000,1627951520999
Raw,2064868146,1122291000000,,,-1311985616708548954,0.0,9.27135758668845,,,0,1,0.0,16431,175538926000770,32,29.197572708129883,480.9720354393785,0.16283143231139774,4,569246.6297896889,3.4028234663852886E38,1.57542003E9,,,,0,,1,,1.57542003E9
Raw,2064868147,1122291000000,,,-1311985616708548954,0.0,9.27135758668845,,,0,3,0.0,16431,175538925657449,28,30.331403732299805,-234.47654786190253,0.14297508966379036,4,-27566.519016805058,3.4028234663852886E38,1.57542003E9,,,,0,,1,,1.57542003E9
Raw,2064868147,1122291000000,,,-1311985616708548954,0.0,9.27135758668845,,,0,6,0.0,16,1122003511002,1000000000,14.647405624389648,-671.6895550111121,2.99792458E8,2,-524290.0046041699,3.4028234663852886E38,1.57542003E9,,,,0,,1,,1.57542003E9
Raw,2064868147,1122291000000,,,-1311985616708548954,0.0,9.27135758668845,,,0,7,0.0,16,1122015829506,1000000000,7.0,541.1761046202273,2.99792458E8,2,8.115558323851356,3.4028234663852886E38,1.57542003E9,,,,0,,1,,1.57542003E9
Raw,2064868147,1122291000000,,,-1311985616708548954,0.0,9.27135758668845,,,0,14,0.0,16431,175538932306988,11,38.15236282348633,-118.54181712496506,0.05990500557667219,4,-197428.93811334044,3.4028234663852886E38,1.57542003E9,,,,0,,1,,1.57542003E9
Raw,2064868148,1122291000000,,,-1311985616708548954,0.0,9.27135758668845,,,0,17,0.0,16431,175538929181117,18,34.22919464111328,-198.73949032227927,0.09228074730918023,1,-239425.8489263216,0.0017656554700806737,1.57542003E9,,,,0,,1,,1.57542003E9
Raw,2064868148,1122291000000,,,-1311985616708548954,0.0,9.27135758668845,,,0,19,0.0,16431,175538926937657,9,40.152366638183594,-452.3012936106295,0.04707370957793541,1,-546980.6667445909,8.927858434617519E-4,1.57542003E9,,,,0,,1,,1.57542003E9
Raw,2064868148,1122291000000,,,-1311985616708548954,0.0,9.27135758668845,,,0,21,0.0,16431,175538916426945,26,31.159292221069336,480.72844812260996,0.13200652139934382,4,572366.118170334,3.4028234663852886E38,1.57542003E9,,,,0,,1,,1.57542003E9
Raw,2064868149,1122291000000,,,-1311985616708548954,0.0,9.27135758668845,,,0,22,0.0,16431,175538922893696,38,27.74239730834961,102.34357582258093,0.19177361201614362,4,1219.6973453404773,3.4028234663852886E38,1.57542003E9,,,,0,,1,,1.57542003E9
Raw,2064868150,1122291000000,,,-1311985616708548954,0.0,9.27135758668845,,,0,24,0.0,16431,175538915915405,23,32.07664489746094,-435.74008266689157,0.11897985870219419,4,-547935.9089725234,3.4028234663852886E38,1.57542003E9,,,,0,,1,,1.57542003E9
Raw,2064868150,1122291000000,,,-1311985616708548954,0.0,9.27135758668845,,,0,30,0.0,16,1122001952241,1000000000,7.0,476.94045573975177,2.99792458E8,2,0.4685776544849607,3.4028234663852886E38,1.57542003E9,,,,0,,1,,1.57542003E9
Raw,2064868150,1122291000000,,,-1311985616708548954,0.0,9.27135758668845,,,0,10,0.0,32995,13520920391569,42,32.88179016113281,-873.1498648788356,0.10950530190899133,4,-580324.1007785071,3.4028234663852886E38,1.59806246E9,,,,0,,3,,1.59806246E9
Raw,2064868151,1122291000000,,,-1311985616708548954,0.0,9.27135758668845,,,0,2,0.0,32995,13520919941945,55,30.63047218322754,-70.53113871340167,0.1407399262186836,4,-7204.577971105871,3.4028234663852886E38,1.59975002E9,,,,0,,3,,1.59975002E9
Raw,2064868151,1122291000000,,,-1311985616708548954,0.0,9.27135758668845,,,0,18,0.0,32995,13520928584490,33,36.02354049682617,373.28728708712424,0.07525837423490411,1,33123.55795221586,0.0014137749094516039,1.60031245E9,,,,0,,3,,1.60031245E9
Raw,2064868151,1122291000000,,,-1311985616708548954,0.0,9.27135758668845,,,0,9,0.0,32995,13520932449378,33,44.02761459350586,-444.00729373334707,0.03223934325889084,1,-584722.1307151094,5.927924066781998E-4,1.59862502E9,,,,0,,3,,1.59862502E9
Raw,2064868151,1122291000000,,,-1311985616708548954,0.0,9.27135758668845,,,0,16,0.0,16,1122003175199,1000000000,21.27842140197754,328.5147317461083,2.99792458E8,2,0.9866374238751348,3.4028234663852886E38,1.60143744E9,,,,0,,3,,1.60143744E9
Raw,2064868152,1122291000000,,,-1311985616708548954,0.0,9.27135758668845,,,0,20,0.0,99,923832375,57,30.352840423583984,-583.7812883860447,0.14229690203282475,4,-15789.940955579388,3.4028234663852886E38,1.60312499E9,,,,0,,3,,1.60312499E9
Raw,2064868152,1122291000000,,,-1311985616708548954,0.0,9.27135758668845,,,0,19,0.0,32995,13520933127340,93,26.10516929626465,-47.47680229197596,0.23328572786626167,4,-3817.6002908339688,3.4028234663852886E38,1.60368755E9,,,,0,,3,,1.60368755E9
Raw,2064868152,1122291000000,,,-1311985616708548954,0.0,9.27135758668845,,,0,3,0.0,99,921569700,60,29.880861282348633,-544.5571524722031,0.14979753874151414,4,-541775.9713480762,3.4028234663852886E38,1.60481254E9,,,,0,,3,,1.60481254E9
Raw,2064868153,1122291000000,,,-1311985616708548954,0.0,9.27135758668845,,,0,193,0.0,35,11042128,34,28.68305206298828,-179.89439692571955,0.17360931023010862,4,-1437.6293208051036,3.4028234663852886E38,1.57542003E9,,,,0,,4,,1.57542003E9
Raw,2064868153,1122291000000,,,-1311985616708548954,0.0,9.27135758668845,,,0,194,0.0,35,15530672,6,43.727783203125,-156.6540299359782,0.03315619961555073,4,-5970.807107473288,3.4028234663852886E38,1.57542003E9,,,,0,,4,,1.57542003E9
Raw,2064868153,1122291000000,,,-1311985616708548954,0.0,9.27135758668845,,,0,195,0.0,1,697972,26,31.09749412536621,-113.76164182965721,0.1313578230813462,4,-4200.389835319653,3.4028234663852886E38,1.57542003E9,,,,0,,4,,1.57542003E9
Raw,2064868153,1122291000000,,,-1311985616708548954,0.0,9.27135758668845,,,0,7,0.0,16431,175524879566960,9,34.00585174560547,-105.47227716646188,0.09650950979624101,4,-116644.4867592638,3.4028234663852886E38,1.56109798E9,,,,0,,5,,1.56109798E9
Raw,2064868154,1122291000000,,,-1311985616708548954,0.0,9.27135758668845,,,0,8,0.0,16431,175524877715461,6,38.27994918823242,-217.16051275355392,0.06003663408734952,4,-238895.47802517336,3.4028234663852886E38,1.56109798E9,,,,0,,5,,1.56109798E9
Raw,2064868154,1122291000000,,,-1311985616708548954,0.0,9.27135758668845,,,0,10,0.0,16431,175524880057181,10,33.35223388671875,-167.8556382616781,0.10386525446014727,4,-155924.08571195547,3.4028234663852886E38,1.56109798E9,,,,0,,5,,1.56109798E9
Raw,2064868154,1122291000000,,,-1311985616708548954,0.0,9.27135758668845,,,0,32,0.0,17,185682,8,34.63838195800781,-644.8440991414423,0.08865073270395829,4,-14187.980821383442,3.4028234663852886E38,1.56109798E9,,,,0,,5,,1.56109798E9
Raw,2064868155,1122291000000,,,-1311985616708548954,0.0,9.27135758668845,,,0,33,0.0,16431,175524910822087,10,32.75592803955078,-15.987801304737573,0.10932876543497083,4,-1349.7052440876996,3.4028234663852886E38,1.56109798E9,,,,0,,5,,1.56109798E9
Raw,2064868155,1122291000000,,,-1311985616708548954,0.0,9.27135758668845,,,0,36,0.0,16431,175524920170304,6,37.418128967285156,-366.04885497080977,0.06640825197961575,4,-19571.289644237993,3.4028234663852886E38,1.56109798E9,,,,0,,5,,1.56109798E9
Fix,gps,34.486770,109.464163,357.056885,0.890569,3.000000,1627951521999
Raw,2064869157,1123291000000,,,-1311985616708549338,0.0,9.273127081965415,,,0,1,0.0,16431,175539925999082,38,27.823577880859375,480.9150154896158,0.190553017400096,4,569727.5956348568,3.4028234663852886E38,1.57542003E9,,,,0,,1,,1.57542003E9
Raw,2064869157,1123291000000,,,-1311985616708549338,0.0,9.273127081965415,,,0,3,0.0,16431,175539925658237,37,28.109214782714844,-234.5196621694039,0.18436215884481055,4,-27801.063552074436,3.4028234663852886E38,1.57542003E9,,,,0,,1,,1.57542003E9
Raw,2064869157,1123291000000,,,-1311985616708549338,0.0,9.273127081965415,,,0,6,0.0,16,1123003513243,1000000000,8.96537971496582,-671.6895550111121,2.99792458E8,2,-524289.9993514661,3.4028234663852886E38,1.57542003E9,,,,0,,1,,1.57542003E9
Raw,2064869157,1123291000000,,,-1311985616708549338,0.0,9.273127081965415,,,0,7,0.0,16,1123015827701,1000000000,7.0,541.1761046202273,2.99792458E8,2,8.111326252746155,3.4028234663852886E38,1.57542003E9,,,,0,,1,,1.57542003E9
Raw,2064869158,1123291000000,,,-1311985616708549338,0.0,9.273127081965415,,,0,14,0.0,16431,175539932307371,11,38.566810607910156,-118.45519656171234,0.057216997285346516,4,-197547.44152594192,3.4028234663852886E38,1.57542003E9,,,,0,,1,,1.57542003E9
Raw,2064869158,1123291000000,,,-1311985616708549338,0.0,9.273127081965415,,,0,17,0.0,16431,175539929181744,27,30.756845474243164,-198.46354171304233,0.13682338100058006,4,-239624.48124436478,3.4028234663852886E38,1.57542003E9,,,,0,,1,,1.57542003E9
Raw,2064869158,1123291000000,,,-1311985616708549338,0.0,9.273127081965415,,,0,19,0.0,16431,175539926939178,6,43.015525817871094,-452.60541137018254,0.03420552489502389,4,-547433.2728371847,3.4028234663852886E38,1.57542003E9,,,,0,,1,,1.57542003E9
Raw,2064869158,1123291000000,,,-1311985616708549338,0.0,9.273127081965415,,,0,21,0.0,16431,175539916425313,16,34.931114196777344,481.00577707133607,0.0865480631444015,4,572847.0313376514,3.4028234663852886E38,1.57542003E9,,,,0,,1,,1.57542003E9
Raw,2064869159,1123291000000,,,-1311985616708549338,0.0,9.273127081965415,,,0,22,0.0,16431,175539922893342,41,27.059114456176758,102.29459081194352,0.20742621315978693,4,1322.4817531928109,3.4028234663852886E38,1.57542003E9,,,,0,,1,,1.57542003E9
Raw,2064869159,1123291000000,,,-1311985616708549338,0.0,9.273127081965415,,,0,24,0.0,16431,175539915916825,29,30.05060577392578,-435.362721708271,0.1494846724414024,4,-548370.9731794775,3.4028234663852886E38,1.57542003E9,,,,0,,1,,1.57542003E9
Raw,2064869159,1123291000000,,,-1311985616708549338,0.0,9.273127081965415,,,0,30,0.0,16,1123001950650,1000000000,7.0,476.94045573975177,2.99792458E8,2,0.4648479150425753,3.4028234663852886E38,1.57542003E9,,,,0,,1,,1.57542003E9
Raw,2064869159,1123291000000,,,-1311985616708549338,0.0,9.273127081965415,,,0,10,0.0,32995,13521920394438,33,37.7088623046875,-873.5304977532824,0.0643819559130264,4,-581197.5421082356,3.4028234663852886E38,1.59806246E9,,,,0,,3,,1.59806246E9
Raw,2064869160,1123291000000,,,-1311985616708549338,0.0,9.273127081965415,,,0,2,0.0,32995,13521919942110,54,30.814241409301758,-70.40127177312857,0.1378686539957938,4,-7274.953418856941,3.4028234663852886E38,1.59975002E9,,,,0,,3,,1.59975002E9
Raw,2064869160,1123291000000,,,-1311985616708549338,0.0,9.273127081965415,,,0,18,0.0,32995,13521928583279,33,39.16925811767578,373.231664518079,0.05286143241670588,4,33496.82842680548,3.4028234663852886E38,1.60031245E9,,,,0,,3,,1.60031245E9
Raw,2064869161,1123291000000,,,-1311985616708549338,0.0,9.273127081965415,,,0,9,0.0,32995,13521932450901,33,42.93166732788086,-444.16758352637385,0.035516678079174996,4,-585166.2349118534,3.4028234663852886E38,1.59862502E9,,,,0,,3,,1.59862502E9
Raw,2064869161,1123291000000,,,-1311985616708549338,0.0,9.273127081965415,,,0,16,0.0,16,1123003174104,1000000000,25.773611068725586,328.5147317461083,2.99792458E8,2,0.9814943365437105,3.4028234663852886E38,1.60143744E9,,,,0,,3,,1.60143744E9
Raw,2064869161,1123291000000,,,-1311985616708549338,0.0,9.273127081965415,,,0,20,0.0,99,1923834296,64,29.28428840637207,-583.8960099347005,0.16083491262924854,4,-16373.81552704232,3.4028234663852886E38,1.60312499E9,,,,0,,3,,1.60312499E9
Raw,2064869161,1123291000000,,,-1311985616708549338,0.0,9.273127081965415,,,0,19,0.0,32995,13521933127423,63,22.233516693115234,-47.15625252807186,4.202361297609498,4,-3864.6800588342785,3.4028234663852886E38,1.60368755E9,,,,0,,3,,1.60368755E9
Raw,2064869162,1123291000000,,,-1311985616708549338,0.0,9.273127081965415,,,0,3,0.0,99,1921571498,77,27.77412223815918,-544.5009164189405,0.19083850789894796,4,-542320.5457684802,3.4028234663852886E38,1.60481254E9,,,,0,,3,,1.60481254E9
Raw,2064869162,1123291000000,,,-1311985616708549338,0.0,9.273127081965415,,,0,193,0.0,35,11042727,25,31.395498275756836,-179.75672084259566,0.12757584365593966,4,-1617.3871430293946,3.4028234663852886E38,1.57542003E9,,,,0,,4,,1.57542003E9
Raw,2064869162,1123291000000,,,-1311985616708549338,0.0,9.273127081965415,,,0,194,0.0,35,15531193,6,44.059356689453125,-156.59043207210664,0.03279368035189267,4,-6127.428473871251,3.4028234663852886E38,1.57542003E9,,,,0,,4,,1.57542003E9
Raw,2064869162,1123291000000,,,-1311985616708549338,0.0,9.273127081965415,,,0,195,0.0,1,698299,28,30.497323989868164,-113.782815555772,0.14065620119975475,4,-4314.1503138490425,3.4028234663852886E38,1.57542003E9,,,,0,,4,,1.57542003E9
Raw,2064869163,1123291000000,,,-1311985616708549338,0.0,9.273127081965415,,,0,7,0.0,16431,175525879567313,9,33.794342041015625,-105.59492288625921,0.09880177134111817,4,-116750.02400207556,3.4028234663852886E38,1.56109798E9,,,,0,,5,,1.56109798E9
Raw,2064869163,1123291000000,,,-1311985616708549338,0.0,9.273127081965415,,,0,8,0.0,16431,175525877716186,6,37.70686340332031,-217.05599890062672,0.06391417086888593,4,-239112.63320898218,3.4028234663852886E38,1.56109798E9,,,,0,,5,,1.56109798E9
Raw,2064869163,1123291000000,,,-1311985616708549338,0.0,9.273127081965415,,,0,10,0.0,16431,175525880057740,15,29.423667907714844,-167.90546681311446,0.16120384523601328,4,-156091.97028600398,3.4028234663852886E38,1.56109798E9,,,,0,,5,,1.56109798E9
Raw,2064869163,1123291000000,,,-1311985616708549338,0.0,9.273127081965415,,,0,32,0.0,17,187831,11,32.236793518066406,-644.4443119264297,0.11618802622843116,4,-14832.594697090883,3.4028234663852886E38,1.56109798E9,,,,0,,5,,1.56109798E9
Raw,2064869164,1123291000000,,,-1311985616708549338,0.0,9.273127081965415,,,0,33,0.0,16431,175525910822145,13,31.161632537841797,-15.689366794809715,0.1309635865804687,4,-1365.5545397874187,3.4028234663852886E38,1.56109798E9,,,,0,,5,,1.56109798E9
Raw,2064869164,1123291000000,,,-1311985616708549338,0.0,9.273127081965415,,,0,36,0.0,16431,175525920171524,6,39.536041259765625,-366.2410459431419,0.05282397166981484,4,-19937.50711530991,3.4028234663852886E38,1.56109798E9,,,,0,,5,,1.56109798E9
Fix,gps,34.486771,109.464163,357.155304,0.883188,3.000000,1627951522999
Raw,2064870149,1124291000000,,,-1311985616708549725,0.0,9.527983709132618,,,0,1,0.0,16431,175540925997339,36,28.1852970123291,481.0384280646849,0.1828242046360432,4,570208.6911045599,3.4028234663852886E38,1.57542003E9,,,,0,,1,,1.57542003E9
Raw,2064870150,1124291000000,,,-1311985616708549725,0.0,9.527983709132618,,,0,3,0.0,16431,175540925659012,49,25.51062774658203,-234.62630617586376,0.24830244489675235,4,-28035.523120906906,3.4028234663852886E38,1.57542003E9,,,,0,,1,,1.57542003E9
Raw,2064870150,1124291000000,,,-1311985616708549725,0.0,9.527983709132618,,,0,6,0.0,16,1124003515483,1000000000,20.561054229736328,-671.6895550111121,2.99792458E8,2,-524289.994098762,3.4028234663852886E38,1.57542003E9,,,,0,,1,,1.57542003E9
Raw,2064870150,1124291000000,,,-1311985616708549725,0.0,9.527983709132618,,,0,7,0.0,16,1124015825896,1000000000,10.203912734985352,541.1761046202273,2.99792458E8,2,8.107094181732329,3.4028234663852886E38,1.57542003E9,,,,0,,1,,1.57542003E9
Raw,2064870151,1124291000000,,,-1311985616708549725,0.0,9.527983709132618,,,0,14,0.0,16431,175540932307831,16,35.04352569580078,-118.4200234665808,0.08473253994523183,4,-197665.89421091537,3.4028234663852886E38,1.57542003E9,,,,0,,1,,1.57542003E9
Raw,2064870151,1124291000000,,,-1311985616708549725,0.0,9.527983709132618,,,0,17,0.0,16431,175540929182467,11,38.08567810058594,-198.64046374485224,0.059787618307288515,4,-239823.1674930273,3.4028234663852886E38,1.57542003E9,,,,0,,1,,1.57542003E9
Raw,2064870151,1124291000000,,,-1311985616708549725,0.0,9.527983709132618,,,0,19,0.0,16431,175540926940761,6,45.20930480957031,-452.60800163687827,0.03124847238788271,4,-547885.9414861612,3.4028234663852886E38,1.57542003E9,,,,0,,1,,1.57542003E9
Raw,2064870152,1124291000000,,,-1311985616708549725,0.0,9.527983709132618,,,0,21,0.0,16431,175540916423883,20,33.40113067626953,481.1026394127739,0.102648920151165,4,573328.084049796,3.4028234663852886E38,1.57542003E9,,,,0,,1,,1.57542003E9
Raw,2064870152,1124291000000,,,-1311985616708549725,0.0,9.527983709132618,,,0,22,0.0,16431,175540922893001,43,26.778303146362305,102.22762730549033,0.21422463144297021,4,1425.204592449168,3.4028234663852886E38,1.57542003E9,,,,0,,1,,1.57542003E9
Raw,2064870152,1124291000000,,,-1311985616708549725,0.0,9.527983709132618,,,0,24,0.0,16431,175540915918251,40,27.329784393310547,-435.28133280209454,0.20342090877085117,4,-548805.9356850857,3.4028234663852886E38,1.57542003E9,,,,0,,1,,1.57542003E9
Raw,2064870152,1124291000000,,,-1311985616708549725,0.0,9.527983709132618,,,0,30,0.0,16,1124001949059,1000000000,14.682474136352539,476.94045573975177,2.99792458E8,2,0.4760371333549933,3.4028234663852886E38,1.57542003E9,,,,0,,1,,1.57542003E9
Raw,2064870153,1124291000000,,,-1311985616708549725,0.0,9.527983709132618,,,0,10,0.0,32995,13522920397474,38,33.76185607910156,-873.3006456664925,0.09930813213438944,4,-582070.8240306204,3.4028234663852886E38,1.59806246E9,,,,0,,3,,1.59806246E9
Raw,2064870153,1124291000000,,,-1311985616708549725,0.0,9.527983709132618,,,0,2,0.0,32995,13522919942390,36,34.296199798583984,-70.38187459506003,0.09352002237319995,4,-7345.214386577122,3.4028234663852886E38,1.59975002E9,,,,0,,3,,1.59975002E9
Raw,2064870153,1124291000000,,,-1311985616708549725,0.0,9.527983709132618,,,0,18,0.0,32995,13522928582071,33,37.20246887207031,373.25801025697115,0.06590207840686982,4,33870.12937670323,3.4028234663852886E38,1.60031245E9,,,,0,,3,,1.60031245E9
Raw,2064870154,1124291000000,,,-1311985616708549725,0.0,9.527983709132618,,,0,9,0.0,32995,13522932452421,33,37.1011962890625,-444.10037292211086,0.06735302499683082,4,-585610.3084205721,3.4028234663852886E38,1.59862502E9,,,,0,,3,,1.59862502E9
Raw,2064870154,1124291000000,,,-1311985616708549725,0.0,9.527983709132618,,,0,16,0.0,17,173063,57,30.260303497314453,328.54008909376125,0.1454937465888122,4,267.140943099966,3.4028234663852886E38,1.60143744E9,,,,0,,3,,1.60143744E9
Raw,2064870154,1124291000000,,,-1311985616708549725,0.0,9.527983709132618,,,0,20,0.0,99,923836223,102,25.338306427001953,-583.8540885131774,0.2529295044898623,4,-16957.736672114235,3.4028234663852886E38,1.60312499E9,,,,0,,3,,1.60312499E9
Raw,2064870155,1124291000000,,,-1311985616708549725,0.0,9.527983709132618,,,0,19,0.0,16,1124003127564,1000000000,7.0,-47.09908772786898,2.99792458E8,2,-0.1399792790457468,3.4028234663852886E38,1.60368755E9,,,,0,,3,,1.60368755E9
Raw,2064870155,1124291000000,,,-1311985616708549725,0.0,9.527983709132618,,,0,3,0.0,99,921573409,81,27.26234245300293,-544.4844205099835,0.20240394351906776,4,-542865.185693205,3.4028234663852886E38,1.60481254E9,,,,0,,3,,1.60481254E9
Raw,2064870155,1124291000000,,,-1311985616708549725,0.0,9.527983709132618,,,0,193,0.0,35,11043364,22,32.43244934082031,-179.6800523566476,0.11344304881147477,4,-1797.092192688312,3.4028234663852886E38,1.57542003E9,,,,0,,4,,1.57542003E9
Raw,2064870156,1124291000000,,,-1311985616708549725,0.0,9.527983709132618,,,0,194,0.0,35,15531788,12,37.37060546875,-156.50398192113653,0.065918304185732,4,-6283.918687598595,3.4028234663852886E38,1.57542003E9,,,,0,,4,,1.57542003E9
Raw,2064870156,1124291000000,,,-1311985616708549725,0.0,9.527983709132618,,,0,195,0.0,1,698684,49,25.65240478515625,-114.00284337446914,0.24466574027809185,4,-4428.033617927525,3.4028234663852886E38,1.57542003E9,,,,0,,4,,1.57542003E9
Raw,2064870157,1124291000000,,,-1311985616708549725,0.0,9.527983709132618,,,0,7,0.0,16431,175526879567723,11,32.05375671386719,-105.63761116305403,0.11994321231643451,4,-116855.48097925328,3.4028234663852886E38,1.56109798E9,,,,0,,5,,1.56109798E9
Raw,2064870157,1124291000000,,,-1311985616708549725,0.0,9.527983709132618,,,0,8,0.0,16431,175526877716958,6,37.334930419921875,-217.23440351929537,0.06657117960167261,4,-239329.87808949966,3.4028234663852886E38,1.56109798E9,,,,0,,5,,1.56109798E9
Raw,2064870157,1124291000000,,,-1311985616708549725,0.0,9.527983709132618,,,0,10,0.0,16431,175526880058314,11,31.943721771240234,-167.91574267375609,0.12151573991554665,4,-156259.90471606917,3.4028234663852886E38,1.56109798E9,,,,0,,5,,1.56109798E9
Raw,2064870158,1124291000000,,,-1311985616708549725,0.0,9.527983709132618,,,0,32,0.0,17,190028,7,35.77876663208008,-644.544923338085,0.07801379439671796,4,-15477.223712150744,3.4028234663852886E38,1.56109798E9,,,,0,,5,,1.56109798E9
Raw,2064870158,1124291000000,,,-1311985616708549725,0.0,9.527983709132618,,,0,33,0.0,16431,175526910822242,13,31.125938415527344,-15.77028600213223,0.13149490178953877,4,-1381.2644658537918,3.4028234663852886E38,1.56109798E9,,,,0,,5,,1.56109798E9
Raw,2064870159,1124291000000,,,-1311985616708549725,0.0,9.527983709132618,,,0,36,0.0,16431,175526920172764,15,29.77135467529297,-366.72116550817873,0.15504069531847708,4,-20303.913301062206,3.4028234663852886E38,1.56109798E9,,,,0,,5,,1.56109798E9
Fix,gps,34.486771,109.464164,357.226135,0.879822,3.000000,1627951523999
Raw,2064871134,1125291000000,,,-1311985616708550112,0.0,9.649826779871214,,,0,1,0.0,16431,175541925995744,34,28.756906509399414,481.1975590541899,0.1712485176520474,4,570689.877400443,3.4028234663852886E38,1.57542003E9,,,,0,,1,,1.57542003E9
Raw,2064871134,1125291000000,,,-1311985616708550112,0.0,9.649826779871214,,,0,3,0.0,16431,175541925659767,42,27.01074981689453,-234.34093376739827,0.2090791623756698,4,-28269.8604960466,3.4028234663852886E38,1.57542003E9,,,,0,,1,,1.57542003E9
Raw,2064871135,1125291000000,,,-1311985616708550112,0.0,9.649826779871214,,,0,6,0.0,16,1125003517724,1000000000,19.315677642822266,-671.6895550111121,2.99792458E8,2,-524290.0098568739,3.4028234663852886E38,1.57542003E9,,,,0,,1,,1.57542003E9
Raw,2064871135,1125291000000,,,-1311985616708550112,0.0,9.649826779871214,,,0,7,0.0,16,1125015824090,1000000000,7.0,541.1761046202273,2.99792458E8,2,8.102862110647028,3.4028234663852886E38,1.57542003E9,,,,0,,1,,1.57542003E9
Raw,2064871135,1125291000000,,,-1311985616708550112,0.0,9.649826779871214,,,0,14,0.0,16431,175541932308221,14,36.3243293762207,-118.49751845209954,0.0734191697195079,4,-197784.32330017886,3.4028234663852886E38,1.57542003E9,,,,0,,1,,1.57542003E9
Raw,2064871135,1125291000000,,,-1311985616708550112,0.0,9.649826779871214,,,0,17,0.0,16431,175541929183114,9,39.51897430419922,-198.73233300640948,0.050944177744526475,4,-240021.90301517348,3.4028234663852886E38,1.57542003E9,,,,0,,1,,1.57542003E9
Raw,2064871136,1125291000000,,,-1311985616708550112,0.0,9.649826779871214,,,0,19,0.0,16431,175541926942219,6,46.29588317871094,-452.54743711163724,0.031248734496618177,4,-548338.4677621903,3.4028234663852886E38,1.57542003E9,,,,0,,1,,1.57542003E9
Raw,2064871136,1125291000000,,,-1311985616708550112,0.0,9.649826779871214,,,0,21,0.0,16431,175541916422145,15,35.84092330932617,481.0773843124905,0.07823439842194568,4,573809.0680894469,3.4028234663852886E38,1.57542003E9,,,,0,,1,,1.57542003E9
Raw,2064871136,1125291000000,,,-1311985616708550112,0.0,9.649826779871214,,,0,22,0.0,16431,175541922892709,32,29.319908142089844,102.47937737059607,0.1600101271664912,4,1527.666338011264,3.4028234663852886E38,1.57542003E9,,,,0,,1,,1.57542003E9
Raw,2064871137,1125291000000,,,-1311985616708550112,0.0,9.649826779871214,,,0,24,0.0,16431,175541915919655,40,27.449295043945312,-435.0376091554999,0.20068058274383527,4,-549240.7583292116,3.4028234663852886E38,1.57542003E9,,,,0,,1,,1.57542003E9
Raw,2064871137,1125291000000,,,-1311985616708550112,0.0,9.649826779871214,,,0,30,0.0,16,1125001947469,1000000000,16.92418670654297,476.94045573975177,2.99792458E8,2,0.47230739385440024,3.4028234663852886E38,1.57542003E9,,,,0,,1,,1.57542003E9
Raw,2064871137,1125291000000,,,-1311985616708550112,0.0,9.649826779871214,,,0,10,0.0,32995,13523920400356,33,36.547142028808594,-873.1382086787048,0.07307138887164966,4,-582943.9576266587,3.4028234663852886E38,1.59806246E9,,,,0,,3,,1.59806246E9
Raw,2064871138,1125291000000,,,-1311985616708550112,0.0,9.649826779871214,,,0,2,0.0,32995,13523919942422,38,33.70027542114258,-70.06247511406357,0.09990675520254472,4,-7415.302242113729,3.4028234663852886E38,1.59975002E9,,,,0,,3,,1.59975002E9
Raw,2064871138,1125291000000,,,-1311985616708550112,0.0,9.649826779871214,,,0,18,0.0,32995,13523928580844,53,31.015071868896484,373.2809136677545,0.13275588611358485,4,34243.52350929221,3.4028234663852886E38,1.60031245E9,,,,0,,3,,1.60031245E9
Raw,2064871138,1125291000000,,,-1311985616708550112,0.0,9.649826779871214,,,0,9,0.0,32995,13523932453900,33,36.140106201171875,-443.95095543271486,0.07497174377107568,4,-586054.1803459845,3.4028234663852886E38,1.59862502E9,,,,0,,3,,1.59862502E9
Raw,2064871138,1125291000000,,,-1311985616708550112,0.0,9.649826779871214,,,0,16,0.0,17,171914,58,30.10886001586914,328.74863964522433,0.14801090574963138,4,596.001500289007,3.4028234663852886E38,1.60143744E9,,,,0,,3,,1.60143744E9
Raw,2064871139,1125291000000,,,-1311985616708550112,0.0,9.649826779871214,,,0,20,0.0,99,1923838192,116,24.176359176635742,-583.7395032943477,0.28903407582086293,4,-17541.462985155562,3.4028234663852886E38,1.60312499E9,,,,0,,3,,1.60312499E9
Raw,2064871139,1125291000000,,,-1311985616708550112,0.0,9.649826779871214,,,0,19,0.0,16,1125003127721,1000000000,26.300888061523438,-47.09908772786898,2.99792458E8,2,-0.1421913692359556,3.4028234663852886E38,1.60368755E9,,,,0,,3,,1.60368755E9
Raw,2064871139,1125291000000,,,-1311985616708550112,0.0,9.649826779871214,,,0,3,0.0,99,1921575166,55,30.68202018737793,-544.5988353165305,0.13662461104906226,4,-543409.8199380884,3.4028234663852886E38,1.60481254E9,,,,0,,3,,1.60481254E9
Raw,2064871140,1125291000000,,,-1311985616708550112,0.0,9.649826779871214,,,0,193,0.0,35,11043955,20,33.052677154541016,-179.74917157847585,0.10576193983727677,4,-1976.9154562352876,3.4028234663852886E38,1.57542003E9,,,,0,,4,,1.57542003E9
Raw,2064871140,1125291000000,,,-1311985616708550112,0.0,9.649826779871214,,,0,194,0.0,35,15532267,10,39.28388214111328,-156.61425570921608,0.05343859169174578,4,-6440.555005304331,3.4028234663852886E38,1.57542003E9,,,,0,,4,,1.57542003E9
Raw,2064871140,1125291000000,,,-1311985616708550112,0.0,9.649826779871214,,,0,195,0.0,1,699123,45,26.303409576416016,-113.75348760193413,0.22709858043783393,4,-4541.802868270603,3.4028234663852886E38,1.57542003E9,,,,0,,4,,1.57542003E9
Raw,2064871141,1125291000000,,,-1311985616708550112,0.0,9.649826779871214,,,0,7,0.0,16431,175527879568077,13,30.648399353027344,-105.45222816141234,0.14038988208269687,4,-116960.9690528167,3.4028234663852886E38,1.56109798E9,,,,0,,5,,1.56109798E9
Raw,2064871141,1125291000000,,,-1311985616708550112,0.0,9.649826779871214,,,0,8,0.0,16431,175527877717669,6,39.023963928222656,-217.38189534989783,0.05537012088886778,4,-239547.17897814242,3.4028234663852886E38,1.56109798E9,,,,0,,5,,1.56109798E9
Raw,2064871141,1125291000000,,,-1311985616708550112,0.0,9.649826779871214,,,0,10,0.0,16431,175527880058861,9,34.0724983215332,-168.03642865230336,0.09588722205368366,4,-156427.81837149893,3.4028234663852886E38,1.56109798E9,,,,0,,5,,1.56109798E9
Raw,2064871142,1125291000000,,,-1311985616708550112,0.0,9.649826779871214,,,0,32,0.0,17,192180,11,32.021663665771484,-644.7162217645687,0.11904752436050559,4,-16122.049418063709,3.4028234663852886E38,1.56109798E9,,,,0,,5,,1.56109798E9
Raw,2064871142,1125291000000,,,-1311985616708550112,0.0,9.649826779871214,,,0,33,0.0,16431,175527910822293,10,32.734554290771484,-15.953495182093832,0.10959333716045894,4,-1397.1115385302696,3.4028234663852886E38,1.56109798E9,,,,0,,5,,1.56109798E9
Raw,2064871143,1125291000000,,,-1311985616708550112,0.0,9.649826779871214,,,0,36,0.0,16431,175527920173978,15,29.688169479370117,-366.54577718691235,0.1564979866040188,4,-20670.035756915197,3.4028234663852886E38,1.56109798E9,,,,0,,5,,1.56109798E9
Fix,gps,34.486773,109.464167,357.213318,0.806154,3.000000,1627951524999
Raw,2064872147,1126291000000,,,-1311985616708550504,0.0,9.810332328313047,,,0,1,0.0,16431,175542925994182,47,25.998401641845703,481.137130858775,0.23485869647372237,4,571171.0839571997,3.4028234663852886E38,1.57542003E9,,,,0,,1,,1.57542003E9
Raw,2064872147,1126291000000,,,-1311985616708550504,0.0,9.810332328313047,,,0,3,0.0,16431,175542925660539,48,25.786334991455078,-234.1820924787737,0.24057672751205172,4,-28504.00110257812,3.4028234663852886E38,1.57542003E9,,,,0,,1,,1.57542003E9
Raw,2064872147,1126291000000,,,-1311985616708550504,0.0,9.810332328313047,,,0,6,0.0,16,1126003519964,1000000000,20.367321014404297,-671.6895550111121,2.99792458E8,2,-524290.0046041699,3.4028234663852886E38,1.57542003E9,,,,0,,1,,1.57542003E9
Raw,2064872148,1126291000000,,,-1311985616708550504,0.0,9.810332328313047,,,0,7,0.0,16,1126015822285,1000000000,7.0,541.1761046202273,2.99792458E8,2,8.115558323867692,3.4028234663852886E38,1.57542003E9,,,,0,,1,,1.57542003E9
Raw,2064872148,1126291000000,,,-1311985616708550504,0.0,9.810332328313047,,,0,14,0.0,16431,175542932308635,11,37.907928466796875,-118.40277774358026,0.06155189300799041,4,-197902.67635421266,3.4028234663852886E38,1.57542003E9,,,,0,,1,,1.57542003E9
Raw,2064872148,1126291000000,,,-1311985616708550504,0.0,9.810332328313047,,,0,17,0.0,16431,175542929183806,7,41.445682525634766,-198.73981410561623,0.04113804508004695,4,-240220.7021766254,3.4028234663852886E38,1.57542003E9,,,,0,,1,,1.57542003E9
Raw,2064872148,1126291000000,,,-1311985616708550504,0.0,9.810332328313047,,,0,19,0.0,16431,175542926943777,6,46.39161682128906,-452.6886066465547,0.031249013247178117,4,-548791.1205590983,3.4028234663852886E38,1.57542003E9,,,,0,,1,,1.57542003E9
Raw,2064872149,1126291000000,,,-1311985616708550504,0.0,9.810332328313047,,,0,21,0.0,16431,175542916420565,16,35.39995193481445,480.8795356523756,0.08215467972964363,4,574290.0685174657,3.4028234663852886E38,1.57542003E9,,,,0,,1,,1.57542003E9
Raw,2064872149,1126291000000,,,-1311985616708550504,0.0,9.810332328313047,,,0,22,0.0,16431,175542922892394,30,29.702547073364258,102.6704862249336,0.15313660432945664,4,1630.3670648459931,3.4028234663852886E38,1.57542003E9,,,,0,,1,,1.57542003E9
Raw,2064872149,1126291000000,,,-1311985616708550504,0.0,9.810332328313047,,,0,24,0.0,16431,175542915921252,28,30.476694107055664,-434.76406335944785,0.14246649886603957,4,-549675.3993176825,3.4028234663852886E38,1.57542003E9,,,,0,,1,,1.57542003E9
Raw,2064872150,1126291000000,,,-1311985616708550504,0.0,9.810332328313047,,,0,30,0.0,16,1126001945878,1000000000,7.0,476.94045573975177,2.99792458E8,2,0.4685776545204585,3.4028234663852886E38,1.57542003E9,,,,0,,1,,1.57542003E9
Raw,2064872150,1126291000000,,,-1311985616708550504,0.0,9.810332328313047,,,0,10,0.0,32995,13524920403313,33,38.195556640625,-873.3279797966238,0.06107517962501963,4,-583817.2840169667,3.4028234663852886E38,1.59806246E9,,,,0,,3,,1.59806246E9
Raw,2064872150,1126291000000,,,-1311985616708550504,0.0,9.810332328313047,,,0,2,0.0,32995,13524919942929,59,30.043636322021484,-69.60186349507899,0.1503265823415435,4,-7484.981152840943,3.4028234663852886E38,1.59975002E9,,,,0,,3,,1.59975002E9
Raw,2064872150,1126291000000,,,-1311985616708550504,0.0,9.810332328313047,,,0,18,0.0,32995,13524928579562,83,27.108110427856445,373.22065588462215,0.20728524026466744,4,34616.80405821327,3.4028234663852886E38,1.60031245E9,,,,0,,3,,1.60031245E9
Raw,2064872151,1126291000000,,,-1311985616708550504,0.0,9.810332328313047,,,0,9,0.0,32995,13524932455302,166,31.51180076599121,-444.11472163630697,0.12615953286316522,4,-586498.2601161222,3.4028234663852886E38,1.59862502E9,,,,1,,3,,1.59862502E9
Raw,2064872151,1126291000000,,,-1311985616708550504,0.0,9.810332328313047,,,0,16,0.0,17,170817,73,28.180057525634766,328.697311465701,0.18422426468721875,4,924.8998126213806,3.4028234663852886E38,1.60143744E9,,,,0,,3,,1.60143744E9
Raw,2064872151,1126291000000,,,-1311985616708550504,0.0,9.810332328313047,,,0,20,0.0,99,923840138,79,19.13806915283203,-583.8269588777853,4.200690724701497,4,-18125.233246985947,3.4028234663852886E38,1.60312499E9,,,,0,,3,,1.60312499E9
Raw,2064872152,1126291000000,,,-1311985616708550504,0.0,9.810332328313047,,,0,19,0.0,16,1126003127878,1000000000,7.0,-47.09908772786898,2.99792458E8,2,-0.14145400583318,3.4028234663852886E38,1.60368755E9,,,,0,,3,,1.60368755E9
Raw,2064872152,1126291000000,,,-1311985616708550504,0.0,9.810332328313047,,,0,3,0.0,99,921577022,68,28.844099044799805,-544.592086990139,0.16875402465616185,4,-543954.5110726323,3.4028234663852886E38,1.60481254E9,,,,0,,3,,1.60481254E9
Raw,2064872152,1126291000000,,,-1311985616708550504,0.0,9.810332328313047,,,0,193,0.0,35,11044573,19,33.65087890625,-179.7731315454114,0.09885553275508152,4,-2156.5730218656026,3.4028234663852886E38,1.57542003E9,,,,0,,4,,1.57542003E9
Raw,2064872153,1126291000000,,,-1311985616708550504,0.0,9.810332328313047,,,0,194,0.0,35,15532834,9,39.532020568847656,-156.6216686435098,0.05201234989021647,4,-6597.080029240117,3.4028234663852886E38,1.57542003E9,,,,0,,4,,1.57542003E9
Raw,2064872153,1126291000000,,,-1311985616708550504,0.0,9.810332328313047,,,0,195,0.0,1,699536,47,25.9416561126709,-113.5109824031602,0.2366977678545228,4,-4655.389643544691,3.4028234663852886E38,1.57542003E9,,,,0,,4,,1.57542003E9
Raw,2064872153,1126291000000,,,-1311985616708550504,0.0,9.810332328313047,,,0,7,0.0,16431,175528879568432,21,26.761585235595703,-105.35982210116487,0.21763590590730553,4,-117066.27007221761,3.4028234663852886E38,1.56109798E9,,,,0,,5,,1.56109798E9
Raw,2064872153,1126291000000,,,-1311985616708550504,0.0,9.810332328313047,,,0,8,0.0,16431,175528877718416,6,38.031402587890625,-217.28726540936225,0.06168744066833137,4,-239764.41373185438,3.4028234663852886E38,1.56109798E9,,,,0,,5,,1.56109798E9
Raw,2064872154,1126291000000,,,-1311985616708550504,0.0,9.810332328313047,,,0,10,0.0,16431,175528880059485,8,34.61595153808594,-168.1198113821864,0.09029058480398011,4,-156595.7933423669,3.4028234663852886E38,1.56109798E9,,,,0,,5,,1.56109798E9
Raw,2064872154,1126291000000,,,-1311985616708550504,0.0,9.810332328313047,,,0,32,0.0,17,194336,9,34.3470573425293,-644.4810528145613,0.09160128657864236,4,-16766.58168769326,3.4028234663852886E38,1.56109798E9,,,,0,,5,,1.56109798E9
Raw,2064872154,1126291000000,,,-1311985616708550504,0.0,9.810332328313047,,,0,33,0.0,16431,175528910822390,14,30.29777717590332,-15.9629882113122,0.1444547974868986,4,-1412.9030139353579,3.4028234663852886E38,1.56109798E9,,,,0,,5,,1.56109798E9
Raw,2064872155,1126291000000,,,-1311985616708550504,0.0,9.810332328313047,,,0,36,0.0,16431,175528920175236,10,32.659523010253906,-366.32178728264444,0.11220963999058214,4,-21035.98788917161,3.4028234663852886E38,1.56109798E9,,,,0,,5,,1.56109798E9
Fix,gps,34.486774,109.464170,357.187317,0.755017,3.000000,1627951525999
Raw,2064873155,1127291000000,,,-1311985616708550891,0.0,10.085078082393343,,,0,1,0.0,16431,175543925992595,37,28.02522087097168,481.3086678624543,0.1862039095593513,4,571652.4019994958,3.4028234663852886E38,1.57542003E9,,,,0,,1,,1.57542003E9
Raw,2064873155,1127291000000,,,-1311985616708550891,0.0,10.085078082393343,,,0,3,0.0,16431,175543925661373,51,25.326492309570312,-233.8857796017644,0.25360111860016066,4,-28737.97204842229,3.4028234663852886E38,1.57542003E9,,,,0,,1,,1.57542003E9
Raw,2064873155,1127291000000,,,-1311985616708550891,0.0,10.085078082393343,,,0,6,0.0,16,1127003522205,1000000000,23.299882888793945,-671.6895550111121,2.99792458E8,2,-524289.9993514661,3.4028234663852886E38,1.57542003E9,,,,0,,1,,1.57542003E9
Raw,2064873156,1127291000000,,,-1311985616708550891,0.0,10.085078082393343,,,0,7,0.0,16,1127015820480,1000000000,7.0,541.1761046202273,2.99792458E8,2,8.111326252730818,3.4028234663852886E38,1.57542003E9,,,,0,,1,,1.57542003E9
Raw,2064873157,1127291000000,,,-1311985616708550891,0.0,10.085078082393343,,,0,14,0.0,16431,175543932309002,11,38.231727600097656,-118.23010749822157,0.059380646650232266,4,-198020.82657820173,3.4028234663852886E38,1.57542003E9,,,,0,,1,,1.57542003E9
Raw,2064873157,1127291000000,,,-1311985616708550891,0.0,10.085078082393343,,,0,17,0.0,16431,175543929184486,9,39.66400146484375,-198.74743153464908,0.05012824157193321,4,-240419.44243482212,3.4028234663852886E38,1.57542003E9,,,,0,,1,,1.57542003E9
Raw,2064873157,1127291000000,,,-1311985616708550891,0.0,10.085078082393343,,,0,19,0.0,16431,175543926945235,6,45.21206283569336,-452.6787568166196,0.031249275355913583,4,-549243.8191212647,3.4028234663852886E38,1.57542003E9,,,,0,,1,,1.57542003E9
Raw,2064873157,1127291000000,,,-1311985616708550891,0.0,10.085078082393343,,,0,21,0.0,16431,175543916418955,17,34.69926071166992,481.24329771084354,0.08880833910263958,4,574771.2882285044,3.4028234663852886E38,1.57542003E9,,,,0,,1,,1.57542003E9
Raw,2064873158,1127291000000,,,-1311985616708550891,0.0,10.085078082393343,,,0,22,0.0,16431,175543922891973,27,30.756628036499023,102.87384772239108,0.13569538981681817,4,1733.4881454192887,3.4028234663852886E38,1.57542003E9,,,,0,,1,,1.57542003E9
Raw,2064873158,1127291000000,,,-1311985616708550891,0.0,10.085078082393343,,,0,24,0.0,16431,175543915922728,32,29.30885124206543,-434.79766866157934,0.16255709183494338,4,-550110.0658488589,3.4028234663852886E38,1.57542003E9,,,,0,,1,,1.57542003E9
Raw,2064873158,1127291000000,,,-1311985616708550891,0.0,10.085078082393343,,,0,30,0.0,16,1127001944287,1000000000,7.0,476.94045573975177,2.99792458E8,2,0.46484791501986544,3.4028234663852886E38,1.57542003E9,,,,0,,1,,1.57542003E9
Raw,2064873159,1127291000000,,,-1311985616708550891,0.0,10.085078082393343,,,0,10,0.0,32995,13525920406195,33,36.74627685546875,-873.1639750158361,0.07149943541548187,4,-584690.4235834512,3.4028234663852886E38,1.59806246E9,,,,0,,3,,1.59806246E9
Raw,2064873159,1127291000000,,,-1311985616708550891,0.0,10.085078082393343,,,0,2,0.0,32995,13525919943134,52,31.10228729248047,-69.57148750570303,0.1334887338170354,4,-7554.400983973791,3.4028234663852886E38,1.59975002E9,,,,0,,3,,1.59975002E9
Raw,2064873159,1127291000000,,,-1311985616708550891,0.0,10.085078082393343,,,0,18,0.0,32995,13525928578269,74,28.044761657714844,373.4833975419565,0.1862529862997252,4,34990.34123719002,3.4028234663852886E38,1.60031245E9,,,,0,,3,,1.60031245E9
Raw,2064873160,1127291000000,,,-1311985616708550891,0.0,10.085078082393343,,,0,9,0.0,32995,13525932456799,33,36.19769287109375,-443.7672169096004,0.07449167706047338,4,-586941.9136581366,3.4028234663852886E38,1.59862502E9,,,,0,,3,,1.59862502E9
Raw,2064873160,1127291000000,,,-1311985616708550891,0.0,10.085078082393343,,,0,16,0.0,51,13169749,95,25.93155860900879,328.7901520772691,0.2379554737391475,4,1253.863265750938,3.4028234663852886E38,1.60143744E9,,,,0,,3,,1.60143744E9
Raw,2064873160,1127291000000,,,-1311985616708550891,0.0,10.085078082393343,,,0,20,0.0,99,1923842148,65,21.810779571533203,-584.1862561344487,4.20069125723988,4,-18709.29846542648,3.4028234663852886E38,1.60312499E9,,,,0,,3,,1.60312499E9
Raw,2064873167,1127291000000,,,-1311985616708550891,0.0,10.085078082393343,,,0,19,0.0,16,1127003128035,1000000000,30.01726722717285,-47.09908772786898,2.99792458E8,2,-0.14071664245182255,3.4028234663852886E38,1.60368755E9,,,,0,,3,,1.60368755E9
Raw,2064873168,1127291000000,,,-1311985616708550891,0.0,10.085078082393343,,,0,3,0.0,99,1921578921,52,31.14139747619629,-544.335752834631,0.12960187761379355,4,-544498.5557658145,3.4028234663852886E38,1.60481254E9,,,,0,,3,,1.60481254E9
Raw,2064873168,1127291000000,,,-1311985616708550891,0.0,10.085078082393343,,,0,193,0.0,35,11045151,15,35.906646728515625,-179.43598788548775,0.07669971433168749,4,-2336.006670098505,3.4028234663852886E38,1.57542003E9,,,,0,,4,,1.57542003E9
Raw,2064873168,1127291000000,,,-1311985616708550891,0.0,10.085078082393343,,,0,194,0.0,35,15533319,8,40.99040222167969,-156.36006874846896,0.04440507653075362,4,-6753.470034845728,3.4028234663852886E38,1.57542003E9,,,,0,,4,,1.57542003E9
Raw,2064873169,1127291000000,,,-1311985616708550891,0.0,10.085078082393343,,,0,195,0.0,1,699922,37,28.10440444946289,-113.4864771169203,0.18483100896571736,4,-4768.774076954526,3.4028234663852886E38,1.57542003E9,,,,0,,4,,1.57542003E9
Raw,2064873169,1127291000000,,,-1311985616708550891,0.0,10.085078082393343,,,0,7,0.0,16431,175529879568749,13,30.600860595703125,-105.18261888908864,0.1411411606067524,4,-117171.37598032832,3.4028234663852886E38,1.56109798E9,,,,0,,5,,1.56109798E9
Raw,2064873169,1127291000000,,,-1311985616708550891,0.0,10.085078082393343,,,0,8,0.0,16431,175529877719111,7,36.53438186645508,-217.18963621265266,0.07269114814515482,4,-239981.58738321235,3.4028234663852886E38,1.56109798E9,,,,0,,5,,1.56109798E9
Raw,2064873169,1127291000000,,,-1311985616708550891,0.0,10.085078082393343,,,0,10,0.0,16431,175529880060003,8,34.770206451416016,-168.03078800574883,0.0887648456943767,4,-156763.70602931667,3.4028234663852886E38,1.56109798E9,,,,0,,5,,1.56109798E9
Raw,2064873170,1127291000000,,,-1311985616708550891,0.0,10.085078082393343,,,0,32,0.0,17,196449,7,35.59329605102539,-644.6623714832626,0.07965134992496237,4,-17411.171488912725,3.4028234663852886E38,1.56109798E9,,,,0,,5,,1.56109798E9
Raw,2064873170,1127291000000,,,-1311985616708550891,0.0,10.085078082393343,,,0,33,0.0,16431,175529910822417,15,29.769664764404297,-15.633906117432971,0.15338829528280185,4,-1428.1691502079595,3.4028234663852886E38,1.56109798E9,,,,0,,5,,1.56109798E9
Raw,2064873170,1127291000000,,,-1311985616708550891,0.0,10.085078082393343,,,0,36,0.0,16431,175529920176431,8,35.164154052734375,-366.1224389944425,0.08500980938279362,4,-21402.037997758132,3.4028234663852886E38,1.56109798E9,,,,0,,5,,1.56109798E9
Fix,gps,34.486776,109.464173,357.203003,0.618778,3.000000,1627951526999
Raw,2064874161,1128291000000,,,-1311985616708551277,0.0,10.238655957416007,,,0,1,0.0,16431,175544925991060,29,30.006582260131836,481.46207299926346,0.14844432542623298,4,572133.9565883278,3.4028234663852886E38,1.57542003E9,,,,0,,1,,1.57542003E9
Raw,2064874161,1128291000000,,,-1311985616708551277,0.0,10.238655957416007,,,0,3,0.0,16431,175544925662172,28,30.498807907104492,-233.4502398898594,0.14026618340138142,4,-28971.229060400936,3.4028234663852886E38,1.57542003E9,,,,0,,1,,1.57542003E9
Raw,2064874162,1128291000000,,,-1311985616708551277,0.0,10.238655957416007,,,0,6,0.0,16,1128003524445,1000000000,7.0,-671.6895550111121,2.99792458E8,2,-524289.994098762,3.4028234663852886E38,1.57542003E9,,,,0,,1,,1.57542003E9
Raw,2064874162,1128291000000,,,-1311985616708551277,0.0,10.238655957416007,,,0,7,0.0,16,1128015818676,1000000000,13.436960220336914,540.9904574795476,2.99792458E8,2,8.104312766121717,3.4028234663852886E38,1.57542003E9,,,,0,,1,,1.57542003E9
Raw,2064874162,1128291000000,,,-1311985616708551277,0.0,10.238655957416007,,,0,14,0.0,16431,175544932309414,8,40.929710388183594,-118.14433047576779,0.04411695246317865,4,-198138.95666903805,3.4028234663852886E38,1.57542003E9,,,,0,,1,,1.57542003E9
Raw,2064874162,1128291000000,,,-1311985616708551277,0.0,10.238655957416007,,,0,17,0.0,16431,175544929185111,13,36.73188781738281,-198.77343644897599,0.06959350550485705,4,-240618.20115173308,3.4028234663852886E38,1.57542003E9,,,,0,,1,,1.57542003E9
Raw,2064874163,1128291000000,,,-1311985616708551277,0.0,10.238655957416007,,,0,19,0.0,16431,175544926946776,7,41.907386779785156,-452.85601967299476,0.03869155542685673,4,-549696.7702684333,3.4028234663852886E38,1.57542003E9,,,,0,,1,,1.57542003E9
Raw,2064874163,1128291000000,,,-1311985616708551277,0.0,10.238655957416007,,,0,21,0.0,16431,175544916417361,18,34.12197494506836,481.4540295395241,0.0947080489387519,4,575252.7817983886,3.4028234663852886E38,1.57542003E9,,,,0,,1,,1.57542003E9
Raw,2064874164,1128291000000,,,-1311985616708551277,0.0,10.238655957416007,,,0,22,0.0,16431,175544922891632,33,28.9279842376709,103.02115209948266,0.16737128874426377,4,1837.065411774256,3.4028234663852886E38,1.57542003E9,,,,0,,1,,1.57542003E9
Raw,2064874164,1128291000000,,,-1311985616708551277,0.0,10.238655957416007,,,0,24,0.0,16431,175544915924131,19,33.75151062011719,-434.75809892955635,0.09861744649324383,4,-550544.795391383,3.4028234663852886E38,1.57542003E9,,,,0,,1,,1.57542003E9
Raw,2064874164,1128291000000,,,-1311985616708551277,0.0,10.238655957416007,,,0,30,0.0,16,1128001942696,1000000000,7.0,476.94045573975177,2.99792458E8,2,0.47603713335619835,3.4028234663852886E38,1.57542003E9,,,,0,,1,,1.57542003E9
Raw,2064874165,1128291000000,,,-1311985616708551277,0.0,10.238655957416007,,,0,10,0.0,32995,13526920409149,33,35.111785888671875,-873.3345917931892,0.08554382056742849,4,-585563.7998058416,3.4028234663852886E38,1.59806246E9,,,,0,,3,,1.59806246E9
Raw,2064874165,1128291000000,,,-1311985616708551277,0.0,10.238655957416007,,,0,2,0.0,32995,13526919943239,57,30.325044631958008,-69.40666048565166,0.14564873190013883,4,-7623.654411291968,3.4028234663852886E38,1.59975002E9,,,,0,,3,,1.59975002E9
Raw,2064874165,1128291000000,,,-1311985616708551277,0.0,10.238655957416007,,,0,18,0.0,32995,13526928577020,75,27.97298240661621,373.5604920586111,0.187785515273714,4,35363.87220687543,3.4028234663852886E38,1.60031245E9,,,,0,,3,,1.60031245E9
Raw,2064874166,1128291000000,,,-1311985616708551277,0.0,10.238655957416007,,,0,9,0.0,32995,13526932458260,33,41.265411376953125,-443.81448927679753,0.042555113075834955,4,-587385.6879684182,3.4028234663852886E38,1.59862502E9,,,,0,,3,,1.59862502E9
Raw,2064874166,1128291000000,,,-1311985616708551277,0.0,10.238655957416007,,,0,16,0.0,51,13168634,89,26.440780639648438,328.99434007429727,0.2245407652998247,4,1582.9706495004161,3.4028234663852886E38,1.60143744E9,,,,0,,3,,1.60143744E9
Raw,2064874166,1128291000000,,,-1311985616708551277,0.0,10.238655957416007,,,0,20,0.0,16,1128003844020,1000000000,90.2017593383789,-584.1606942920566,2.99792458E8,2,-1.736135273335094,3.4028234663852886E38,1.60312499E9,,,,0,,3,,1.60312499E9
Raw,2064874167,1128291000000,,,-1311985616708551277,0.0,10.238655957416007,,,0,19,0.0,17,128235,61,22.580781936645508,-46.95218381964153,4.202361563878689,4,-38.30710543680504,3.4028234663852886E38,1.60368755E9,,,,0,,3,,1.60368755E9
