# 
# Header Description:
# 
# Version: v2.0.0.1 Platform: 10 Manufacturer: HUAWEI Model: BLA-AL00
# 
# Raw,ElapsedRealtimeMillis,TimeNanos,LeapSecond,TimeUncertaintyNanos,FullBiasNanos,BiasNanos,BiasUncertaintyNanos,DriftNanosPerSecond,DriftUncertaintyNanosPerSecond,HardwareClockDiscontinuityCount,Svid,TimeOffsetNanos,State,ReceivedSvTimeNanos,ReceivedSvTimeUncertaintyNanos,Cn0DbHz,PseudorangeRateMetersPerSecond,PseudorangeRateUncertaintyMetersPerSecond,AccumulatedDeltaRangeState,AccumulatedDeltaRangeMeters,AccumulatedDeltaRangeUncertaintyMeters,CarrierFrequencyHz,CarrierCycles,CarrierPhase,CarrierPhaseUncertainty,MultipathIndicator,SnrInDb,ConstellationType,AgcDb,CarrierFrequencyHz
# 
# Fix,Provider,Latitude,Longitude,Altitude,Speed,Accuracy,(UTC)TimeInMs
# 
# Nav,Svid,Type,Status,MessageId,Sub-messageId,Data(Bytes)
# 
Fix,gps,34.486736,109.464176,357.458588,1.269150,3.000000,1627950836000
Raw,2064183160,437292000000,,,-1311985616708285378,0.0,8.427395820241127,,,0,1,0.0,16431,174853928059927,18,34.37560272216797,446.92730819593885,0.09056424296563104,4,187233.61643510553,3.4028234663852886E38,1.57542003E9,,,,0,,1,,1.57542003E9
Raw,2064183161,437292000000,,,-1311985616708285378,0.0,8.427395820241127,,,0,3,0.0,16431,174853926028346,40,27.376428604125977,-314.8217980959605,0.20056781774119925,4,-148165.84199565536,3.4028234663852886E38,1.57542003E9,,,,0,,1,,1.57542003E9
Raw,2064183161,437292000000,,,-1311985616708285378,0.0,8.427395820241127,,,0,6,0.0,16431,174853922929304,62,22.402477264404297,-711.3821883723163,4.200526969148672,4,-312995.5570190937,3.4028234663852886E38,1.57542003E9,,,,0,,1,,1.57542003E9
Raw,2064183162,437292000000,,,-1311985616708285378,0.0,8.427395820241127,,,0,7,0.0,39,1918086979,41,27.092321395874023,558.5607477135563,0.20936971198916188,4,5038.080686786928,3.4028234663852886E38,1.57542003E9,,,,0,,1,,1.57542003E9
Raw,2064183162,437292000000,,,-1311985616708285378,0.0,8.427395820241127,,,0,14,0.0,16431,174853932954817,12,37.887760162353516,-188.45717105514086,0.061806067753638366,1,-91852.692852622,0.0011587180197238922,1.57542003E9,,,,0,,1,,1.57542003E9
Raw,2064183163,437292000000,,,-1311985616708285378,0.0,8.427395820241127,,,0,17,0.0,16431,174853929706619,8,40.535186767578125,-215.96205429361407,0.0455959197250978,1,-97135.53135343797,8.542920113541186E-4,1.57542003E9,,,,0,,1,,1.57542003E9
Raw,2064183164,437292000000,,,-1311985616708285378,0.0,8.427395820241127,,,0,19,0.0,16431,174853926878310,8,40.81345748901367,-473.96522769759304,0.043704613817729526,1,-209877.78509588918,8.721107733435929E-4,1.57542003E9,,,,0,,1,,1.57542003E9
Raw,2064183164,437292000000,,,-1311985616708285378,0.0,8.427395820241127,,,0,21,0.0,16431,174853918531501,20,33.22378921508789,485.69620473800524,0.10508440955837789,4,210328.10124531345,3.4028234663852886E38,1.57542003E9,,,,0,,1,,1.57542003E9
Raw,2064183165,437292000000,,,-1311985616708285378,0.0,8.427395820241127,,,0,22,0.0,16431,174853924039315,31,29.48345947265625,25.80200868230284,0.15724137690327367,4,-353.88700618518635,3.4028234663852886E38,1.57542003E9,,,,0,,1,,1.57542003E9
Raw,2064183165,437292000000,,,-1311985616708285378,0.0,8.427395820241127,,,0,24,0.0,16431,174853915848214,22,32.28987121582031,-497.6569657002942,0.1161519550738837,4,-225002.37927218745,3.4028234663852886E38,1.57542003E9,,,,0,,1,,1.57542003E9
Raw,2064183166,437292000000,,,-1311985616708285378,0.0,8.427395820241127,,,0,30,0.0,16,437004015364,1000000000,15.018426895141602,452.06305723953506,2.99792458E8,2,1.804744621061984,3.4028234663852886E38,1.57542003E9,,,,0,,1,,1.57542003E9
Raw,2064183166,437292000000,,,-1311985616708285378,0.0,8.427395820241127,,,0,10,0.0,32995,12835919365265,41,33.22673034667969,-897.6317705535616,0.10519992046205212,4,-225389.53094557652,3.4028234663852886E38,1.59806246E9,,,,0,,3,,1.59806246E9
Raw,2064183167,437292000000,,,-1311985616708285378,0.0,8.427395820241127,,,0,2,0.0,32995,12835920671638,59,30.052486419677734,-165.4114830570578,0.15030824305097312,4,-84263.19915472147,3.4028234663852886E38,1.59975002E9,,,,0,,3,,1.59975002E9
Raw,2064183168,437292000000,,,-1311985616708285378,0.0,8.427395820241127,,,0,18,0.0,32995,12835930422737,55,30.592708587646484,359.84598421348437,0.13962524017358868,4,150514.12222596098,3.4028234663852886E38,1.60031245E9,,,,0,,3,,1.60031245E9
Raw,2064183168,437292000000,,,-1311985616708285378,0.0,8.427395820241127,,,0,9,0.0,32995,12835932321465,33,42.21757507324219,-540.8733160764787,0.038344802211659756,4,-246521.55640512385,3.4028234663852886E38,1.59862502E9,,,,0,,3,,1.59862502E9
Raw,2064183169,437292000000,,,-1311985616708285378,0.0,8.427395820241127,,,0,16,0.0,51,14814601,100,25.448471069335938,229.55214413120427,0.25172525214544816,4,5223.955212780647,3.4028234663852886E38,1.60143744E9,,,,0,,3,,1.60143744E9
Raw,2064183169,437292000000,,,-1311985616708285378,0.0,8.427395820241127,,,0,19,0.0,32995,12835933960012,60,29.89458465576172,-99.90286294606943,0.15179019752038536,4,-51204.51310071558,3.4028234663852886E38,1.60368755E9,,,,0,,3,,1.60368755E9
Raw,2064183170,437292000000,,,-1311985616708285378,0.0,8.427395820241127,,,0,3,0.0,32995,12835921260845,63,29.489683151245117,-597.6837268964382,0.1566294736591881,4,-260453.3323396879,3.4028234663852886E38,1.60481254E9,,,,0,,3,,1.60481254E9
Raw,2064183171,437292000000,,,-1311985616708285378,0.0,8.427395820241127,,,0,193,0.0,35,11632393,28,30.340023040771484,-178.4541063955221,0.14390902885327284,4,-77284.23370438849,3.4028234663852886E38,1.57542003E9,,,,0,,4,,1.57542003E9
Raw,2064183171,437292000000,,,-1311985616708285378,0.0,8.427395820241127,,,0,194,0.0,35,16156803,12,37.3872184753418,-170.16915541044648,0.06591010808717854,1,-76011.42614629847,0.0012274527689442039,1.57542003E9,,,,0,,4,,1.57542003E9
Raw,2064183172,437292000000,,,-1311985616708285378,0.0,8.427395820241127,,,0,195,0.0,35,8450140,42,26.97030258178711,-102.68361649130901,0.2105521801853395,4,-43599.19770733034,3.4028234663852886E38,1.57542003E9,,,,0,,4,,1.57542003E9
Raw,2064183172,437292000000,,,-1311985616708285378,0.0,8.427395820241127,,,0,7,0.0,16431,174839880312945,11,32.313846588134766,-116.17967283135278,0.1166427890449207,4,-40483.05430811181,3.4028234663852886E38,1.56109798E9,,,,0,,5,,1.56109798E9
Raw,2064183173,437292000000,,,-1311985616708285378,0.0,8.427395820241127,,,0,8,0.0,16431,174839878193919,6,37.49845886230469,-238.89337860883484,0.06547481204486749,1,-82543.72575129147,0.0012229506392031908,1.56109798E9,,,,0,,5,,1.56109798E9
Raw,2064183173,437292000000,,,-1311985616708285378,0.0,8.427395820241127,,,0,10,0.0,16431,174839880664309,8,34.737945556640625,-175.0282230719905,0.0891904187507388,1,-38150.5538014528,0.0016804849728941917,1.56109798E9,,,,0,,5,,1.56109798E9
Raw,2064183173,437292000000,,,-1311985616708285378,0.0,8.427395820241127,,,0,13,0.0,16431,174839875675118,167,14.633119583129883,-313.8616612132564,4.202819546888215,4,-27391.791581369387,3.4028234663852886E38,1.56109798E9,,,,1,,5,,1.56109798E9
Fix,gps,34.486736,109.464176,357.340332,1.066601,3.000000,1627950837000
Raw,2064184124,438292000000,,,-1311985616708285761,0.0,8.461931596374843,,,0,1,0.0,16431,174854928058385,166,29.47340965270996,445.9001652037109,0.1581454939432987,4,187680.8416749721,3.4028234663852886E38,1.57542003E9,,,,1,,1,,1.57542003E9
Raw,2064184125,438292000000,,,-1311985616708285761,0.0,8.461931596374843,,,0,3,0.0,16431,174854926029493,48,25.69460678100586,-315.4435302678496,0.24318638193329756,4,-148480.50185125013,3.4028234663852886E38,1.57542003E9,,,,0,,1,,1.57542003E9
Raw,2064184125,438292000000,,,-1311985616708285761,0.0,8.461931596374843,,,0,6,0.0,16431,174854922931585,62,22.37801742553711,-711.2424503005727,4.200527235417864,4,-313706.927782042,3.4028234663852886E38,1.57542003E9,,,,0,,1,,1.57542003E9
Raw,2064184125,438292000000,,,-1311985616708285761,0.0,8.461931596374843,,,0,7,0.0,39,2918085100,40,27.345918655395508,558.7214464960614,0.2034385158211447,4,5596.811475942979,3.4028234663852886E38,1.57542003E9,,,,0,,1,,1.57542003E9
Raw,2064184126,438292000000,,,-1311985616708285761,0.0,8.461931596374843,,,0,14,0.0,16431,174854932955480,12,37.33502197265625,-188.29778444721194,0.0657140257903133,1,-92041.0946017438,0.001234851311892271,1.57542003E9,,,,0,,1,,1.57542003E9
Raw,2064184126,438292000000,,,-1311985616708285761,0.0,8.461931596374843,,,0,17,0.0,16431,174854929707359,14,36.35358810424805,-216.01328022576786,0.07271190882118617,1,-97351.55530189442,0.0013825674541294575,1.57542003E9,,,,0,,1,,1.57542003E9
Raw,2064184127,438292000000,,,-1311985616708285761,0.0,8.461931596374843,,,0,19,0.0,16431,174854926879854,9,39.58022689819336,-473.9221133900917,0.05018350491055534,1,-210351.7555736329,0.0010051552671939135,1.57542003E9,,,,0,,1,,1.57542003E9
Raw,2064184127,438292000000,,,-1311985616708285761,0.0,8.461931596374843,,,0,21,0.0,16431,174854918529855,16,35.08449935913086,485.6971931292444,0.08546335734609656,4,210813.72933362162,3.4028234663852886E38,1.57542003E9,,,,0,,1,,1.57542003E9
Raw,2064184127,438292000000,,,-1311985616708285761,0.0,8.461931596374843,,,0,22,0.0,16431,174854924039260,26,30.944746017456055,25.4865670265701,0.13300561333164213,4,-328.4765905873465,3.4028234663852886E38,1.57542003E9,,,,0,,1,,1.57542003E9
Raw,2064184127,438292000000,,,-1311985616708285761,0.0,8.461931596374843,,,0,24,0.0,16431,174854915849881,15,35.48530197143555,-497.8123135371252,0.0812775806916522,4,-225500.30211836428,3.4028234663852886E38,1.57542003E9,,,,0,,1,,1.57542003E9
Raw,2064184128,438292000000,,,-1311985616708285761,0.0,8.461931596374843,,,0,30,0.0,16,438004013856,1000000000,7.0,452.06305723953506,2.99792458E8,2,1.8012094261777971,3.4028234663852886E38,1.57542003E9,,,,0,,1,,1.57542003E9
Raw,2064184128,438292000000,,,-1311985616708285761,0.0,8.461931596374843,,,0,10,0.0,32995,12836919368264,53,30.90363883972168,-897.6850073506503,0.1363904439368882,4,-226287.23902281668,3.4028234663852886E38,1.59806246E9,,,,0,,3,,1.59806246E9
Raw,2064184128,438292000000,,,-1311985616708285761,0.0,8.461931596374843,,,0,2,0.0,32995,12836920672185,50,31.529212951660156,-165.28796823461914,0.12738939697544488,4,-84428.4476328016,3.4028234663852886E38,1.59975002E9,,,,0,,3,,1.59975002E9
Raw,2064184129,438292000000,,,-1311985616708285761,0.0,8.461931596374843,,,0,18,0.0,32995,12836930421486,74,28.071584701538086,360.5892203428773,0.18601502485157106,4,150873.80314389727,3.4028234663852886E38,1.60031245E9,,,,0,,3,,1.60031245E9
Raw,2064184129,438292000000,,,-1311985616708285761,0.0,8.461931596374843,,,0,9,0.0,32995,12836932323197,33,37.00743103027344,-540.5639496186211,0.06803647976524246,1,-247062.30870398047,0.001261923578567803,1.59862502E9,,,,0,,3,,1.59862502E9
Raw,2064184129,438292000000,,,-1311985616708285761,0.0,8.461931596374843,,,0,16,0.0,51,14813923,113,24.44747543334961,230.6367331039014,0.28214715631512677,4,5454.39930176499,3.4028234663852886E38,1.60143744E9,,,,0,,3,,1.60143744E9
Raw,2064184130,438292000000,,,-1311985616708285761,0.0,8.461931596374843,,,0,19,0.0,32995,12836933960374,96,25.864900588989258,-100.34765604492037,0.2399125855809422,4,-51304.39394660959,3.4028234663852886E38,1.60368755E9,,,,0,,3,,1.60368755E9
Raw,2064184130,438292000000,,,-1311985616708285761,0.0,8.461931596374843,,,0,3,0.0,32995,12836921262855,42,32.94626235961914,-598.0544076935803,0.1052817899175521,4,-261051.31663274014,3.4028234663852886E38,1.60481254E9,,,,0,,3,,1.60481254E9
Raw,2064184130,438292000000,,,-1311985616708285761,0.0,8.461931596374843,,,0,193,0.0,35,11632987,29,30.172386169433594,-178.17260234587195,0.1466727699273237,4,-77462.29416199197,3.4028234663852886E38,1.57542003E9,,,,0,,4,,1.57542003E9
Raw,2064184130,438292000000,,,-1311985616708285761,0.0,8.461931596374843,,,0,194,0.0,35,16157397,7,41.88190460205078,-170.00526991825654,0.04045833056168585,1,-76181.37190943054,7.711684447713196E-4,1.57542003E9,,,,0,,4,,1.57542003E9
Raw,2064184131,438292000000,,,-1311985616708285761,0.0,8.461931596374843,,,0,195,0.0,35,8450528,55,24.63834571838379,-102.73746677261505,0.2749279827837666,4,-43701.7959641043,3.4028234663852886E38,1.57542003E9,,,,0,,4,,1.57542003E9
Raw,2064184131,438292000000,,,-1311985616708285761,0.0,8.461931596374843,,,0,7,0.0,16431,174840880313319,11,32.54257583618164,-116.13611545191662,0.11370628087009271,1,-40599.18066806257,0.002163729863241315,1.56109798E9,,,,0,,5,,1.56109798E9
Raw,2064184131,438292000000,,,-1311985616708285761,0.0,8.461931596374843,,,0,8,0.0,16431,174840878194718,6,40.27977752685547,-238.6920024144698,0.04843128721168488,1,-82782.44040426225,8.878567605279386E-4,1.56109798E9,,,,0,,5,,1.56109798E9
Raw,2064184132,438292000000,,,-1311985616708285761,0.0,8.461931596374843,,,0,10,0.0,16431,174840880664907,12,31.206422805786133,-174.90965020574765,0.13207047593079752,1,-38325.66395154437,0.0023792197462171316,1.56109798E9,,,,0,,5,,1.56109798E9
Raw,2064184132,438292000000,,,-1311985616708285761,0.0,8.461931596374843,,,0,13,0.0,16431,174840875676169,167,14.08873176574707,-313.72696734507826,4.202819813157406,4,-27706.556500181923,3.4028234663852886E38,1.56109798E9,,,,1,,5,,1.56109798E9
Fix,gps,34.486736,109.464176,357.464172,0.746854,3.000000,1627950838000
Raw,2064185158,439292000000,,,-1311985616708286145,0.0,8.47430215773808,,,0,1,0.0,16431,174855928056644,166,24.71807289123535,444.59119437849586,0.2723590009815353,4,188126.10576369832,3.4028234663852886E38,1.57542003E9,,,,1,,1,,1.57542003E9
Raw,2064185158,439292000000,,,-1311985616708286145,0.0,8.47430215773808,,,0,3,0.0,16431,174855926030441,52,25.081279754638672,-314.76525530058916,0.26089984005250666,4,-148795.02485097837,3.4028234663852886E38,1.57542003E9,,,,0,,1,,1.57542003E9
Raw,2064185158,439292000000,,,-1311985616708286145,0.0,8.47430215773808,,,0,6,0.0,16431,174855922933992,68,21.32520294189453,-710.7351670176872,4.200527767956247,4,-314418.214597214,3.4028234663852886E38,1.57542003E9,,,,0,,1,,1.57542003E9
Raw,2064185159,439292000000,,,-1311985616708286145,0.0,8.47430215773808,,,0,7,0.0,39,3918083225,40,27.327777862548828,558.6737310569295,0.20385669158652808,4,6155.481719270344,3.4028234663852886E38,1.57542003E9,,,,0,,1,,1.57542003E9
Raw,2064185159,439292000000,,,-1311985616708286145,0.0,8.47430215773808,,,0,14,0.0,16431,174855932956110,13,36.65599822998047,-188.20840320498087,0.07086802795311276,1,-92229.37797062764,0.0013352599926292896,1.57542003E9,,,,0,,1,,1.57542003E9
Raw,2064185159,439292000000,,,-1311985616708286145,0.0,8.47430215773808,,,0,17,0.0,16431,174855929708088,12,37.429481506347656,-215.9527668242116,0.06444433363161117,1,-97567.54111216255,0.0012214949820190668,1.57542003E9,,,,0,,1,,1.57542003E9
Raw,2064185159,439292000000,,,-1311985616708286145,0.0,8.47430215773808,,,0,19,0.0,16431,174855926881465,10,39.36519241333008,-473.90640137763467,0.051410648084533495,1,-210825.66580488835,0.001030350336804986,1.57542003E9,,,,0,,1,,1.57542003E9
Raw,2064185160,439292000000,,,-1311985616708286145,0.0,8.47430215773808,,,0,21,0.0,16431,174855918528193,14,36.07412338256836,485.5346538940871,0.0766189681993395,4,211299.34606000717,3.4028234663852886E38,1.57542003E9,,,,0,,1,,1.57542003E9
Raw,2064185160,439292000000,,,-1311985616708286145,0.0,8.47430215773808,,,0,22,0.0,16431,174855924039164,37,28.026283264160156,25.63431873590355,0.18582986791247302,4,-302.6234040923566,3.4028234663852886E38,1.57542003E9,,,,0,,1,,1.57542003E9
Raw,2064185160,439292000000,,,-1311985616708286145,0.0,8.47430215773808,,,0,24,0.0,16431,174855915851543,17,34.55970001220703,-497.787331096494,0.09009685732527795,4,-225998.10434105888,3.4028234663852886E38,1.57542003E9,,,,0,,1,,1.57542003E9
Raw,2064185161,439292000000,,,-1311985616708286145,0.0,8.47430215773808,,,0,30,0.0,16,439004012347,1000000000,7.0,452.43435152089455,2.99792458E8,2,1.7991506510784687,3.4028234663852886E38,1.57542003E9,,,,0,,1,,1.57542003E9
Raw,2064185161,439292000000,,,-1311985616708286145,0.0,8.47430215773808,,,0,10,0.0,32995,12837919371217,53,30.907041549682617,-897.678599848824,0.13633892916922885,4,-227184.93469195857,3.4028234663852886E38,1.59806246E9,,,,0,,3,,1.59806246E9
Raw,2064185161,439292000000,,,-1311985616708286145,0.0,8.47430215773808,,,0,2,0.0,32995,12837920672681,47,32.00852966308594,-165.01360445961052,0.12074977498139278,4,-84593.51755421665,3.4028234663852886E38,1.59975002E9,,,,0,,3,,1.59975002E9
Raw,2064185162,439292000000,,,-1311985616708286145,0.0,8.47430215773808,,,0,18,0.0,32995,12837930420414,80,27.41400718688965,359.7523256229597,0.20049669058339725,4,151233.54577678273,3.4028234663852886E38,1.60031245E9,,,,0,,3,,1.60031245E9
Raw,2064185163,439292000000,,,-1311985616708286145,0.0,8.47430215773808,,,0,9,0.0,32995,12837932324951,43,32.84797286987305,-540.484605659836,0.10846712665191577,1,-247602.9458119422,0.001920568523928523,1.59862502E9,,,,0,,3,,1.59862502E9
Raw,2064185163,439292000000,,,-1311985616708286145,0.0,8.47430215773808,,,0,16,0.0,51,14813238,118,24.039024353027344,230.6622949462935,0.29560353588293253,4,5684.958770955164,3.4028234663852886E38,1.60143744E9,,,,0,,3,,1.60143744E9
Raw,2064185163,439292000000,,,-1311985616708286145,0.0,8.47430215773808,,,0,19,0.0,32995,12837933960799,63,22.287906646728516,-100.98467419855996,4.20251120716436,4,-51404.81541928578,3.4028234663852886E38,1.60368755E9,,,,0,,3,,1.60368755E9
Raw,2064185163,439292000000,,,-1311985616708286145,0.0,8.47430215773808,,,0,3,0.0,32995,12837921264833,42,33.023895263671875,-597.8893804390968,0.10434739307789659,4,-261649.17192387156,3.4028234663852886E38,1.60481254E9,,,,0,,3,,1.60481254E9
Raw,2064185164,439292000000,,,-1311985616708286145,0.0,8.47430215773808,,,0,193,0.0,35,11633597,32,29.352313995361328,-178.36890025421508,0.16098850002731935,4,-77640.528704645,3.4028234663852886E38,1.57542003E9,,,,0,,4,,1.57542003E9
Raw,2064185164,439292000000,,,-1311985616708286145,0.0,8.47430215773808,,,0,194,0.0,35,16157962,6,42.88134002685547,-169.95554361418976,0.03637686070258858,1,-76351.32652990158,6.873491802252829E-4,1.57542003E9,,,,0,,4,,1.57542003E9
Raw,2064185164,439292000000,,,-1311985616708286145,0.0,8.47430215773808,,,0,195,0.0,35,8450872,57,24.352458953857422,-103.11612286458347,0.2840766427282946,4,-43804.52242128551,3.4028234663852886E38,1.57542003E9,,,,0,,4,,1.57542003E9
Raw,2064185165,439292000000,,,-1311985616708286145,0.0,8.47430215773808,,,0,7,0.0,16431,174841880313715,11,32.505008697509766,-116.07279876831137,0.11418334373137745,1,-40715.28175183888,0.00217310874722898,1.56109798E9,,,,0,,5,,1.56109798E9
Raw,2064185165,439292000000,,,-1311985616708286145,0.0,8.47430215773808,,,0,8,0.0,16431,174841878195516,6,41.185791015625,-238.6495697560989,0.04395835587594116,1,-83021.11312472401,7.999124936759472E-4,1.56109798E9,,,,0,,5,,1.56109798E9
Raw,2064185165,439292000000,,,-1311985616708286145,0.0,8.47430215773808,,,0,10,0.0,16431,174841880665494,18,28.290515899658203,-174.97130536959742,0.18327431606259226,1,-38500.77033938627,0.0033283568918704987,1.56109798E9,,,,0,,5,,1.56109798E9
Raw,2064185166,439292000000,,,-1311985616708286145,0.0,8.47430215773808,,,0,13,0.0,16431,174841875677206,167,12.373321533203125,-313.6854549130335,4.202820079426598,4,-28019.80677044612,3.4028234663852886E38,1.56109798E9,,,,1,,5,,1.56109798E9
Fix,gps,34.486736,109.464176,357.501923,0.672745,3.000000,1627950839000
Raw,2064186114,440292000000,,,-1311985616708286527,0.0,8.437860098377898,,,0,1,0.0,16431,174856928055433,36,28.329681396484375,445.22516215227665,0.18019824122681283,4,188570.51424584963,3.4028234663852886E38,1.57542003E9,,,,0,,1,,1.57542003E9
Raw,2064186114,440292000000,,,-1311985616708286527,0.0,8.437860098377898,,,0,3,0.0,16431,174856926031516,55,24.57135009765625,-314.2163914207458,0.2766098388487609,4,-149109.38298586707,3.4028234663852886E38,1.57542003E9,,,,0,,1,,1.57542003E9
Raw,2064186115,440292000000,,,-1311985616708286527,0.0,8.437860098377898,,,0,6,0.0,16431,174856922936289,72,20.526397705078125,-710.7098096700342,4.20052830049463,4,-315129.52695405856,3.4028234663852886E38,1.57542003E9,,,,0,,1,,1.57542003E9
Raw,2064186115,440292000000,,,-1311985616708286527,0.0,8.437860098377898,,,0,7,0.0,39,4918081381,39,27.59564781188965,558.6054979789708,0.19776423613935756,4,6714.17357356807,3.4028234663852886E38,1.57542003E9,,,,0,,1,,1.57542003E9
Raw,2064186115,440292000000,,,-1311985616708286527,0.0,8.437860098377898,,,0,14,0.0,16431,174856932956744,13,36.77595901489258,-188.15104243065298,0.06992805610225844,1,-92417.56947641037,0.0013169455341994762,1.57542003E9,,,,0,,1,,1.57542003E9
Raw,2064186115,440292000000,,,-1311985616708286527,0.0,8.437860098377898,,,0,17,0.0,16431,174856929708749,12,37.90126419067383,-216.08742660993323,0.06112978977203115,1,-97783.52432251371,0.0011569180060178041,1.57542003E9,,,,0,,1,,1.57542003E9
Raw,2064186116,440292000000,,,-1311985616708286527,0.0,8.437860098377898,,,0,19,0.0,16431,174856926883034,7,41.45326232910156,-473.9062991302651,0.04068973513099722,1,-211299.57620671985,8.101798011921346E-4,1.57542003E9,,,,0,,1,,1.57542003E9
Raw,2064186116,440292000000,,,-1311985616708286527,0.0,8.437860098377898,,,0,21,0.0,16431,174856918526595,11,38.281463623046875,485.7054410837229,0.06017263107695128,4,211784.99591235231,3.4028234663852886E38,1.57542003E9,,,,0,,1,,1.57542003E9
Raw,2064186116,440292000000,,,-1311985616708286527,0.0,8.437860098377898,,,0,22,0.0,16431,174856924039048,38,27.750146865844727,25.850582573308444,0.19180909238592225,4,-276.4231569661768,3.4028234663852886E38,1.57542003E9,,,,0,,1,,1.57542003E9
Raw,2064186116,440292000000,,,-1311985616708286527,0.0,8.437860098377898,,,0,24,0.0,16431,174856915853194,19,33.62387466430664,-497.74264899599257,0.10002214961344763,4,-226495.86290688743,3.4028234663852886E38,1.57542003E9,,,,0,,1,,1.57542003E9
Raw,2064186117,440292000000,,,-1311985616708286527,0.0,8.437860098377898,,,0,30,0.0,16,440004010838,1000000000,17.490182876586914,452.43435152089455,2.99792458E8,2,1.7956125527094744,3.4028234663852886E38,1.57542003E9,,,,0,,1,,1.57542003E9
Raw,2064186117,440292000000,,,-1311985616708286527,0.0,8.437860098377898,,,0,10,0.0,32995,12838919374045,69,28.647567749023438,-897.6355877886922,0.17581060756241074,1,-228082.59666419856,0.0031204242259263992,1.59806246E9,,,,0,,3,,1.59806246E9
Raw,2064186117,440292000000,,,-1311985616708286527,0.0,8.437860098377898,,,0,2,0.0,32995,12838920673267,43,32.71483612060547,-164.91365765585738,0.111609968487485,4,-84758.46890208202,3.4028234663852886E38,1.59975002E9,,,,0,,3,,1.59975002E9
Raw,2064186117,440292000000,,,-1311985616708286527,0.0,8.437860098377898,,,0,18,0.0,32995,12838930419176,94,26.036596298217773,359.05612328356824,0.2346289560868584,4,151593.44654618885,3.4028234663852886E38,1.60031245E9,,,,0,,3,,1.60031245E9
Raw,2064186118,440292000000,,,-1311985616708286527,0.0,8.437860098377898,,,0,9,0.0,32995,12838932326897,42,32.852298736572266,-540.5893751311871,0.10841460505387573,1,-248143.5174159294,0.002036056015640497,1.59862502E9,,,,0,,3,,1.59862502E9
Raw,2064186118,440292000000,,,-1311985616708286527,0.0,8.437860098377898,,,0,16,0.0,51,14812470,130,23.17970085144043,231.67231150411874,0.3260669281210249,4,5915.673649897605,3.4028234663852886E38,1.60143744E9,,,,0,,3,,1.60143744E9
Raw,2064186118,440292000000,,,-1311985616708286527,0.0,8.437860098377898,,,0,19,0.0,32995,12838933960935,64,22.013416290283203,-100.44249048019509,4.20251120716436,4,-51506.54466787677,3.4028234663852886E38,1.60368755E9,,,,0,,3,,1.60368755E9
Raw,2064186118,440292000000,,,-1311985616708286527,0.0,8.437860098377898,,,0,3,0.0,32995,12838921266848,49,31.612733840942383,-597.8025383398767,0.12271534919093252,4,-262246.99189511477,3.4028234663852886E38,1.60481254E9,,,,0,,3,,1.60481254E9
Raw,2064186119,440292000000,,,-1311985616708286527,0.0,8.437860098377898,,,0,193,0.0,35,11634125,27,30.779102325439453,-178.07435966494495,0.1369185722365715,4,-77818.66459026933,3.4028234663852886E38,1.57542003E9,,,,0,,4,,1.57542003E9
Raw,2064186119,440292000000,,,-1311985616708286527,0.0,8.437860098377898,,,0,194,0.0,35,16158509,7,42.46641540527344,-169.85557976920836,0.038014640895463386,1,-76521.23045407573,7.209806935861707E-4,1.57542003E9,,,,0,,4,,1.57542003E9
Raw,2064186119,440292000000,,,-1311985616708286527,0.0,8.437860098377898,,,0,195,0.0,35,8451167,54,24.737653732299805,-102.67182396135212,0.2718199390031726,4,-43907.190811883236,3.4028234663852886E38,1.57542003E9,,,,0,,4,,1.57542003E9
Raw,2064186119,440292000000,,,-1311985616708286527,0.0,8.437860098377898,,,0,7,0.0,16431,174842880314103,12,31.630691528320312,-116.20192015484804,0.12588851243069343,1,-40831.37848463161,0.0024032406508922577,1.56109798E9,,,,0,,5,,1.56109798E9
Raw,2064186119,440292000000,,,-1311985616708286527,0.0,8.437860098377898,,,0,8,0.0,16431,174842878196307,6,41.09770965576172,-238.64801900432713,0.044373165832324674,1,-83259.75701359827,8.080654079094529E-4,1.56109798E9,,,,0,,5,,1.56109798E9
Raw,2064186120,440292000000,,,-1311985616708286527,0.0,8.437860098377898,,,0,10,0.0,16431,174842880666094,21,26.738933563232422,-175.1780836333213,0.2183924266060704,4,-38675.91089029249,3.4028234663852886E38,1.56109798E9,,,,0,,5,,1.56109798E9
Raw,2064186121,440292000000,,,-1311985616708286527,0.0,8.437860098377898,,,0,13,0.0,16431,174842875678245,167,11.2506103515625,-313.5559074957903,4.202820079426598,4,-28331.762457532033,3.4028234663852886E38,1.56109798E9,,,,1,,5,,1.56109798E9
Fix,gps,34.486736,109.464176,357.406219,0.620445,3.000000,1627950840000
Raw,2064187197,441292000000,,,-1311985616708286910,0.0,8.421755703160569,,,0,1,0.0,16431,174857928053991,45,26.3671932220459,445.28238659677845,0.22551098366666056,4,189016.0888968816,3.4028234663852886E38,1.57542003E9,,,,0,,1,,1.57542003E9
Raw,2064187198,441292000000,,,-1311985616708286910,0.0,8.421755703160569,,,0,3,0.0,16431,174857926032571,46,26.077373504638672,-314.04788775569705,0.2327497113417777,4,-149423.63751092143,3.4028234663852886E38,1.57542003E9,,,,0,,1,,1.57542003E9
Raw,2064187198,441292000000,,,-1311985616708286910,0.0,8.421755703160569,,,0,6,0.0,16431,174857922938675,64,21.970233917236328,-711.6006569186275,4.200528566763822,4,-315840.74790347624,3.4028234663852886E38,1.57542003E9,,,,0,,1,,1.57542003E9
Raw,2064187199,441292000000,,,-1311985616708286910,0.0,8.421755703160569,,,0,7,0.0,39,5918079517,48,25.788166046142578,558.6652786077118,0.24276006831574637,4,7272.891449000601,3.4028234663852886E38,1.57542003E9,,,,0,,1,,1.57542003E9
Raw,2064187200,441292000000,,,-1311985616708286910,0.0,8.421755703160569,,,0,14,0.0,16431,174857932957356,11,38.451717376708984,-187.8848754864381,0.05806756509467023,1,-92605.62185169848,0.0010858750902116299,1.57542003E9,,,,0,,1,,1.57542003E9
Raw,2064187200,441292000000,,,-1311985616708286910,0.0,8.421755703160569,,,0,17,0.0,16431,174857929709492,10,39.3532600402832,-215.89615586392722,0.05198832325613209,1,-97999.48662033334,9.788196766749024E-4,1.57542003E9,,,,0,,1,,1.57542003E9
Raw,2064187201,441292000000,,,-1311985616708286910,0.0,8.421755703160569,,,0,19,0.0,16431,174857926884604,6,44.227237701416016,-473.79774650623995,0.031238370800426976,1,-211773.42865895518,5.886844592168927E-4,1.57542003E9,,,,0,,1,,1.57542003E9
Raw,2064187201,441292000000,,,-1311985616708286910,0.0,8.421755703160569,,,0,21,0.0,16431,174857918524990,12,37.644256591796875,485.7472943403329,0.06449895209953493,1,212270.6580899999,0.0011916613439098,1.57542003E9,,,,0,,1,,1.57542003E9
Raw,2064187202,441292000000,,,-1311985616708286910,0.0,8.421755703160569,,,0,22,0.0,16431,174857924038972,25,31.40536880493164,26.136008235612252,0.12617340382386433,4,-250.5006741292028,3.4028234663852886E38,1.57542003E9,,,,0,,1,,1.57542003E9
Raw,2064187203,441292000000,,,-1311985616708286910,0.0,8.421755703160569,,,0,24,0.0,16431,174857915854831,14,36.0865478515625,-497.5627958729217,0.07603334239609844,1,-226993.55258316285,0.0014257334405556321,1.57542003E9,,,,0,,1,,1.57542003E9
Raw,2064187203,441292000000,,,-1311985616708286910,0.0,8.421755703160569,,,0,30,0.0,16,441004009329,1000000000,7.0,452.43435152089455,2.99792458E8,2,1.806226847731185,3.4028234663852886E38,1.57542003E9,,,,0,,1,,1.57542003E9
Raw,2064187204,441292000000,,,-1311985616708286910,0.0,8.421755703160569,,,0,10,0.0,32995,12839919377277,60,29.825441360473633,-897.4369552320773,0.15395772859082968,1,-228980.11887562706,0.0027247078251093626,1.59806246E9,,,,0,,3,,1.59806246E9
Raw,2064187204,441292000000,,,-1311985616708286910,0.0,8.421755703160569,,,0,2,0.0,32995,12839920673870,54,30.78995704650879,-164.35543814169853,0.13837620467951495,4,-84923.19326588698,3.4028234663852886E38,1.59975002E9,,,,0,,3,,1.59975002E9
Raw,2064187205,441292000000,,,-1311985616708286910,0.0,8.421755703160569,,,0,18,0.0,32995,12839930417908,97,25.769624710083008,359.92573716174775,0.2418937947845753,4,151953.41849734646,3.4028234663852886E38,1.60031245E9,,,,0,,3,,1.60031245E9
Raw,2064187205,441292000000,,,-1311985616708286910,0.0,8.421755703160569,,,0,9,0.0,32995,12839932328648,38,33.765342712402344,-540.4086358642467,0.09781838929112335,1,-248683.8558509905,0.0017280698521062732,1.59862502E9,,,,0,,3,,1.59862502E9
Raw,2064187206,441292000000,,,-1311985616708286910,0.0,8.421755703160569,,,0,16,0.0,51,14811657,125,23.549423217773438,231.39806701770794,0.3125896797053287,4,6146.610056577606,3.4028234663852886E38,1.60143744E9,,,,0,,3,,1.60143744E9
Raw,2064187207,441292000000,,,-1311985616708286910,0.0,8.421755703160569,,,0,19,0.0,32995,12839933961130,74,20.08941650390625,-99.83638511462169,4.20251120716436,4,-51606.132824523214,3.4028234663852886E38,1.60368755E9,,,,0,,3,,1.60368755E9
Raw,2064187207,441292000000,,,-1311985616708286910,0.0,8.421755703160569,,,0,3,0.0,32995,12839921268926,51,31.258930206298828,-597.5750038601304,0.12780803871191354,4,-262844.7087383053,3.4028234663852886E38,1.60481254E9,,,,0,,3,,1.60481254E9
Raw,2064187208,441292000000,,,-1311985616708286910,0.0,8.421755703160569,,,0,193,0.0,35,11634718,32,29.217769622802734,-178.26651655482056,0.16346913038341804,1,-77996.85427250284,0.0029641552828252316,1.57542003E9,,,,0,,4,,1.57542003E9
Raw,2064187209,441292000000,,,-1311985616708286910,0.0,8.421755703160569,,,0,194,0.0,35,16159077,6,42.70414352416992,-169.8731322343176,0.037066884831211344,1,-76691.07983352906,7.01515527907759E-4,1.57542003E9,,,,0,,4,,1.57542003E9
Raw,2064187209,441292000000,,,-1311985616708286910,0.0,8.421755703160569,,,0,195,0.0,35,8451565,43,26.78847312927246,-102.56728454658253,0.21497444548647204,4,-44009.8596128041,3.4028234663852886E38,1.57542003E9,,,,0,,4,,1.57542003E9
Raw,2064187210,441292000000,,,-1311985616708286910,0.0,8.421755703160569,,,0,7,0.0,16431,174843880314476,10,33.376564025878906,-116.00991663602679,0.10363112063162216,1,-40947.416111037914,0.0019656384829431772,1.56109798E9,,,,0,,5,,1.56109798E9
Raw,2064187210,441292000000,,,-1311985616708286910,0.0,8.421755703160569,,,0,8,0.0,16431,174843878197108,6,41.19535827636719,-238.5458568409,0.04391383483501701,1,-83498.33117631619,7.990315207280219E-4,1.56109798E9,,,,0,,5,,1.56109798E9
Raw,2064187211,441292000000,,,-1311985616708286910,0.0,8.421755703160569,,,0,10,0.0,16431,174843880666674,15,29.529367446899414,-174.77224678227594,0.15940719386579716,4,-38850.92185886147,3.4028234663852886E38,1.56109798E9,,,,0,,5,,1.56109798E9
Raw,2064187211,441292000000,,,-1311985616708286910,0.0,8.421755703160569,,,0,13,0.0,16431,174843875679236,114,12.480001449584961,-313.4413222769606,4.202820345695789,4,-28644.8222288559,3.4028234663852886E38,1.56109798E9,,,,0,,5,,1.56109798E9
Fix,gps,34.486735,109.464176,357.442627,0.433620,3.000000,1627950841000
Raw,2064188138,442292000000,,,-1311985616708287293,0.0,8.445255395717453,,,0,1,0.0,16431,174858928052496,51,25.292879104614258,446.40646009535726,0.2550105979239885,4,189462.2455543083,3.4028234663852886E38,1.57542003E9,,,,0,,1,,1.57542003E9
Raw,2064188139,442292000000,,,-1311985616708287293,0.0,8.445255395717453,,,0,3,0.0,16431,174858926033658,53,24.869646072387695,-313.15826747553865,0.267308639941104,4,-149736.41251231806,3.4028234663852886E38,1.57542003E9,,,,0,,1,,1.57542003E9
Raw,2064188140,442292000000,,,-1311985616708287293,0.0,8.445255395717453,,,0,6,0.0,16431,174858922941045,70,20.98396110534668,-711.1958936649626,4.200529099302205,4,-316551.82450115186,3.4028234663852886E38,1.57542003E9,,,,0,,1,,1.57542003E9
Raw,2064188140,442292000000,,,-1311985616708287293,0.0,8.445255395717453,,,0,7,0.0,39,918077649,47,25.89590835571289,558.5179742306202,0.23980715962289922,1,7831.447497291259,0.00434504309669137,1.57542003E9,,,,0,,1,,1.57542003E9
Raw,2064188141,442292000000,,,-1311985616708287293,0.0,8.445255395717453,,,0,14,0.0,16431,174858932957967,14,36.48631286621094,-187.59524277090725,0.07222044246081916,1,-92793.55674147436,0.0013616015203297138,1.57542003E9,,,,0,,1,,1.57542003E9
Raw,2064188141,442292000000,,,-1311985616708287293,0.0,8.445255395717453,,,0,17,0.0,16431,174858929710216,6,43.43383026123047,-215.87032136188293,0.033154379415998886,1,-98215.35235736067,6.449900683946908E-4,1.57542003E9,,,,0,,1,,1.57542003E9
Raw,2064188143,442292000000,,,-1311985616708287293,0.0,8.445255395717453,,,0,19,0.0,16431,174858926886200,6,44.29083251953125,-473.7929067974137,0.031238657871899153,1,-212247.2310462633,5.843900726176798E-4,1.57542003E9,,,,0,,1,,1.57542003E9
Raw,2064188143,442292000000,,,-1311985616708287293,0.0,8.445255395717453,,,0,21,0.0,16431,174858918523341,16,34.94859313964844,485.8165839744438,0.08675739233354807,4,212756.39532039658,3.4028234663852886E38,1.57542003E9,,,,0,,1,,1.57542003E9
Raw,2064188144,442292000000,,,-1311985616708287293,0.0,8.445255395717453,,,0,22,0.0,16431,174858924038893,22,32.5404167175293,26.813258599023484,0.11080628485816074,4,-223.81284372537002,3.4028234663852886E38,1.57542003E9,,,,0,,1,,1.57542003E9
Raw,2064188145,442292000000,,,-1311985616708287293,0.0,8.445255395717453,,,0,24,0.0,16431,174858915856529,16,35.008235931396484,-497.49473320724564,0.08570678563359041,1,-227491.0049043392,0.0016141874948516488,1.57542003E9,,,,0,,1,,1.57542003E9
Raw,2064188145,442292000000,,,-1311985616708287293,0.0,8.445255395717453,,,0,30,0.0,16,442004007819,1000000000,7.0,452.43435152089455,2.99792458E8,2,1.8026887494176596,3.4028234663852886E38,1.57542003E9,,,,0,,1,,1.57542003E9
Raw,2064188146,442292000000,,,-1311985616708287293,0.0,8.445255395717453,,,0,10,0.0,32995,12840919380293,58,30.210830688476562,-897.5655142580813,0.1474277928618859,1,-229877.69068565159,0.002606456633657217,1.59806246E9,,,,0,,3,,1.59806246E9
Raw,2064188146,442292000000,,,-1311985616708287293,0.0,8.445255395717453,,,0,2,0.0,32995,12840920674335,60,29.82307243347168,-164.6107498235109,0.1542320857091085,1,-85087.76439801829,0.0027225767262279987,1.59975002E9,,,,0,,3,,1.59975002E9
Raw,2064188147,442292000000,,,-1311985616708287293,0.0,8.445255395717453,,,0,18,0.0,32995,12840930416780,106,24.987110137939453,360.2554508461494,0.26452103449075737,4,152314.09577640795,3.4028234663852886E38,1.60031245E9,,,,0,,3,,1.60031245E9
Raw,2064188147,442292000000,,,-1311985616708287293,0.0,8.445255395717453,,,0,9,0.0,32995,12840932330515,33,35.451499938964844,-540.1993695811966,0.08095035249701937,1,-249224.02446920902,0.0015094878617674112,1.59862502E9,,,,0,,3,,1.59862502E9
Raw,2064188148,442292000000,,,-1311985616708287293,0.0,8.445255395717453,,,0,16,0.0,51,14810777,90,26.387460708618164,231.21395358757172,0.22620416558147727,4,6377.636161520099,3.4028234663852886E38,1.60143744E9,,,,0,,3,,1.60143744E9
Raw,2064188149,442292000000,,,-1311985616708287293,0.0,8.445255395717453,,,0,19,0.0,32995,12840933961711,103,25.22751235961914,-99.32015518689894,0.25798895196645644,4,-51705.55247878304,3.4028234663852886E38,1.60368755E9,,,,0,,3,,1.60368755E9
Raw,2064188149,442292000000,,,-1311985616708287293,0.0,8.445255395717453,,,0,3,0.0,32995,12840921270844,52,31.032209396362305,-597.5256524630854,0.1311823433631798,4,-263442.3238406742,3.4028234663852886E38,1.60481254E9,,,,0,,3,,1.60481254E9
Raw,2064188150,442292000000,,,-1311985616708287293,0.0,8.445255395717453,,,0,193,0.0,35,11635314,33,28.913700103759766,-178.1727557169263,0.16921864775365225,1,-78175.05777790108,0.00306975981220603,1.57542003E9,,,,0,,4,,1.57542003E9
Raw,2064188150,442292000000,,,-1311985616708287293,0.0,8.445255395717453,,,0,194,0.0,35,16159649,6,43.293880462646484,-169.78886336056496,0.03482462780842252,1,-76860.98415398666,6.554663414135575E-4,1.57542003E9,,,,0,,4,,1.57542003E9
Raw,2064188151,442292000000,,,-1311985616708287293,0.0,8.445255395717453,,,0,195,0.0,35,8451873,50,25.42327880859375,-101.87285449493027,0.25130419734443077,4,-44112.011550465366,3.4028234663852886E38,1.57542003E9,,,,0,,4,,1.57542003E9
Raw,2064188152,442292000000,,,-1311985616708287293,0.0,8.445255395717453,,,0,7,0.0,16431,174844880314876,10,32.797019958496094,-116.0226038304674,0.11052948971259646,1,-41063.448159970925,0.0021012655925005674,1.56109798E9,,,,0,,5,,1.56109798E9
Raw,2064188152,442292000000,,,-1311985616708287293,0.0,8.445255395717453,,,0,8,0.0,16431,174844878197904,6,40.79774475097656,-238.51867608182306,0.045817626271196926,1,-83736.9125422386,8.364589884877205E-4,1.56109798E9,,,,0,,5,,1.56109798E9
Raw,2064188153,442292000000,,,-1311985616708287293,0.0,8.445255395717453,,,0,10,0.0,16431,174844880667224,15,29.7459659576416,-174.92877046385695,0.15557288422333204,4,-39025.980723107044,3.4028234663852886E38,1.56109798E9,,,,0,,5,,1.56109798E9
Raw,2064188153,442292000000,,,-1311985616708287293,0.0,8.445255395717453,,,0,13,0.0,16431,174844875680262,167,12.254802703857422,-313.4742459299616,4.202820611964981,4,-28957.27105877226,3.4028234663852886E38,1.56109798E9,,,,1,,5,,1.56109798E9
Fix,gps,34.486735,109.464175,357.475250,0.452918,3.000000,1627950842000
Raw,2064189157,443292000000,,,-1311985616708287676,0.0,8.448557393196088,,,0,1,0.0,16431,174859928050955,65,23.182918548583984,446.108000023587,0.32473088916860093,4,189907.81562068194,3.4028234663852886E38,1.57542003E9,,,,0,,1,,1.57542003E9
Raw,2064189158,443292000000,,,-1311985616708287676,0.0,8.448557393196088,,,0,3,0.0,16431,174859926034642,35,28.478160858154297,-313.3544120128274,0.17680513963480315,4,-150049.519193395,3.4028234663852886E38,1.57542003E9,,,,0,,1,,1.57542003E9
Raw,2064189159,443292000000,,,-1311985616708287676,0.0,8.448557393196088,,,0,6,0.0,16431,174859922943422,66,21.67476463317871,-711.5657564831481,4.200529365571397,4,-317263.35654581006,3.4028234663852886E38,1.57542003E9,,,,0,,1,,1.57542003E9
Raw,2064189160,443292000000,,,-1311985616708287676,0.0,8.448557393196088,,,0,7,0.0,16431,174859918075802,62,23.640413284301758,558.7964619828681,0.3099471243970977,1,8390.273517479685,0.005633377004414797,1.57542003E9,,,,0,,1,,1.57542003E9
Raw,2064189160,443292000000,,,-1311985616708287676,0.0,8.448557393196088,,,0,14,0.0,16431,174859932958601,12,37.29138946533203,-188.02135868358368,0.06603379012666952,1,-92981.50370377714,0.001241070101968944,1.57542003E9,,,,0,,1,,1.57542003E9
Raw,2064189161,443292000000,,,-1311985616708287676,0.0,8.448557393196088,,,0,17,0.0,16431,174859929710925,8,40.9617919921875,-216.13478418327168,0.043495043322128085,1,-98431.49715055065,8.133476949296892E-4,1.57542003E9,,,,0,,1,,1.57542003E9
Raw,2064189162,443292000000,,,-1311985616708287676,0.0,8.448557393196088,,,0,19,0.0,16431,174859926887783,9,40.37689208984375,-474.370059116171,0.04589534359149064,4,-212721.48429211308,3.4028234663852886E38,1.57542003E9,,,,0,,1,,1.57542003E9
Raw,2064189162,443292000000,,,-1311985616708287676,0.0,8.448557393196088,,,0,21,0.0,16431,174859918521725,20,33.338809967041016,486.18736701895546,0.10374411029888858,4,213242.11752361464,3.4028234663852886E38,1.57542003E9,,,,0,,1,,1.57542003E9
Raw,2064189163,443292000000,,,-1311985616708287676,0.0,8.448557393196088,,,0,22,0.0,16431,174859924038818,27,30.663673400878906,26.574413004018695,0.13735604419743253,4,-197.22438970894717,3.4028234663852886E38,1.57542003E9,,,,0,,1,,1.57542003E9
Raw,2064189164,443292000000,,,-1311985616708287676,0.0,8.448557393196088,,,0,24,0.0,16431,174859915858179,11,38.181583404541016,-497.8376027198651,0.06035001628401995,1,-227988.93694505005,0.0011201767483726144,1.57542003E9,,,,0,,1,,1.57542003E9
Raw,2064189165,443292000000,,,-1311985616708287676,0.0,8.448557393196088,,,0,30,0.0,16,443004006310,1000000000,7.0,452.6200327440308,2.99792458E8,2,1.7998891036946125,3.4028234663852886E38,1.57542003E9,,,,0,,1,,1.57542003E9
Raw,2064189165,443292000000,,,-1311985616708287676,0.0,8.448557393196088,,,0,10,0.0,32995,12841919383198,50,31.481204986572266,-898.2228966794933,0.12784295325966005,1,-230775.65201844033,0.0022518106270581484,1.59806246E9,,,,0,,3,,1.59806246E9
Raw,2064189166,443292000000,,,-1311985616708287676,0.0,8.448557393196088,,,0,2,0.0,32995,12841920674890,70,28.57556915283203,-164.29366368925093,0.1774789504659321,4,-85252.10815008839,3.4028234663852886E38,1.59975002E9,,,,0,,3,,1.59975002E9
Raw,2064189167,443292000000,,,-1311985616708287676,0.0,8.448557393196088,,,0,18,0.0,32995,12841930415577,67,28.92709732055664,360.21830096853955,0.1687416930642266,4,152674.5646595342,3.4028234663852886E38,1.60031245E9,,,,0,,3,,1.60031245E9
Raw,2064189167,443292000000,,,-1311985616708287676,0.0,8.448557393196088,,,0,9,0.0,32995,12841932332265,33,39.430320739746094,-540.4275516276168,0.05201633976763412,1,-249764.4999726935,9.547477238811553E-4,1.59862502E9,,,,0,,3,,1.59862502E9
Raw,2064189169,443292000000,,,-1311985616708287676,0.0,8.448557393196088,,,0,16,0.0,51,14810053,87,26.634584426879883,230.33082601538092,0.2199336758960836,4,6608.941579856203,3.4028234663852886E38,1.60143744E9,,,,0,,3,,1.60143744E9
Raw,2064189169,443292000000,,,-1311985616708287676,0.0,8.448557393196088,,,0,19,0.0,32995,12841933962069,74,28.048166275024414,-99.7257960638193,0.1871489821294069,4,-51805.34291967072,3.4028234663852886E38,1.60368755E9,,,,0,,3,,1.60368755E9
Raw,2064189169,443292000000,,,-1311985616708287676,0.0,8.448557393196088,,,0,3,0.0,32995,12841921272824,54,30.796653747558594,-596.3739380922666,0.1347826772744523,4,-264039.3034017433,3.4028234663852886E38,1.60481254E9,,,,0,,3,,1.60481254E9
Raw,2064189170,443292000000,,,-1311985616708287676,0.0,8.448557393196088,,,0,193,0.0,35,11635951,44,26.494680404663086,-177.67706046925855,0.22289062855227793,4,-78353.01421432437,3.4028234663852886E38,1.57542003E9,,,,0,,4,,1.57542003E9
Raw,2064189170,443292000000,,,-1311985616708287676,0.0,8.448557393196088,,,0,194,0.0,35,16160220,7,41.7200927734375,-169.65865133541956,0.04116495074976534,1,-77030.49779999099,7.856692536734045E-4,1.57542003E9,,,,0,,4,,1.57542003E9
Raw,2064189170,443292000000,,,-1311985616708287676,0.0,8.448557393196088,,,0,195,0.0,35,8452182,48,25.804264068603516,-102.04429777185413,0.24058489864786847,4,-44214.3781067879,3.4028234663852886E38,1.57542003E9,,,,0,,4,,1.57542003E9
Raw,2064189171,443292000000,,,-1311985616708287676,0.0,8.448557393196088,,,0,7,0.0,16431,174845880315249,13,31.16327476501465,-115.19455350801746,0.13264679063324536,4,-41179.259668883926,3.4028234663852886E38,1.56109798E9,,,,0,,5,,1.56109798E9
Raw,2064189171,443292000000,,,-1311985616708287676,0.0,8.448557393196088,,,0,8,0.0,16431,174845878198705,7,35.76331329345703,-238.7012387601875,0.07922962113005377,4,-83975.42946842014,3.4028234663852886E38,1.56109798E9,,,,0,,5,,1.56109798E9
Raw,2064189171,443292000000,,,-1311985616708287676,0.0,8.448557393196088,,,0,10,0.0,16431,174845880667826,9,34.01054382324219,-175.18409918689758,0.09665732248121933,4,-39201.0899962585,3.4028234663852886E38,1.56109798E9,,,,0,,5,,1.56109798E9
Raw,2064189172,443292000000,,,-1311985616708287676,0.0,8.448557393196088,,,0,13,0.0,16431,174845875681333,167,14.550477981567383,-313.3081962017825,4.202820611964981,4,-29269.618694492707,3.4028234663852886E38,1.56109798E9,,,,1,,5,,1.56109798E9
Fix,gps,34.486734,109.464174,357.547821,0.468894,3.000000,1627950843000
Raw,2064190175,444292000000,,,-1311985616708288060,0.0,8.44169572791534,,,0,1,0.0,16431,174860928049474,61,23.781230926513672,445.8199351010562,0.30321154564312836,4,190353.28830375464,3.4028234663852886E38,1.57542003E9,,,,0,,1,,1.57542003E9
Raw,2064190176,444292000000,,,-1311985616708288060,0.0,8.44169572791534,,,0,3,0.0,16431,174860926035719,37,27.993213653564453,-313.26194630828104,0.18689507781340664,4,-150362.5970264881,3.4028234663852886E38,1.57542003E9,,,,0,,1,,1.57542003E9
Raw,2064190177,444292000000,,,-1311985616708288060,0.0,8.44169572791534,,,0,6,0.0,16431,174860922945822,77,19.57387924194336,-711.5727774691918,4.20052989810978,4,-317974.9565927143,3.4028234663852886E38,1.57542003E9,,,,0,,1,,1.57542003E9
Raw,2064190177,444292000000,,,-1311985616708288060,0.0,8.44169572791534,,,0,7,0.0,16431,174860918073907,78,19.423433303833008,556.8501492206765,4.203251169247773,4,8947.470735423512,3.4028234663852886E38,1.57542003E9,,,,0,,1,,1.57542003E9
Raw,2064190179,444292000000,,,-1311985616708288060,0.0,8.44169572791534,,,0,14,0.0,16431,174860932959240,13,37.05796813964844,-187.51047970153502,0.06776902484366423,1,-93169.28133712405,0.001274874317459762,1.57542003E9,,,,0,,1,,1.57542003E9
Raw,2064190179,444292000000,,,-1311985616708288060,0.0,8.44169572791534,,,0,17,0.0,16431,174860929711664,9,40.27250671386719,-216.0715441851936,0.04694320022995396,1,-98647.57198935658,8.805222460068762E-4,1.57542003E9,,,,0,,1,,1.57542003E9
Raw,2064190180,444292000000,,,-1311985616708288060,0.0,8.44169572791534,,,0,19,0.0,16431,174860926889365,6,42.80649185180664,-474.3720018161928,0.034999325360838635,4,-213195.7919693504,3.4028234663852886E38,1.57542003E9,,,,0,,1,,1.57542003E9
Raw,2064190181,444292000000,,,-1311985616708288060,0.0,8.44169572791534,,,0,21,0.0,16431,174860918520126,17,34.49390411376953,486.07438367558234,0.0912402838012395,4,213728.24511169552,3.4028234663852886E38,1.57542003E9,,,,0,,1,,1.57542003E9
Raw,2064190181,444292000000,,,-1311985616708288060,0.0,8.44169572791534,,,0,22,0.0,16431,174860924038727,166,28.574438095092773,26.77836029369766,0.17450911703759486,4,-171.24377998775162,3.4028234663852886E38,1.57542003E9,,,,1,,1,,1.57542003E9
Raw,2064190182,444292000000,,,-1311985616708288060,0.0,8.44169572791534,,,0,24,0.0,16431,174860915859808,10,38.97553634643555,-497.9118343101718,0.05532768007600289,1,-228486.75777482215,0.001022324780933559,1.57542003E9,,,,0,,1,,1.57542003E9
Raw,2064190182,444292000000,,,-1311985616708288060,0.0,8.44169572791534,,,0,30,0.0,16,444004004800,1000000000,19.70623016357422,452.6200327440308,2.99792458E8,2,1.7963495530895475,3.4028234663852886E38,1.57542003E9,,,,0,,1,,1.57542003E9
Raw,2064190183,444292000000,,,-1311985616708288060,0.0,8.44169572791534,,,0,10,0.0,32995,12842919386195,57,30.307092666625977,-898.0930425201414,0.14584244273701652,1,-231673.58767129912,0.0025777299888432026,1.59806246E9,,,,0,,3,,1.59806246E9
Raw,2064190183,444292000000,,,-1311985616708288060,0.0,8.44169572791534,,,0,2,0.0,32995,12842920675454,66,29.107227325439453,-163.9380132554354,0.16716228407069444,4,-85415.99732854072,3.4028234663852886E38,1.59975002E9,,,,0,,3,,1.59975002E9
Raw,2064190184,444292000000,,,-1311985616708288060,0.0,8.44169572791534,,,0,18,0.0,32995,12842930414293,86,26.768550872802734,360.48128120306956,0.21581765344892212,4,153034.2014209498,3.4028234663852886E38,1.60031245E9,,,,0,,3,,1.60031245E9
Raw,2064190185,444292000000,,,-1311985616708288060,0.0,8.44169572791534,,,0,9,0.0,32995,12842932334095,33,39.360008239746094,-540.0801832307363,0.05242141009624421,1,-250304.79632586523,9.625076781958342E-4,1.59862502E9,,,,0,,3,,1.59862502E9
Raw,2064190185,444292000000,,,-1311985616708288060,0.0,8.44169572791534,,,0,16,0.0,51,14809143,116,24.214214324951172,230.695508300175,0.28975353517652414,4,6841.017430989577,3.4028234663852886E38,1.60143744E9,,,,0,,3,,1.60143744E9
Raw,2064190186,444292000000,,,-1311985616708288060,0.0,8.44169572791534,,,0,19,0.0,32995,12842933962442,76,27.89918327331543,-100.03921833400307,0.19034331376989877,4,-51905.0416158225,3.4028234663852886E38,1.60368755E9,,,,0,,3,,1.60368755E9
Raw,2064190186,444292000000,,,-1311985616708288060,0.0,8.44169572791534,,,0,3,0.0,32995,12842921274805,53,30.922054290771484,-596.5799324594905,0.1328543807517344,4,-264636.07483473455,3.4028234663852886E38,1.60481254E9,,,,0,,3,,1.60481254E9
Raw,2064190187,444292000000,,,-1311985616708288060,0.0,8.44169572791534,,,0,193,0.0,35,11636525,39,27.61093521118164,-177.31379260641017,0.1962628773026086,4,-78530.7670126243,3.4028234663852886E38,1.57542003E9,,,,0,,4,,1.57542003E9
Raw,2064190188,444292000000,,,-1311985616708288060,0.0,8.44169572791534,,,0,194,0.0,35,16160788,6,43.467437744140625,-169.30330764371274,0.03419339300498232,1,-77200.00907815949,6.424993625842035E-4,1.57542003E9,,,,0,,4,,1.57542003E9
Raw,2064190188,444292000000,,,-1311985616708288060,0.0,8.44169572791534,,,0,195,0.0,35,8452565,57,24.340538024902344,-102.36419570877723,0.2844650629115184,4,-44317.41666000206,3.4028234663852886E38,1.57542003E9,,,,0,,4,,1.57542003E9
Raw,2064190189,444292000000,,,-1311985616708288060,0.0,8.44169572791534,,,0,7,0.0,16431,174846880315652,11,31.930513381958008,-115.55523962478424,0.12174146130180014,4,-41295.038128767344,3.4028234663852886E38,1.56109798E9,,,,0,,5,,1.56109798E9
Raw,2064190189,444292000000,,,-1311985616708288060,0.0,8.44169572791534,,,0,8,0.0,16431,174846878199486,11,32.601505279541016,-238.46555857333226,0.11258191760406616,4,-84213.95556023643,3.4028234663852886E38,1.56109798E9,,,,0,,5,,1.56109798E9
Raw,2064190189,444292000000,,,-1311985616708288060,0.0,8.44169572791534,,,0,10,0.0,16431,174846880668419,11,32.51156234741211,-174.77499042002603,0.11416380622944494,4,-39376.1382485315,3.4028234663852886E38,1.56109798E9,,,,0,,5,,1.56109798E9
Raw,2064190190,444292000000,,,-1311985616708288060,0.0,8.44169572791534,,,0,13,0.0,16431,174846875682375,167,14.646234512329102,-313.0998842275151,4.2028208782341725,4,-29581.703106564895,3.4028234663852886E38,1.56109798E9,,,,1,,5,,1.56109798E9
Raw,2064191102,445292000000,,,-1311985616708288442,0.0,8.55236672240638,,,0,1,0.0,16431,174861928048045,46,26.11090850830078,445.76305148111965,0.23221960266498198,4,190800.15029813084,3.4028234663852886E38,1.57542003E9,,,,0,,1,,1.57542003E9
Raw,2064191102,445292000000,,,-1311985616708288442,0.0,8.55236672240638,,,0,3,0.0,16431,174861926036719,35,28.523447036743164,-312.858478187964,0.17589173645672163,4,-150675.9382742808,3.4028234663852886E38,1.57542003E9,,,,0,,1,,1.57542003E9
Raw,2064191103,445292000000,,,-1311985616708288442,0.0,8.55236672240638,,,0,6,0.0,16431,174861922948213,78,19.37903594970703,-711.7637073906326,4.200530430648163,4,-318685.8655848269,3.4028234663852886E38,1.57542003E9,,,,0,,1,,1.57542003E9
Raw,2064191103,445292000000,,,-1311985616708288442,0.0,8.55236672240638,,,0,7,0.0,16431,174861918072002,87,17.69304847717285,557.0897829724884,4.20325063670939,4,9503.885330888068,3.4028234663852886E38,1.57542003E9,,,,0,,1,,1.57542003E9
Raw,2064191103,445292000000,,,-1311985616708288442,0.0,8.55236672240638,,,0,14,0.0,16431,174861932959860,12,37.515689849853516,-188.04097313731256,0.06441004731273856,1,-93357.06883632371,0.0012094313278794289,1.57542003E9,,,,0,,1,,1.57542003E9
Raw,2064191103,445292000000,,,-1311985616708288442,0.0,8.55236672240638,,,0,17,0.0,16431,174861929712372,8,40.594398498535156,-216.20357962176297,0.045299050378761724,1,-98863.72864874118,8.484883583150804E-4,1.57542003E9,,,,0,,1,,1.57542003E9
Raw,2064191104,445292000000,,,-1311985616708288442,0.0,8.55236672240638,,,0,19,0.0,16431,174861926890936,6,44.861427307128906,-474.40540262358513,0.031239508685175388,4,-213670.21108049154,3.4028234663852886E38,1.57542003E9,,,,0,,1,,1.57542003E9
Raw,2064191104,445292000000,,,-1311985616708288442,0.0,8.55236672240638,,,0,21,0.0,16431,174861918518490,16,35.04738998413086,486.2413536300876,0.08581296047373471,4,214214.45751295143,3.4028234663852886E38,1.57542003E9,,,,0,,1,,1.57542003E9
Raw,2064191104,445292000000,,,-1311985616708288442,0.0,8.55236672240638,,,0,22,0.0,16431,174861924038626,42,26.87424659729004,26.886480496555677,0.21208316146965223,4,-144.23245559880496,3.4028234663852886E38,1.57542003E9,,,,0,,1,,1.57542003E9
Raw,2064191105,445292000000,,,-1311985616708288442,0.0,8.55236672240638,,,0,24,0.0,16431,174861915861465,8,41.054443359375,-497.85409862882216,0.044158432210680165,1,-228984.59084117092,8.482468547299504E-4,1.57542003E9,,,,0,,1,,1.57542003E9
Raw,2064191105,445292000000,,,-1311985616708288442,0.0,8.55236672240638,,,0,30,0.0,16,445004003291,1000000000,18.555797576904297,452.43435152089455,2.99792458E8,2,1.8062268477543004,3.4028234663852886E38,1.57542003E9,,,,0,,1,,1.57542003E9
Raw,2064191105,445292000000,,,-1311985616708288442,0.0,8.55236672240638,,,0,10,0.0,32995,12843919389253,58,30.14629554748535,-898.1569130436651,0.1485028880065571,1,-232571.5383682637,0.0026258944999426603,1.59806246E9,,,,0,,3,,1.59806246E9
Raw,2064191106,445292000000,,,-1311985616708288442,0.0,8.55236672240638,,,0,2,0.0,32995,12843920676012,80,27.406259536743164,-163.86076536772646,0.20251867225699172,4,-85579.87369015525,3.4028234663852886E38,1.59975002E9,,,,0,,3,,1.59975002E9
Raw,2064191106,445292000000,,,-1311985616708288442,0.0,8.55236672240638,,,0,18,0.0,32995,12843930413064,73,28.237234115600586,360.55612627759365,0.1825350362939825,4,153394.4144088857,3.4028234663852886E38,1.60031245E9,,,,0,,3,,1.60031245E9
Raw,2064191106,445292000000,,,-1311985616708288442,0.0,8.55236672240638,,,0,9,0.0,32995,12843932335842,33,36.56692886352539,-540.2772479943512,0.07146288164802467,4,-250844.76558556387,3.4028234663852886E38,1.59862502E9,,,,0,,3,,1.59862502E9
Raw,2064191106,445292000000,,,-1311985616708288442,0.0,8.55236672240638,,,0,16,0.0,51,14808439,121,23.85675048828125,232.22921884370146,0.30181499701691683,4,7073.92623911371,3.4028234663852886E38,1.60143744E9,,,,0,,3,,1.60143744E9
Raw,2064191107,445292000000,,,-1311985616708288442,0.0,8.55236672240638,,,0,19,0.0,32995,12843933962704,90,26.34341812133789,-100.19428499056772,0.22718796367708394,4,-52004.24150754419,3.4028234663852886E38,1.60368755E9,,,,0,,3,,1.60368755E9
Raw,2064191107,445292000000,,,-1311985616708288442,0.0,8.55236672240638,,,0,3,0.0,32995,12843921276737,60,29.82807731628418,-596.8549097187165,0.15065620695890058,4,-265233.39450181345,3.4028234663852886E38,1.60481254E9,,,,0,,3,,1.60481254E9
Raw,2064191107,445292000000,,,-1311985616708288442,0.0,8.55236672240638,,,0,193,0.0,35,11637115,28,30.436256408691406,-177.64773251542067,0.14234731011915658,4,-78708.30876001625,3.4028234663852886E38,1.57542003E9,,,,0,,4,,1.57542003E9
Raw,2064191108,445292000000,,,-1311985616708288442,0.0,8.55236672240638,,,0,194,0.0,35,16161340,9,40.135536193847656,-169.45124254625,0.04882171273475783,1,-77369.4115016381,8.945175795815885E-4,1.57542003E9,,,,0,,4,,1.57542003E9
Raw,2064191108,445292000000,,,-1311985616708288442,0.0,8.55236672240638,,,0,195,0.0,35,8452852,44,26.55516815185547,-102.52893326238024,0.22078580387645175,4,-44419.75560453713,3.4028234663852886E38,1.57542003E9,,,,0,,4,,1.57542003E9
Raw,2064191108,445292000000,,,-1311985616708288442,0.0,8.55236672240638,,,0,7,0.0,16431,174847880316040,11,32.471553802490234,-115.71225750198482,0.11461035630555655,4,-41410.75777845074,3.4028234663852886E38,1.56109798E9,,,,0,,5,,1.56109798E9
Raw,2064191108,445292000000,,,-1311985616708288442,0.0,8.55236672240638,,,0,8,0.0,16431,174847878200290,166,29.98654556274414,-238.60623391263016,0.15098078910344204,4,-84452.41113305047,3.4028234663852886E38,1.56109798E9,,,,1,,5,,1.56109798E9
Raw,2064191109,445292000000,,,-1311985616708288442,0.0,8.55236672240638,,,0,10,0.0,16431,174847880668999,12,31.39530372619629,-174.3278115492185,0.12931022131897396,4,-39551.288089181035,3.4028234663852886E38,1.56109798E9,,,,0,,5,,1.56109798E9
Raw,2064191109,445292000000,,,-1311985616708288442,0.0,8.55236672240638,,,0,13,0.0,16431,174847875683433,100,15.082768440246582,-313.1345801682553,4.202821144503364,4,-29894.31399639081,3.4028234663852886E38,1.56109798E9,,,,0,,5,,1.56109798E9
Fix,gps,34.486732,109.464169,357.598602,0.516663,3.000000,1627950844000
Fix,gps,34.486730,109.464163,357.696381,0.759446,3.000000,1627950845000
Raw,2064192158,446292000000,,,-1311985616708288825,0.0,8.532588934521947,,,0,1,0.0,16431,174862928046523,38,27.843509674072266,446.27929845007066,0.19048699928240753,4,191246.37868519104,3.4028234663852886E38,1.57542003E9,,,,0,,1,,1.57542003E9
Raw,2064192158,446292000000,,,-1311985616708288825,0.0,8.532588934521947,,,0,3,0.0,16431,174862926037824,29,30.151126861572266,-312.73434988130793,0.14602064339348442,4,-150989.00242944973,3.4028234663852886E38,1.57542003E9,,,,0,,1,,1.57542003E9
Raw,2064192158,446292000000,,,-1311985616708288825,0.0,8.532588934521947,,,0,6,0.0,16431,174862922950535,70,20.859216690063477,-710.8016278079067,4.200530696917355,4,-319396.55130650604,3.4028234663852886E38,1.57542003E9,,,,0,,1,,1.57542003E9
Raw,2064192158,446292000000,,,-1311985616708288825,0.0,8.532588934521947,,,0,7,0.0,16431,174862918070148,110,13.134471893310547,557.0745481144227,4.203250370440198,4,10062.250714088192,3.4028234663852886E38,1.57542003E9,,,,0,,1,,1.57542003E9
Raw,2064192159,446292000000,,,-1311985616708288825,0.0,8.532588934521947,,,0,14,0.0,16431,174862932960482,9,40.174739837646484,-187.17652275129626,0.04803917670388394,1,-93544.59856505861,8.904890855774283E-4,1.57542003E9,,,,0,,1,,1.57542003E9
Raw,2064192159,446292000000,,,-1311985616708288825,0.0,8.532588934521947,,,0,17,0.0,16431,174862929713105,11,38.47572708129883,-216.00709425990897,0.057330149210401554,1,-99079.78546416984,0.0010828773956745863,1.57542003E9,,,,0,,1,,1.57542003E9
Raw,2064192159,446292000000,,,-1311985616708288825,0.0,8.532588934521947,,,0,19,0.0,16431,174862926892519,6,46.37024688720703,-474.2372738655581,0.031239793676419506,4,-214144.5352898362,3.4028234663852886E38,1.57542003E9,,,,0,,1,,1.57542003E9
Raw,2064192160,446292000000,,,-1311985616708288825,0.0,8.532588934521947,,,0,21,0.0,16431,174862918516850,15,35.85679626464844,486.2192681982608,0.07847372449970669,4,214700.6823135886,3.4028234663852886E38,1.57542003E9,,,,0,,1,,1.57542003E9
Raw,2064192161,446292000000,,,-1311985616708288825,0.0,8.532588934521947,,,0,22,0.0,16431,174862924038512,40,27.262479782104492,27.318688648335566,0.20284415306005477,4,-116.68391640384696,3.4028234663852886E38,1.57542003E9,,,,0,,1,,1.57542003E9
Raw,2064192161,446292000000,,,-1311985616708288825,0.0,8.532588934521947,,,0,24,0.0,16431,174862915863145,9,40.29953384399414,-497.58828955040076,0.04790928726386415,1,-229482.30301591233,9.252685122191906E-4,1.57542003E9,,,,0,,1,,1.57542003E9
Raw,2064192161,446292000000,,,-1311985616708288825,0.0,8.532588934521947,,,0,30,0.0,16,446004001782,1000000000,18.03949737548828,452.43435152089455,2.99792458E8,2,1.8026887493785344,3.4028234663852886E38,1.57542003E9,,,,0,,1,,1.57542003E9
Raw,2064192161,446292000000,,,-1311985616708288825,0.0,8.532588934521947,,,0,10,0.0,32995,12844919392166,56,30.455751419067383,-897.8792773528303,0.14342784714043078,4,-233469.4624553727,3.4028234663852886E38,1.59806246E9,,,,0,,3,,1.59806246E9
Raw,2064192162,446292000000,,,-1311985616708288825,0.0,8.532588934521947,,,0,2,0.0,32995,12844920676542,74,28.079954147338867,-163.6101741061425,0.1876822860365016,4,-85743.63764472477,3.4028234663852886E38,1.59975002E9,,,,0,,3,,1.59975002E9
Raw,2064192162,446292000000,,,-1311985616708288825,0.0,8.532588934521947,,,0,18,0.0,32995,12844930411897,79,27.47945213317871,359.8862355946378,0.19900426840639085,4,153754.52840231318,3.4028234663852886E38,1.60031245E9,,,,0,,3,,1.60031245E9
Raw,2064192162,446292000000,,,-1311985616708288825,0.0,8.532588934521947,,,0,9,0.0,32995,12844932337724,33,35.69322204589844,-539.9635871469718,0.07879078453958588,4,-251384.7783132829,3.4028234663852886E38,1.59862502E9,,,,0,,3,,1.59862502E9
Raw,2064192163,446292000000,,,-1311985616708288825,0.0,8.532588934521947,,,0,16,0.0,51,14807481,66,21.73204231262207,232.49020525452488,4.202663513141946,4,7307.032826744519,3.4028234663852886E38,1.60143744E9,,,,0,,3,,1.60143744E9
Raw,2064192163,446292000000,,,-1311985616708288825,0.0,8.532588934521947,,,0,19,0.0,32995,12844933963045,88,26.57099151611328,-99.65648938848017,0.22137785342393979,4,-52103.70919712672,3.4028234663852886E38,1.60368755E9,,,,0,,3,,1.60368755E9
